[{"id":"xx-339165_1510282","name":"Al Amanah","lat":-33.916467,"lng":151.028211,"addr":"","type":"place_of_worship"},{"id":"xx-329040_1516698","name":"Islamic place","lat":-32.903956,"lng":151.669768,"addr":"","type":"place_of_worship"},{"id":"xx-335845_1508570","name":"St James","lat":-33.584513,"lng":150.857013,"addr":"Bathurst Street","type":"place_of_worship"},{"id":"xx-338904_1512095","name":"Redfern Mosque","lat":-33.890363,"lng":151.209476,"addr":"","type":"place_of_worship"},{"id":"xx-340434_1508484","name":"Minto Mosque","lat":-34.043352,"lng":150.848442,"addr":"Westmoreland Road","type":"place_of_worship"},{"id":"xx-328922_1516983","name":"Auchmuty Prayer Room","lat":-32.89221,"lng":151.69825,"addr":"","type":"place_of_worship"},{"id":"xx-339254_1511593","name":"Al Hijrah Mosque","lat":-33.925437,"lng":151.159321,"addr":"Station Street","type":"mosque"},{"id":"xx-337642_1509115","name":"Blacktown Mosque","lat":-33.764227,"lng":150.911526,"addr":"Fourth Avenue","type":"place_of_worship"},{"id":"xx-337436_1512935","name":"Dee Why Mosque","lat":-33.74357,"lng":151.293536,"addr":"South Creek Road","type":"place_of_worship"},{"id":"xx-337593_1508301","name":"Rooty Hill Masjid","lat":-33.759267,"lng":150.830089,"addr":"","type":"place_of_worship"},{"id":"xx-338119_1510245","name":"Muslim Prayer Rooms","lat":-33.811896,"lng":151.024461,"addr":"","type":"place_of_worship"},{"id":"xx-339163_1512262","name":"Islamic Society of UNSW","lat":-33.91632,"lng":151.226181,"addr":"Anzac Parade","type":"place_of_worship"},{"id":"xx-338140_1510017","name":"Parramatta Mosque","lat":-33.81396,"lng":151.001674,"addr":"","type":"place_of_worship"},{"id":"xx-339231_1509238","name":"MIA - Liverpool Islamic Centre","lat":-33.923065,"lng":150.92383,"addr":"","type":"place_of_worship"},{"id":"xx-315277_1525422","name":"St James","lat":-31.527664,"lng":152.542245,"addr":"","type":"place_of_worship"},{"id":"xx-338522_1510361","name":"Auburn Gallipoli Mosque","lat":-33.852195,"lng":151.036112,"addr":"","type":"mosque"},{"id":"xx-332880_1514265","name":"St James Anglican Church Wyong","lat":-33.287961,"lng":151.426481,"addr":"Byron Street","type":"church"},{"id":"xx-338868_1511143","name":"St James","lat":-33.886761,"lng":151.114273,"addr":"","type":"church"},{"id":"xx-338930_1510883","name":"Australian International Academy","lat":-33.892962,"lng":151.088296,"addr":"","type":"school"},{"id":"xx-337258_1508427","name":"Baitul Huda Mosque","lat":-33.725778,"lng":150.842722,"addr":"Hollinsworth Road","type":"yes"},{"id":"xx-338841_1508905","name":"Bonnyrigg Mosque","lat":-33.884133,"lng":150.890483,"addr":"","type":"yes"},{"id":"xx-338929_1510883","name":"Australian International Academy","lat":-33.892926,"lng":151.08827,"addr":"","type":"school"},{"id":"xx-322643_1508901","name":"St James","lat":-32.264293,"lng":150.890092,"addr":"Brook Street","type":"yes"},{"id":"xx-337289_1511278","name":"St James Turramurra","lat":-33.72895,"lng":151.12781,"addr":"King Street","type":"yes"},{"id":"xx-338695_1512112","name":"St James Church","lat":-33.869455,"lng":151.211181,"addr":"King Street","type":"church"},{"id":"xx-328981_1517387","name":"Islamic Centre of Newcastle","lat":-32.89812,"lng":151.738722,"addr":"","type":"place_of_worship"},{"id":"xx-337290_1511278","name":"St James Turramurra","lat":-33.728973,"lng":151.127805,"addr":"King Street","type":"yes"},{"id":"xx-328982_1517387","name":"Islamic Centre of Newcastle","lat":-32.89817,"lng":151.73867,"addr":"","type":"place_of_worship"},{"id":"xx-337590_1508301","name":"Australian Islamic College of Sydney","lat":-33.759031,"lng":150.830127,"addr":"Headcorn Street","type":"school"},{"id":"xx-338828_1506917","name":"St James Anglican Church","lat":-33.88283,"lng":150.691654,"addr":"The Northern Road","type":"yes"},{"id":"xx-336906_1509387","name":"Malek Fahd Islamic School Beaumont Hills Campus","lat":-33.690629,"lng":150.938665,"addr":"Mungerie Road","type":"school"},{"id":"xx-338988_1511845","name":"Erskineville Mosque","lat":-33.898841,"lng":151.184508,"addr":"","type":"house"},{"id":"xx-339322_1511491","name":"Al Zahra Mosque","lat":-33.932195,"lng":151.149058,"addr":"","type":"yes"},{"id":"xx-338828_1506916","name":"St James Anglican Church","lat":-33.882825,"lng":150.691635,"addr":"The Northern Road","type":"yes"},{"id":"xx-338903_1512095","name":"Islamic place","lat":-33.890326,"lng":151.209485,"addr":"","type":"mosque"},{"id":"xx-338819_1512106","name":"King Faisal Mosque","lat":-33.881871,"lng":151.210643,"addr":"","type":"yes"},{"id":"xx-339700_1511353","name":"Islamic place","lat":-33.969978,"lng":151.135318,"addr":"","type":"mosque"},{"id":"xx-339275_1508550","name":"Malek Fahd Islamic School","lat":-33.927504,"lng":150.854953,"addr":"","type":"school"},{"id":"xx-337645_1508260","name":"Islamic place","lat":-33.764535,"lng":150.825993,"addr":"","type":"yes"},{"id":"xx-332887_1514252","name":"Central Coast Islamic Cultural Centre - Wyong Masjid","lat":-33.288712,"lng":151.425205,"addr":"Howarth Street","type":"yes"},{"id":"xx-339272_1510575","name":"Punchbowl Mosque","lat":-33.927203,"lng":151.057469,"addr":"Matthews Street","type":"yes"},{"id":"xx-336714_1509567","name":"Imam Hasan Islamic Centre","lat":-33.671367,"lng":150.956719,"addr":"Annangrove Road","type":"mosque"},{"id":"xx-304885_1516454","name":"Mosque","lat":-30.488502,"lng":151.645406,"addr":"","type":"mosque"},{"id":"xx-338563_1510311","name":"Al-Faisal College","lat":-33.856317,"lng":151.031079,"addr":"","type":"school"},{"id":"xx-339276_1508549","name":"Malek Fahd Islamic School","lat":-33.927555,"lng":150.854892,"addr":"","type":"school"},{"id":"xx-339272_1510573","name":"Punchbowl Mosque","lat":-33.927165,"lng":151.057337,"addr":"Matthews Street","type":"yes"},{"id":"xx-338564_1510311","name":"Al-Faisal College","lat":-33.856373,"lng":151.031066,"addr":"","type":"school"},{"id":"xx-339099_1508104","name":"Al-Faisal College Liverpool Campus","lat":-33.909935,"lng":150.810354,"addr":"Gurner Avenue","type":"school"},{"id":"xx-338798_1511852","name":"St James Catholic Church","lat":-33.879837,"lng":151.1852,"addr":"Woolley Street","type":"church"},{"id":"xx-337256_1508429","name":"Islamic place","lat":-33.725649,"lng":150.842854,"addr":"","type":"mosque"},{"id":"xx-337263_1508433","name":"Khilafat Centenary Hall","lat":-33.726329,"lng":150.843256,"addr":"","type":"mosque"},{"id":"xx-337262_1508427","name":"Islamic place","lat":-33.726231,"lng":150.842726,"addr":"","type":"mosque"},{"id":"xx-337262_1508423","name":"Islamic place","lat":-33.726179,"lng":150.842344,"addr":"","type":"mosque"},{"id":"xx-339043_1512056","name":"Zetland Mosque","lat":-33.904326,"lng":151.205583,"addr":"","type":"yes"},{"id":"xx-338100_1511868","name":"Artarmon Mosque","lat":-33.809993,"lng":151.186846,"addr":"","type":"mosque"},{"id":"xx-339579_1508668","name":"Islamic place","lat":-33.957915,"lng":150.866836,"addr":"","type":"mosque"},{"id":"xx-339419_1507672","name":"Bellfield College","lat":-33.941858,"lng":150.767208,"addr":"Rossmore Avenue West","type":"school"},{"id":"xx-338526_1509889","name":"ICMG Guildford","lat":-33.852623,"lng":150.988882,"addr":"","type":"yes"},{"id":"xx-337597_1508327","name":"Australian Islamic College of Sydney Senior School","lat":-33.759681,"lng":150.832701,"addr":"","type":"school"},{"id":"xx-302175_1516735","name":"St James' Guyra","lat":-30.217546,"lng":151.673543,"addr":"","type":"church"},{"id":"xx-338534_1509385","name":"St James Anglican","lat":-33.853441,"lng":150.938468,"addr":"The Horsley Drive","type":"yes"},{"id":"xx-339130_1508196","name":"Arrahman College","lat":-33.913004,"lng":150.819601,"addr":"Seventeenth Avenue","type":"school"},{"id":"xx-338916_1510622","name":"Malek Fahd Islamic School","lat":-33.891602,"lng":151.062166,"addr":"","type":"school"},{"id":"xx-338348_1509766","name":"Dar El Arqam","lat":-33.834829,"lng":150.976628,"addr":"","type":"yes"},{"id":"xx-339104_1508103","name":"Al-Faisal College Liverpool Campus","lat":-33.910446,"lng":150.810253,"addr":"Gurner Avenue","type":"school"},{"id":"xx-337257_1508429","name":"Islamic place","lat":-33.725651,"lng":150.842853,"addr":"","type":"mosque"},{"id":"xx-337263_1508427","name":"Islamic place","lat":-33.726252,"lng":150.842679,"addr":"","type":"mosque"},{"id":"xx-339418_1507669","name":"Bellfield College","lat":-33.94181,"lng":150.766853,"addr":"Rossmore Avenue West","type":"school"},{"id":"xx-337597_1508326","name":"Australian Islamic College of Sydney Senior School","lat":-33.759713,"lng":150.83261,"addr":"","type":"school"},{"id":"xx-338535_1509385","name":"St James Anglican","lat":-33.853454,"lng":150.938464,"addr":"The Horsley Drive","type":"yes"},{"id":"xx-339131_1508196","name":"Arrahman College","lat":-33.913067,"lng":150.81959,"addr":"Seventeenth Avenue","type":"school"},{"id":"xx-339124_1510741","name":"Lakemba Mosque","lat":-33.91241,"lng":151.074117,"addr":"Wangee Road","type":"place_of_worship"},{"id":"xx-338917_1510622","name":"Malek Fahd Islamic School","lat":-33.891672,"lng":151.062153,"addr":"","type":"school"},{"id":"xx-338348_1509765","name":"Dar El Arqam","lat":-33.834811,"lng":150.976539,"addr":"","type":"yes"},{"id":"xx-338912_1511251","name":"Ashfield Mosque","lat":-33.891214,"lng":151.125096,"addr":"Holden Street","type":"commercial"},{"id":"xx-339262_1510814","name":"Al Hikma College","lat":-33.926248,"lng":151.081363,"addr":"Haldon Street","type":"school"},{"id":"xx-327595_1516121","name":"East Maitland Islamic Cemetery","lat":-32.759534,"lng":151.612094,"addr":"","type":"mosque"},{"id":"xx-339244_1508619","name":"Bilal Mosque","lat":-33.924401,"lng":150.861924,"addr":"","type":"mosque"},{"id":"xx-337243_1508411","name":"Islamic place","lat":-33.724314,"lng":150.841079,"addr":"","type":"mosque"},{"id":"xx-338981_1508659","name":"Minarah College","lat":-33.898135,"lng":150.865864,"addr":"","type":"school"},{"id":"xx-340431_1508487","name":"Zahra Grammar School","lat":-34.043133,"lng":150.848688,"addr":"","type":"school"},{"id":"xx-339368_1511493","name":"Masjid Darul Imaan","lat":-33.936841,"lng":151.149294,"addr":"","type":"yes"},{"id":"xx-327270_1516239","name":"Saint James' Anglican Church","lat":-32.727026,"lng":151.623882,"addr":"Tank Street","type":"yes"},{"id":"xx-339067_1510252","name":"Al Sadiq College Yagoona Campus","lat":-33.906733,"lng":151.025176,"addr":"Cooper Road","type":"school"},{"id":"xx-339237_1510768","name":"Al-Faisal College Lakemba Campus","lat":-33.923687,"lng":151.076849,"addr":"Croydon Street","type":"school"},{"id":"xx-327596_1516121","name":"East Maitland Islamic Cemetery","lat":-32.759567,"lng":151.612056,"addr":"","type":"mosque"},{"id":"xx-339244_1508617","name":"Bilal Mosque","lat":-33.924377,"lng":150.861734,"addr":"","type":"mosque"},{"id":"xx-337239_1508408","name":"Islamic place","lat":-33.72393,"lng":150.840816,"addr":"","type":"mosque"},{"id":"xx-338982_1508658","name":"Minarah College","lat":-33.898197,"lng":150.865799,"addr":"","type":"school"},{"id":"xx-339369_1511493","name":"Masjid Darul Imaan","lat":-33.93686,"lng":151.149267,"addr":"","type":"yes"},{"id":"xx-339068_1510251","name":"Al Sadiq College Yagoona Campus","lat":-33.906765,"lng":151.025086,"addr":"Cooper Road","type":"school"},{"id":"xx-338549_1510303","name":"Omar Mosque","lat":-33.854861,"lng":151.030289,"addr":"","type":"yes"},{"id":"xx-344130_1508864","name":"Omar Mosque","lat":-34.413005,"lng":150.886395,"addr":"","type":"place_of_worship"},{"id":"xx-338550_1510303","name":"Omar Mosque","lat":-33.854958,"lng":151.030268,"addr":"","type":"yes"},{"id":"xx-344131_1508864","name":"Omar Mosque","lat":-34.413055,"lng":150.886386,"addr":"","type":"place_of_worship"}]