[{"id":"xx-322509_245363","name":"St James","lat":-32.250941,"lng":24.53632,"addr":"","type":"place_of_worship"},{"id":"xx-339715_224837","name":"Islamic place","lat":-33.971509,"lng":22.483688,"addr":"","type":"place_of_worship"},{"id":"xx-340529_249221","name":"Jeffreys bay Masjid","lat":-34.052906,"lng":24.922065,"addr":"Jeffreys Street","type":"place_of_worship"},{"id":"xx-340561_233688","name":"Marine way masjid","lat":-34.056138,"lng":23.368816,"addr":"Marine Way","type":"place_of_worship"},{"id":"xx-340966_212654","name":"Riversdale masjid","lat":-34.096633,"lng":21.265405,"addr":"Lower Long Street","type":"place_of_worship"},{"id":"xx-342074_215755","name":"Albertinia Masjid (Mosque)","lat":-34.207406,"lng":21.575458,"addr":"Bloekompark Street","type":"place_of_worship"},{"id":"xx-340309_247714","name":"Town Masjid Musalla","lat":-34.030866,"lng":24.771376,"addr":"Bureau Street","type":"yes"},{"id":"xx-339647_224598","name":"Masjid Nur","lat":-33.964709,"lng":22.459787,"addr":"Cradock Street","type":"yes"},{"id":"xx-333378_200306","name":"Touws River Masjid","lat":-33.337825,"lng":20.030581,"addr":"","type":"yes"}]