[{"id":"xx-329650_279357","name":"Beacon Bay Masjid","lat":-32.964955,"lng":27.935701,"addr":"Bonza Bay Road","type":"place_of_worship"},{"id":"xx-329618_279381","name":"Beacon Bay Masjid","lat":-32.961842,"lng":27.93805,"addr":"Highfield Road","type":"place_of_worship"},{"id":"xx-339661_256284","name":"Masjid Azîez","lat":-33.966148,"lng":25.62836,"addr":"Pier Street","type":"mosque"},{"id":"xx-333143_265143","name":"Jamaat Khana","lat":-33.314252,"lng":26.514281,"addr":"","type":"mosque"},{"id":"xx-339893_256604","name":"Muslim Prayer Centre","lat":-33.989331,"lng":25.660364,"addr":"","type":"prayer_room"},{"id":"xx-339881_256667","name":"St James Church","lat":-33.988138,"lng":25.666737,"addr":"Brighton Drive","type":"place_of_worship"},{"id":"xx-337632_253940","name":"Masjid ul-Qudama","lat":-33.763224,"lng":25.393969,"addr":"","type":"mosque"},{"id":"xx-339742_255521","name":"Overbaakens Mosque","lat":-33.97416,"lng":25.552076,"addr":"","type":"yes"},{"id":"xx-339685_256274","name":"Islamic place","lat":-33.968507,"lng":25.627445,"addr":"","type":"mosque"},{"id":"xx-330226_278553","name":"Buffalo Flats Mosque","lat":-33.022603,"lng":27.855304,"addr":"Catto Road","type":"yes"},{"id":"xx-310698_283476","name":"Abu Bakr Al Siddique","lat":-31.069827,"lng":28.347562,"addr":"Willow Street","type":"place_of_worship"},{"id":"xx-337693_254015","name":"Islamic place","lat":-33.76931,"lng":25.401525,"addr":"","type":"yes"},{"id":"xx-339606_256229","name":"Masjid ul-Akbar","lat":-33.96063,"lng":25.622897,"addr":"Grace Street","type":"yes"},{"id":"xx-339245_255404","name":"Malabar Mosque","lat":-33.924505,"lng":25.540443,"addr":"Selago Crescent","type":"yes"},{"id":"xx-339195_255297","name":"Masjid Abu Bakr","lat":-33.919547,"lng":25.529702,"addr":"Haworthia Drive","type":"yes"},{"id":"xx-339300_255652","name":"Islamic place","lat":-33.930019,"lng":25.565212,"addr":"","type":"yes"},{"id":"xx-338868_255193","name":"Islamic place","lat":-33.886849,"lng":25.519325,"addr":"","type":"mosque"},{"id":"xx-338869_255192","name":"West End Musjid","lat":-33.886872,"lng":25.51925,"addr":"","type":"yes"},{"id":"xx-339687_256280","name":"Rudolph Street Mosque","lat":-33.968711,"lng":25.627969,"addr":"","type":"yes"},{"id":"xx-339894_256603","name":"Muslim Prayer Centre","lat":-33.989366,"lng":25.660345,"addr":"","type":"prayer_room"},{"id":"xx-339882_256667","name":"St James Church","lat":-33.988172,"lng":25.666702,"addr":"Brighton Drive","type":"place_of_worship"},{"id":"xx-339196_255297","name":"Masjid Abu Bakr","lat":-33.919606,"lng":25.529686,"addr":"Haworthia Drive","type":"yes"},{"id":"xx-339229_255273","name":"Masjid Mansoor","lat":-33.922941,"lng":25.527277,"addr":"","type":"yes"},{"id":"xx-335912_268903","name":"Port Alfred Mosque","lat":-33.591193,"lng":26.890263,"addr":"","type":"yes"},{"id":"xx-328839_275832","name":"Jamaat Khana Musallah","lat":-32.883884,"lng":27.583196,"addr":"Legion Street","type":"yes"},{"id":"xx-328743_273877","name":"Qonce Mosque","lat":-32.874254,"lng":27.387679,"addr":"Smith Street","type":"place_of_worship"},{"id":"xx-339230_255273","name":"Masjid Mansoor","lat":-33.922993,"lng":25.527261,"addr":"","type":"yes"}]