[{"id":"xx-403875_1756174","name":"Massey Islamic Centre","lat":-40.387527,"lng":175.617373,"addr":"","type":"university"},{"id":"xx-403622_1756049","name":"Palmerston North Islamic Centre","lat":-40.362186,"lng":175.60485,"addr":"Cook Street","type":"yes"},{"id":"xx-403622_1756048","name":"Palmerston North Islamic Centre","lat":-40.362198,"lng":175.604822,"addr":"Cook Street","type":"yes"},{"id":"xx-409607_1756361","name":"Saint James Union Church","lat":-40.960673,"lng":175.636099,"addr":"High Street","type":"yes"},{"id":"xx-409606_1756361","name":"Saint James Union Church","lat":-40.960642,"lng":175.636052,"addr":"High Street","type":"yes"},{"id":"xx-403292_1756028","name":"Al Qadiri Islamic Centre Manawatu","lat":-40.329189,"lng":175.602833,"addr":"Jupiter Street","type":"yes"},{"id":"xx-411285_1750362","name":"Upper Hutt Islamic Centre","lat":-41.12847,"lng":175.03619,"addr":"Merton Street","type":"yes"}]