[{"id":"xx-38051_1147404","name":"Islamic place","lat":-3.805143,"lng":114.740395,"addr":"","type":"mosque"},{"id":"xx-38069_1147381","name":"Islamic place","lat":-3.806891,"lng":114.738118,"addr":"","type":"mosque"},{"id":"xx-38048_1147644","name":"Islamic place","lat":-3.804791,"lng":114.764425,"addr":"","type":"mosque"},{"id":"xx-33502_1148141","name":"Makam Syekh Abdul Hamid Abulung","lat":-3.350227,"lng":114.814143,"addr":"","type":"mosque"},{"id":"xx-34118_1148533","name":"Langgar Al-Muhajirin","lat":-3.411836,"lng":114.853305,"addr":"","type":"mosque"},{"id":"xx-33571_1148706","name":"Makam Datu Kelampaian","lat":-3.357086,"lng":114.870579,"addr":"","type":"mosque"},{"id":"xx-33860_1148405","name":"Majelis Pengajian Habib Zein Al-Aydrus","lat":-3.386031,"lng":114.84047,"addr":"","type":"mosque"},{"id":"xx-34384_1148317","name":"Islamic place","lat":-3.438366,"lng":114.831658,"addr":"","type":"mosque"},{"id":"xx-37472_1146918","name":"Langgar","lat":-3.747176,"lng":114.69177,"addr":"","type":"mosque"},{"id":"xx-33983_1148669","name":"Islamic place","lat":-3.39832,"lng":114.866868,"addr":"","type":"mosque"},{"id":"xx-33606_1146516","name":"Masjid Mujahidin","lat":-3.36064,"lng":114.651582,"addr":"","type":"place_of_worship"},{"id":"xx-35183_1146482","name":"Islamic place","lat":-3.518287,"lng":114.64816,"addr":"","type":"mosque"},{"id":"xx-35209_1146366","name":"Islamic place","lat":-3.520865,"lng":114.636642,"addr":"","type":"mosque"},{"id":"xx-34736_1146349","name":"Masjid Jannatussadiqin","lat":-3.473583,"lng":114.63489,"addr":"","type":"mosque"},{"id":"xx-17177_1148446","name":"Islamic place","lat":-1.717746,"lng":114.844592,"addr":"","type":"mosque"},{"id":"xx-33597_1148653","name":"Langgar Nurul Hidayah","lat":-3.359727,"lng":114.865255,"addr":"","type":"mosque"},{"id":"xx-33574_1148712","name":"Masjid Jami Al-Karomah","lat":-3.357363,"lng":114.871237,"addr":"","type":"mosque"},{"id":"xx-33569_1148200","name":"Makam Datu Maad bin Ali","lat":-3.356916,"lng":114.819981,"addr":"","type":"mosque"},{"id":"xx-33353_1145792","name":"Langgar Nurul Falah","lat":-3.335286,"lng":114.579211,"addr":"","type":"mosque"},{"id":"xx-25354_1129114","name":"Masjid Agung Wahyu Al Hadi","lat":-2.535388,"lng":112.911436,"addr":"Jl. Jendral sudirman","type":"place_of_worship"},{"id":"xx-26678_1116565","name":"Islamic place","lat":-2.667791,"lng":111.656498,"addr":"","type":"place_of_worship"},{"id":"xx-25269_1129654","name":"Langgar Nurul Hikam","lat":-2.526905,"lng":112.96541,"addr":"","type":"place_of_worship"},{"id":"xx-22853_1140345","name":"Masjid Al-Hijrah","lat":-2.285257,"lng":114.034512,"addr":"","type":"place_of_worship"},{"id":"xx-27387_1117280","name":"Islamic place","lat":-2.738673,"lng":111.727995,"addr":"","type":"place_of_worship"},{"id":"xx-34691_1147893","name":"Langgar Uswatun Hasanah","lat":-3.469106,"lng":114.789252,"addr":"Guntung Manggis","type":"place_of_worship"},{"id":"xx-34485_1147864","name":"Langgar Darul Falah","lat":-3.448476,"lng":114.786423,"addr":"","type":"place_of_worship"},{"id":"xx-34488_1147945","name":"Masjid Nurul Muhajirin","lat":-3.448847,"lng":114.794487,"addr":"","type":"place_of_worship"},{"id":"xx-27235_1111650","name":"Masjid Agung Sukamara","lat":-2.723454,"lng":111.164982,"addr":"Jl. Tjilik Riwut","type":"place_of_worship"},{"id":"xx-27113_1111671","name":"Surau Nurul Falah","lat":-2.711282,"lng":111.167078,"addr":"Jl. Cakra Adiwijaya","type":"musalla"},{"id":"xx-34321_1148200","name":"Masjid Nurul Kahroba","lat":-3.432095,"lng":114.820043,"addr":"","type":"place_of_worship"},{"id":"xx-26869_1116288","name":"MASJID NURUL ISLAM","lat":-2.686928,"lng":111.628771,"addr":"","type":"place_of_worship"},{"id":"xx-27070_1111710","name":"Masjid Al-Aqsha","lat":-2.707011,"lng":111.170977,"addr":"","type":"place_of_worship"},{"id":"xx-27031_1111727","name":"Masjid Nurul Arafah","lat":-2.703056,"lng":111.172709,"addr":"","type":"place_of_worship"},{"id":"xx-27187_1111650","name":"Baitul Ma'mur","lat":-2.718695,"lng":111.164973,"addr":"","type":"place_of_worship"},{"id":"xx-33234_1146052","name":"Langgar Baitul Muqarrabin","lat":-3.323351,"lng":114.605173,"addr":"","type":"place_of_worship"},{"id":"xx-34712_1148495","name":"Mushalla Miftahul Jannah","lat":-3.471191,"lng":114.849451,"addr":"","type":"place_of_worship"},{"id":"xx-05297_1145101","name":"Masjid Al-Amin","lat":-0.529675,"lng":114.510139,"addr":"","type":"place_of_worship"},{"id":"xx-18239_1105028","name":"Masjid Nurul Huda","lat":-1.823883,"lng":110.502765,"addr":"Desa Kalimas Baru","type":"place_of_worship"},{"id":"xx-32847_1145723","name":"Langgar Raudatul Jannah","lat":-3.284701,"lng":114.57225,"addr":"","type":"mosque"},{"id":"xx-32816_1145728","name":"Langgar Al-Ihsan","lat":-3.281615,"lng":114.572834,"addr":"","type":"mosque"},{"id":"xx-32797_1145710","name":"Langgar As-Sajidin","lat":-3.279659,"lng":114.570951,"addr":"","type":"mosque"},{"id":"xx-22310_1138901","name":"Masjid IAIN Palangka Raya","lat":-2.230958,"lng":113.890122,"addr":"","type":"place_of_worship"},{"id":"xx-29841_1147537","name":"Mesjid Al Istiqamah","lat":-2.984069,"lng":114.753705,"addr":"","type":"place_of_worship"},{"id":"xx-31922_1146202","name":"Islamic place","lat":-3.192162,"lng":114.620214,"addr":"","type":"place_of_worship"},{"id":"xx-13602_1101876","name":"Islamic place","lat":-1.360174,"lng":110.187646,"addr":"","type":"mosque"},{"id":"xx-35415_1147272","name":"mushola nusaboard","lat":-3.541521,"lng":114.727171,"addr":"","type":"place_of_worship"},{"id":"xx-34549_1147416","name":"mesjid An Noor","lat":-3.454868,"lng":114.741648,"addr":"","type":"place_of_worship"},{"id":"xx-27318_1116375","name":"Masjid Baabussalam","lat":-2.731797,"lng":111.637524,"addr":"","type":"place_of_worship"},{"id":"xx-25556_1129404","name":"Langgar","lat":-2.555571,"lng":112.940397,"addr":"","type":"place_of_worship"},{"id":"xx-25565_1129386","name":"Mesjid","lat":-2.556503,"lng":112.938568,"addr":"","type":"place_of_worship"},{"id":"xx-25384_1129614","name":"Mesjid Pondok","lat":-2.538412,"lng":112.961358,"addr":"","type":"place_of_worship"},{"id":"xx-25458_1129417","name":"Masjid Nurul Ikram","lat":-2.545785,"lng":112.941731,"addr":"Kapten Moelyono","type":"place_of_worship"},{"id":"xx-25383_1129613","name":"Islamic place","lat":-2.538295,"lng":112.961348,"addr":"","type":"mosque"},{"id":"xx-25383_1129614","name":"Islamic place","lat":-2.538299,"lng":112.961421,"addr":"","type":"mosque"},{"id":"xx-25384_1129613","name":"Islamic place","lat":-2.538397,"lng":112.961342,"addr":"","type":"mosque"},{"id":"xx-25608_1129490","name":"Islamic place","lat":-2.560801,"lng":112.948982,"addr":"","type":"mosque"},{"id":"xx-25609_1129491","name":"Islamic place","lat":-2.560852,"lng":112.949105,"addr":"","type":"mosque"},{"id":"xx-25609_1129490","name":"Islamic place","lat":-2.560873,"lng":112.948952,"addr":"","type":"mosque"},{"id":"xx-25459_1129617","name":"Islamic place","lat":-2.545867,"lng":112.961691,"addr":"","type":"mosque"},{"id":"xx-25458_1129618","name":"Islamic place","lat":-2.54584,"lng":112.961849,"addr":"","type":"mosque"},{"id":"xx-25460_1129619","name":"Islamic place","lat":-2.546022,"lng":112.961881,"addr":"","type":"mosque"},{"id":"xx-25460_1129617","name":"Islamic place","lat":-2.54605,"lng":112.961723,"addr":"","type":"mosque"},{"id":"xx-25460_1129615","name":"Musholla Nurul Hikmah","lat":-2.545952,"lng":112.961504,"addr":"","type":"place_of_worship"},{"id":"xx-28383_1129680","name":"Masjid Nurul Islam","lat":-2.838344,"lng":112.968011,"addr":"","type":"mosque"},{"id":"xx-28465_1129705","name":"Musholla SMP","lat":-2.846518,"lng":112.970531,"addr":"Jln. Manunggal IV","type":"place_of_worship"},{"id":"xx-28364_1129615","name":"Musholla An Nur","lat":-2.83644,"lng":112.96145,"addr":"Jln. Ali Badrun Maslan gg. H. Tanda","type":"place_of_worship"},{"id":"xx-28430_1129653","name":"Masjid Kubah Mas","lat":-2.843047,"lng":112.965288,"addr":"Jln. partoe Mukhsin","type":"place_of_worship"},{"id":"xx-28409_1129676","name":"Musholla Biru","lat":-2.840949,"lng":112.967628,"addr":"Jalan Partoe Muksin","type":"place_of_worship"},{"id":"xx-28388_1129608","name":"Mushola Mts","lat":-2.838818,"lng":112.960843,"addr":"Jln. Dahlan Umar","type":"place_of_worship"},{"id":"xx-28435_1129695","name":"Langgar Pink","lat":-2.843523,"lng":112.969491,"addr":"Jln. Manunggal IV","type":"place_of_worship"},{"id":"xx-28445_1129716","name":"Musholla Pinggir sungai","lat":-2.844508,"lng":112.971637,"addr":"Jln. H. Umar Hasyim","type":"place_of_worship"},{"id":"xx-28391_1129607","name":"MTS N 2 KOTAWARINGIN TIMUR","lat":-2.83911,"lng":112.960729,"addr":"Jl. Dahlan Umar","type":"school"},{"id":"xx-28424_1129684","name":"Masjid Al-Mujahiddin","lat":-2.842385,"lng":112.968376,"addr":"Jln. Mujahiddin","type":"place_of_worship"},{"id":"xx-33150_1145720","name":"Islamic place","lat":-3.315045,"lng":114.571954,"addr":"","type":"place_of_worship"},{"id":"xx-33184_1145756","name":"Langgar Darul Iman","lat":-3.318357,"lng":114.575561,"addr":"","type":"place_of_worship"},{"id":"xx-33592_1146288","name":"Islamic place","lat":-3.359247,"lng":114.628756,"addr":"","type":"place_of_worship"},{"id":"xx-33253_1145952","name":"Musala Nurul Iman","lat":-3.325308,"lng":114.595236,"addr":"","type":"place_of_worship"},{"id":"xx-33249_1145955","name":"Musala Darussalam","lat":-3.324946,"lng":114.595531,"addr":"","type":"place_of_worship"},{"id":"xx-26953_1116387","name":"Mosque Istiqomah","lat":-2.69535,"lng":111.638693,"addr":"","type":"place_of_worship"},{"id":"xx-34272_1146992","name":"Masjid Harun Aliyah Kota Citra","lat":-3.427192,"lng":114.69917,"addr":"","type":"place_of_worship"},{"id":"xx-34426_1148197","name":"Islamic place","lat":-3.442595,"lng":114.819654,"addr":"","type":"mosque"},{"id":"xx-33271_1145937","name":"Islamic place","lat":-3.327094,"lng":114.593662,"addr":"","type":"place_of_worship"},{"id":"xx-00274_1101096","name":"Islamic place","lat":-0.027442,"lng":110.109589,"addr":"","type":"place_of_worship"},{"id":"xx-34637_1148441","name":"Langgar Da`watul Haq","lat":-3.463716,"lng":114.844101,"addr":"","type":"place_of_worship"},{"id":"xx-29880_1146589","name":"SMA Negeri 1 Barambai","lat":-2.988036,"lng":114.658886,"addr":"","type":"school"},{"id":"xx-33190_1145838","name":"Musala","lat":-3.318973,"lng":114.583752,"addr":"","type":"place_of_worship"},{"id":"xx-09169_1135512","name":"Mesjid Jami Al-Amin","lat":-0.916907,"lng":113.551205,"addr":"","type":"place_of_worship"},{"id":"xx-33257_1145908","name":"Masjid Al Ikhlas","lat":-3.325741,"lng":114.590814,"addr":"","type":"place_of_worship"},{"id":"xx-39185_1146688","name":"Islamic place","lat":-3.918517,"lng":114.668808,"addr":"","type":"place_of_worship"},{"id":"xx-34699_1147928","name":"Islamic place","lat":-3.469902,"lng":114.792827,"addr":"","type":"place_of_worship"},{"id":"xx-34271_1148497","name":"Islamic place","lat":-3.427133,"lng":114.849702,"addr":"","type":"place_of_worship"},{"id":"xx-34260_1148176","name":"Islamic place","lat":-3.425961,"lng":114.817621,"addr":"","type":"place_of_worship"},{"id":"xx-33251_1147013","name":"Langgar Darul Isra","lat":-3.325105,"lng":114.701294,"addr":"Martapura Lama","type":"place_of_worship"},{"id":"xx-34393_1148501","name":"Masjid Nurul Jannah Qmall Banjarbaru","lat":-3.439347,"lng":114.850069,"addr":"","type":"place_of_worship"},{"id":"xx-28596_1149138","name":"Makam Datu Kabul","lat":-2.859644,"lng":114.913795,"addr":"","type":"grave_yard"},{"id":"xx-34430_1148234","name":"Masjid Istiqomah","lat":-3.443023,"lng":114.823398,"addr":"Jalan Jenderal Achmad Yani","type":"place_of_worship"},{"id":"xx-34476_1148350","name":"Islamic place","lat":-3.447595,"lng":114.834983,"addr":"","type":"place_of_worship"},{"id":"xx-34469_1148351","name":"Islamic place","lat":-3.446886,"lng":114.835133,"addr":"","type":"place_of_worship"},{"id":"xx-34469_1148366","name":"Islamic place","lat":-3.446946,"lng":114.836642,"addr":"","type":"place_of_worship"},{"id":"xx-34315_1148366","name":"Islamic place","lat":-3.431547,"lng":114.836604,"addr":"","type":"place_of_worship"},{"id":"xx-34322_1148341","name":"Islamic place","lat":-3.432182,"lng":114.83406,"addr":"","type":"place_of_worship"},{"id":"xx-34496_1148393","name":"Islamic place","lat":-3.449562,"lng":114.839312,"addr":"","type":"place_of_worship"},{"id":"xx-34439_1148359","name":"Islamic place","lat":-3.443862,"lng":114.835901,"addr":"","type":"place_of_worship"},{"id":"xx-34553_1148269","name":"Islamic place","lat":-3.455308,"lng":114.826854,"addr":"","type":"place_of_worship"},{"id":"xx-34521_1148465","name":"Islamic place","lat":-3.4521,"lng":114.846495,"addr":"","type":"place_of_worship"},{"id":"xx-34852_1148526","name":"Islamic place","lat":-3.485157,"lng":114.852627,"addr":"","type":"place_of_worship"},{"id":"xx-34581_1148510","name":"Musholla Antero Kelapa Gading","lat":-3.458099,"lng":114.851014,"addr":"","type":"place_of_worship"},{"id":"xx-35485_1148972","name":"Masjid Bambu","lat":-3.548465,"lng":114.897238,"addr":"","type":"place_of_worship"},{"id":"xx-34830_1148111","name":"Masjid Hidayatullah","lat":-3.483049,"lng":114.811134,"addr":"","type":"place_of_worship"},{"id":"xx-34614_1148149","name":"Muhammadiyah Boarding School Banjarbaru","lat":-3.461385,"lng":114.814869,"addr":"Jalan Trikora","type":"school"},{"id":"xx-34594_1148456","name":"Masjid Al Ikhlas","lat":-3.459418,"lng":114.845608,"addr":"","type":"place_of_worship"},{"id":"xx-34566_1148462","name":"Musholla","lat":-3.456611,"lng":114.846166,"addr":"","type":"place_of_worship"},{"id":"xx-34552_1148441","name":"Masjid Hajjah Ratna Asy-syuhada","lat":-3.455198,"lng":114.844106,"addr":"","type":"place_of_worship"},{"id":"xx-34791_1148543","name":"Mushalla","lat":-3.479062,"lng":114.854286,"addr":"","type":"place_of_worship"},{"id":"xx-34300_1148485","name":"Musholla","lat":-3.430031,"lng":114.84849,"addr":"","type":"place_of_worship"},{"id":"xx-06665_1145331","name":"Langgar As-Salam","lat":-0.666495,"lng":114.533091,"addr":"","type":"place_of_worship"},{"id":"xx-07003_1144536","name":"Langgar Nurul Muhajirin","lat":-0.70029,"lng":114.45355,"addr":"","type":"place_of_worship"},{"id":"xx-34340_1148010","name":"Islamic place","lat":-3.433984,"lng":114.801012,"addr":"","type":"place_of_worship"},{"id":"xx-34345_1148069","name":"Langgar","lat":-3.434466,"lng":114.806919,"addr":"","type":"place_of_worship"},{"id":"xx-34375_1148060","name":"Islamic place","lat":-3.437503,"lng":114.805954,"addr":"","type":"place_of_worship"},{"id":"xx-28580_1145067","name":"Masjid","lat":-2.857984,"lng":114.506674,"addr":"","type":"place_of_worship"},{"id":"xx-26679_1117129","name":"Masjid","lat":-2.667922,"lng":111.712873,"addr":"","type":"place_of_worship"},{"id":"xx-26677_1117088","name":"Musholla","lat":-2.667657,"lng":111.708771,"addr":"","type":"place_of_worship"},{"id":"xx-26708_1117102","name":"Musholla","lat":-2.670793,"lng":111.710154,"addr":"","type":"place_of_worship"},{"id":"xx-26733_1117137","name":"Musholla","lat":-2.673281,"lng":111.713711,"addr":"","type":"place_of_worship"},{"id":"xx-26692_1117086","name":"Musholla","lat":-2.669154,"lng":111.708621,"addr":"","type":"place_of_worship"},{"id":"xx-26659_1117113","name":"Musholla","lat":-2.665892,"lng":111.711273,"addr":"","type":"place_of_worship"},{"id":"xx-25201_1124722","name":"Masjid Raudhatul Jannah","lat":-2.520102,"lng":112.472161,"addr":"","type":"place_of_worship"},{"id":"xx-03026_1115954","name":"Islamic place","lat":-0.302638,"lng":111.595435,"addr":"","type":"place_of_worship"},{"id":"xx-02914_1116099","name":"Islamic place","lat":-0.291363,"lng":111.609904,"addr":"","type":"place_of_worship"},{"id":"xx-03048_1116435","name":"Islamic place","lat":-0.304846,"lng":111.6435,"addr":"","type":"place_of_worship"},{"id":"xx-03388_1117220","name":"Islamic place","lat":-0.338765,"lng":111.722019,"addr":"","type":"place_of_worship"},{"id":"xx-03344_1117292","name":"Masjid Nurul Huda","lat":-0.334386,"lng":111.729161,"addr":"","type":"place_of_worship"},{"id":"xx-02574_1115706","name":"Islamic place","lat":-0.25741,"lng":111.570612,"addr":"","type":"place_of_worship"},{"id":"xx-34349_1148006","name":"LDII","lat":-3.434872,"lng":114.800572,"addr":"","type":"place_of_worship"},{"id":"xx-03357_1117411","name":"Islamic place","lat":-0.335731,"lng":111.741116,"addr":"","type":"place_of_worship"},{"id":"xx-34305_1148096","name":"Masjid Quba","lat":-3.43055,"lng":114.809556,"addr":"Jalan Karang Anyar 2","type":"place_of_worship"},{"id":"xx-29907_1115851","name":"Masjid Al-Ghofur","lat":-2.99075,"lng":111.585072,"addr":"","type":"place_of_worship"},{"id":"xx-34862_1149750","name":"Islamic place","lat":-3.486245,"lng":114.975023,"addr":"","type":"place_of_worship"},{"id":"xx-26681_1129373","name":"Masjid Al Hijriah","lat":-2.668055,"lng":112.937346,"addr":"","type":"place_of_worship"},{"id":"xx-36249_1146237","name":"Masjid Raudhatur Ridwan","lat":-3.624856,"lng":114.623734,"addr":"Swadaya","type":"place_of_worship"},{"id":"xx-33216_1145915","name":"Musala","lat":-3.321587,"lng":114.591479,"addr":"","type":"place_of_worship"},{"id":"xx-25380_1129460","name":"Masjid Baiturrahim","lat":-2.538046,"lng":112.946049,"addr":"","type":"place_of_worship"},{"id":"xx-25386_1129489","name":"Masjid Al Muhajirin","lat":-2.538554,"lng":112.948859,"addr":"","type":"place_of_worship"},{"id":"xx-25386_1129529","name":"Masjid Al Falah","lat":-2.53863,"lng":112.952926,"addr":"","type":"place_of_worship"},{"id":"xx-32782_1145880","name":"Masjid Al Anshar","lat":-3.278199,"lng":114.587978,"addr":"","type":"place_of_worship"},{"id":"xx-34377_1148592","name":"Langgar Al Hidayah","lat":-3.437738,"lng":114.859202,"addr":"","type":"place_of_worship"},{"id":"xx-34405_1148555","name":"Islamic place","lat":-3.440455,"lng":114.855529,"addr":"","type":"place_of_worship"},{"id":"xx-34381_1148518","name":"Islamic place","lat":-3.438121,"lng":114.851836,"addr":"","type":"place_of_worship"},{"id":"xx-34371_1148531","name":"Islamic place","lat":-3.437082,"lng":114.853056,"addr":"","type":"place_of_worship"},{"id":"xx-28828_1149527","name":"Mushola","lat":-2.882846,"lng":114.952663,"addr":"","type":"place_of_worship"},{"id":"xx-34361_1148411","name":"Langgar Kanzul 'Arsy","lat":-3.436051,"lng":114.841068,"addr":"Jl. Komplek Pinus Indah","type":"place_of_worship"},{"id":"xx-17770_1148047","name":"Masjid Jami As Sa'dah","lat":-1.776964,"lng":114.804686,"addr":"Jl. Manunggal VII","type":"place_of_worship"},{"id":"xx-12059_1105509","name":"Masjid","lat":-1.205914,"lng":110.55086,"addr":"","type":"place_of_worship"},{"id":"xx-17949_1147885","name":"Masjid Miftakhul Jannah","lat":-1.794922,"lng":114.788477,"addr":"","type":"place_of_worship"},{"id":"xx-22271_1139396","name":"Masjid Al Liqa","lat":-2.2271,"lng":113.939622,"addr":"Jalan Meranti","type":"place_of_worship"},{"id":"xx-25695_1129564","name":"Mushola Riyadhus Shalihin","lat":-2.569548,"lng":112.956353,"addr":"","type":"place_of_worship"},{"id":"xx-29682_1149859","name":"Islamic place","lat":-2.96819,"lng":114.985919,"addr":"","type":"mosque"},{"id":"xx-29682_1149881","name":"Islamic place","lat":-2.968225,"lng":114.98805,"addr":"","type":"mosque"},{"id":"xx-29700_1149880","name":"Islamic place","lat":-2.969968,"lng":114.988007,"addr":"","type":"mosque"},{"id":"xx-29700_1149859","name":"Islamic place","lat":-2.969954,"lng":114.985888,"addr":"","type":"mosque"},{"id":"xx-33269_1145960","name":"Musala","lat":-3.326934,"lng":114.596002,"addr":"","type":"place_of_worship"},{"id":"xx-34893_1148193","name":"Masjid Raya Syekh Muhammad Arsyad Al-Banjari","lat":-3.48926,"lng":114.819283,"addr":"","type":"place_of_worship"},{"id":"xx-25535_1129616","name":"Langgar","lat":-2.553459,"lng":112.961568,"addr":"Gang","type":"place_of_worship"},{"id":"xx-25550_1129614","name":"Masjid At-Taqwa","lat":-2.555032,"lng":112.961388,"addr":"Jalan D.I. Panjaitan","type":"place_of_worship"},{"id":"xx-16076_1132248","name":"Masjid Mujahidin","lat":-1.607564,"lng":113.224808,"addr":"","type":"place_of_worship"},{"id":"xx-22244_1139196","name":"Al-Muhibbin Mosque","lat":-2.224367,"lng":113.919579,"addr":"","type":"place_of_worship"},{"id":"xx-22183_1139128","name":"Masjid Al Husna","lat":-2.218266,"lng":113.912837,"addr":"","type":"place_of_worship"},{"id":"xx-27123_1116339","name":"Masjid Baiturrahim","lat":-2.712328,"lng":111.633881,"addr":"Jl. Samari 2","type":"place_of_worship"},{"id":"xx-33337_1146242","name":"Mushola Al-Azhar","lat":-3.333743,"lng":114.624228,"addr":"Jalan Mahat Kasan","type":"place_of_worship"},{"id":"xx-22078_1139167","name":"Islamic place","lat":-2.207796,"lng":113.9167,"addr":"","type":"place_of_worship"},{"id":"xx-34071_1146722","name":"SDN Gambut 7","lat":-3.407058,"lng":114.672248,"addr":"Gang Antasari","type":"school"},{"id":"xx-02046_1107992","name":"Islamic place","lat":-0.204595,"lng":110.799182,"addr":"","type":"place_of_worship"},{"id":"xx-26857_1116336","name":"Kuburan sekip","lat":-2.685686,"lng":111.633606,"addr":"","type":"mosque"},{"id":"xx-32944_1145750","name":"Islamic place","lat":-3.294362,"lng":114.575032,"addr":"","type":"mosque"},{"id":"xx-32953_1145757","name":"Langgar Sirothol Mustaqiem","lat":-3.295323,"lng":114.575735,"addr":"","type":"mosque"},{"id":"xx-32944_1145762","name":"Masjid Sultan Suriansyah","lat":-3.294355,"lng":114.576194,"addr":"Jalan Kuin Utara","type":"mosque"},{"id":"xx-32941_1145730","name":"Islamic place","lat":-3.294145,"lng":114.572985,"addr":"","type":"mosque"},{"id":"xx-32966_1145753","name":"Islamic place","lat":-3.296586,"lng":114.575281,"addr":"","type":"mosque"},{"id":"xx-32953_1145751","name":"Islamic place","lat":-3.295266,"lng":114.575126,"addr":"","type":"mosque"},{"id":"xx-32943_1145737","name":"Islamic place","lat":-3.294264,"lng":114.573745,"addr":"","type":"yes"},{"id":"xx-32952_1145749","name":"Islamic place","lat":-3.295185,"lng":114.574851,"addr":"","type":"mosque"},{"id":"xx-32951_1145745","name":"Islamic place","lat":-3.295101,"lng":114.574525,"addr":"","type":"mosque"},{"id":"xx-32948_1145721","name":"Islamic place","lat":-3.294758,"lng":114.572058,"addr":"","type":"mosque"},{"id":"xx-32969_1145729","name":"TPA At-Taslim","lat":-3.29693,"lng":114.572924,"addr":"","type":"school"},{"id":"xx-32980_1145733","name":"Islamic place","lat":-3.297953,"lng":114.573331,"addr":"","type":"place_of_worship"},{"id":"xx-32965_1145700","name":"Islamic place","lat":-3.296522,"lng":114.570042,"addr":"","type":"yes"},{"id":"xx-32943_1145764","name":"Islamic place","lat":-3.29429,"lng":114.576368,"addr":"","type":"mosque"},{"id":"xx-32940_1145717","name":"Islamic place","lat":-3.294048,"lng":114.571743,"addr":"","type":"mosque"},{"id":"xx-32991_1145734","name":"Islamic place","lat":-3.299063,"lng":114.573408,"addr":"","type":"mosque"},{"id":"xx-32969_1145717","name":"Islamic place","lat":-3.296898,"lng":114.57174,"addr":"","type":"mosque"},{"id":"xx-32988_1145720","name":"Islamic place","lat":-3.298819,"lng":114.571997,"addr":"","type":"mosque"},{"id":"xx-32931_1145727","name":"Makam Sultan Suriansyah","lat":-3.293104,"lng":114.572662,"addr":"","type":"yes"},{"id":"xx-33189_1145911","name":"Masjid Sabilal Muhtadin Banjarmasin","lat":-3.318873,"lng":114.591134,"addr":"","type":"mosque"},{"id":"xx-33179_1145808","name":"Masjid Jami Pelajar Mulawarman","lat":-3.317891,"lng":114.580831,"addr":"","type":"yes"},{"id":"xx-33159_1145827","name":"MA Negeri 3 Banjarmasin","lat":-3.315853,"lng":114.582734,"addr":"","type":"school"},{"id":"xx-32940_1145701","name":"Islamic place","lat":-3.294045,"lng":114.570072,"addr":"","type":"yes"},{"id":"xx-32980_1145908","name":"Musala","lat":-3.298002,"lng":114.590809,"addr":"","type":"yes"},{"id":"xx-37992_1147832","name":"Langgar","lat":-3.799224,"lng":114.78317,"addr":"Jl. A. Syairani Komplek Perkantoran","type":"yes"},{"id":"xx-38020_1147698","name":"Masjid Nurruddin","lat":-3.801971,"lng":114.769845,"addr":"","type":"place_of_worship"},{"id":"xx-38023_1147666","name":"Musala Miftahul Jannah","lat":-3.802303,"lng":114.766558,"addr":"","type":"place_of_worship"},{"id":"xx-37023_1148384","name":"Masjid Hidayatul Mutaqin","lat":-3.702276,"lng":114.838381,"addr":"","type":"yes"},{"id":"xx-37878_1147755","name":"Masjid Al Hijriah","lat":-3.787808,"lng":114.775521,"addr":"","type":"yes"},{"id":"xx-37727_1147713","name":"Masjid Fehin","lat":-3.77269,"lng":114.771261,"addr":"","type":"yes"},{"id":"xx-37653_1147677","name":"Islamic place","lat":-3.765319,"lng":114.767663,"addr":"","type":"yes"},{"id":"xx-32942_1145730","name":"Islamic place","lat":-3.294175,"lng":114.572974,"addr":"","type":"mosque"},{"id":"xx-32970_1145729","name":"TPA At-Taslim","lat":-3.296955,"lng":114.57292,"addr":"","type":"school"},{"id":"xx-32941_1145717","name":"Islamic place","lat":-3.294064,"lng":114.571737,"addr":"","type":"mosque"},{"id":"xx-32941_1145701","name":"Islamic place","lat":-3.294059,"lng":114.570067,"addr":"","type":"yes"},{"id":"xx-38023_1147665","name":"Musala Miftahul Jannah","lat":-3.802324,"lng":114.766546,"addr":"","type":"place_of_worship"},{"id":"xx-37727_1147712","name":"Masjid Fehin","lat":-3.772722,"lng":114.771249,"addr":"","type":"yes"},{"id":"xx-33244_1146050","name":"Masjid As Syafa'ah","lat":-3.324438,"lng":114.604994,"addr":"jalan kuripan","type":"yes"},{"id":"xx-33231_1146081","name":"Masjid Nurul Yaqin","lat":-3.32309,"lng":114.608116,"addr":"jalan cempaka putih","type":"yes"},{"id":"xx-33214_1146104","name":"Masjid LDII","lat":-3.321429,"lng":114.610411,"addr":"","type":"yes"},{"id":"xx-33197_1146107","name":"Masjid Al Ikhwan","lat":-3.31969,"lng":114.61067,"addr":"","type":"yes"},{"id":"xx-33041_1145982","name":"Alkah R.K.K.B","lat":-3.304119,"lng":114.598219,"addr":"","type":"mosque"},{"id":"xx-33063_1145971","name":"Maqbarah Muhammadiyah Banjarmasin","lat":-3.306322,"lng":114.597103,"addr":"","type":"mosque"},{"id":"xx-33060_1145966","name":"Taman Makam Jalan Masjid Jami Banjarmasin","lat":-3.306049,"lng":114.596599,"addr":"","type":"mosque"},{"id":"xx-33055_1145975","name":"Islamic place","lat":-3.305544,"lng":114.597532,"addr":"","type":"mosque"},{"id":"xx-33067_1145956","name":"Masjid Jami Banjarmasin","lat":-3.306739,"lng":114.595559,"addr":"","type":"place_of_worship"},{"id":"xx-34551_1148306","name":"Islamic place","lat":-3.455069,"lng":114.8306,"addr":"","type":"mosque"},{"id":"xx-34615_1148244","name":"Islamic place","lat":-3.46149,"lng":114.824404,"addr":"","type":"mosque"},{"id":"xx-37468_1147638","name":"Langgar","lat":-3.746841,"lng":114.763832,"addr":"","type":"yes"},{"id":"xx-38372_1147888","name":"Masjid As'suada","lat":-3.837174,"lng":114.788805,"addr":"","type":"yes"},{"id":"xx-37770_1146921","name":"Masjid Jami Ar-Raudhah","lat":-3.777039,"lng":114.692109,"addr":"","type":"yes"},{"id":"xx-36852_1146461","name":"Islamic place","lat":-3.685156,"lng":114.646053,"addr":"","type":"place_of_worship"},{"id":"xx-35911_1146209","name":"Islamic place","lat":-3.591126,"lng":114.620907,"addr":"","type":"mosque"},{"id":"xx-33588_1146216","name":"Islamic place","lat":-3.358831,"lng":114.62164,"addr":"","type":"yes"},{"id":"xx-32796_1145903","name":"Islamic place","lat":-3.279586,"lng":114.590331,"addr":"","type":"yes"},{"id":"xx-34236_1147272","name":"Baitul Ma'mur","lat":-3.423608,"lng":114.727185,"addr":"","type":"yes"},{"id":"xx-34460_1148314","name":"Masjid Jami' Hidayatul Muhajirin Banjarbaru","lat":-3.445965,"lng":114.831369,"addr":"","type":"yes"},{"id":"xx-33153_1145844","name":"Langgar Darussaadah","lat":-3.315349,"lng":114.584416,"addr":"Jalan Batu Piring","type":"yes"},{"id":"xx-33152_1145827","name":"MTS Negeri 2 Mulawarman Banjarmasin","lat":-3.315225,"lng":114.582689,"addr":"Jalan Batu Benawa","type":"school"},{"id":"xx-26813_1116312","name":"Masjid Al Amin","lat":-2.681311,"lng":111.631153,"addr":"","type":"yes"},{"id":"xx-26676_1116447","name":"Masjid Al Jihad","lat":-2.667622,"lng":111.644655,"addr":"","type":"yes"},{"id":"xx-25494_1129474","name":"Masjid Nurul Fallah","lat":-2.54944,"lng":112.947365,"addr":"","type":"yes"},{"id":"xx-25486_1129485","name":"Islamic place","lat":-2.548648,"lng":112.948502,"addr":"","type":"yes"},{"id":"xx-25425_1129492","name":"Islamic place","lat":-2.542541,"lng":112.949156,"addr":"","type":"mosque"},{"id":"xx-25460_1129512","name":"Islamic place","lat":-2.545981,"lng":112.951159,"addr":"","type":"yes"},{"id":"xx-25441_1129484","name":"Islamic place","lat":-2.544144,"lng":112.948377,"addr":"","type":"yes"},{"id":"xx-25381_1129460","name":"Baiturrahim","lat":-2.538066,"lng":112.946004,"addr":"S. Parman","type":"yes"},{"id":"xx-25383_1129508","name":"Islamic place","lat":-2.538322,"lng":112.950755,"addr":"","type":"yes"},{"id":"xx-25387_1129529","name":"Masjid Agung Al Falah","lat":-2.538663,"lng":112.952917,"addr":"Jenderal Ahmad Yani","type":"yes"},{"id":"xx-25492_1129523","name":"Islamic place","lat":-2.549189,"lng":112.952343,"addr":"","type":"yes"},{"id":"xx-25405_1129596","name":"Islamic place","lat":-2.540547,"lng":112.959575,"addr":"","type":"yes"},{"id":"xx-25550_1129515","name":"Islamic place","lat":-2.554998,"lng":112.951512,"addr":"","type":"yes"},{"id":"xx-25265_1129453","name":"Islamic place","lat":-2.526493,"lng":112.9453,"addr":"","type":"yes"},{"id":"xx-25257_1129454","name":"Islamic place","lat":-2.52568,"lng":112.945417,"addr":"","type":"yes"},{"id":"xx-25520_1129476","name":"Islamic place","lat":-2.552031,"lng":112.947584,"addr":"","type":"yes"},{"id":"xx-33245_1146050","name":"Masjid As Syafa'ah","lat":-3.324464,"lng":114.604982,"addr":"jalan kuripan","type":"yes"},{"id":"xx-33042_1145981","name":"Alkah R.K.K.B","lat":-3.304234,"lng":114.598114,"addr":"","type":"mosque"},{"id":"xx-33056_1145975","name":"Islamic place","lat":-3.305613,"lng":114.597503,"addr":"","type":"mosque"},{"id":"xx-33068_1145955","name":"Masjid Jami Banjarmasin","lat":-3.306803,"lng":114.595457,"addr":"","type":"place_of_worship"},{"id":"xx-34613_1148244","name":"Islamic place","lat":-3.461342,"lng":114.824398,"addr":"","type":"mosque"},{"id":"xx-37469_1147638","name":"Langgar","lat":-3.746874,"lng":114.763817,"addr":"","type":"yes"},{"id":"xx-36852_1146460","name":"Islamic place","lat":-3.685186,"lng":114.64603,"addr":"","type":"place_of_worship"},{"id":"xx-33589_1146216","name":"Islamic place","lat":-3.358852,"lng":114.621634,"addr":"","type":"yes"},{"id":"xx-34460_1148313","name":"Masjid Jami' Hidayatul Muhajirin Banjarbaru","lat":-3.446027,"lng":114.831339,"addr":"","type":"yes"},{"id":"xx-33154_1145844","name":"Langgar Darussaadah","lat":-3.315367,"lng":114.584405,"addr":"Jalan Batu Piring","type":"yes"},{"id":"xx-26813_1116311","name":"Masjid Al Amin","lat":-2.681347,"lng":111.631105,"addr":"","type":"yes"},{"id":"xx-26676_1116446","name":"Masjid Al Jihad","lat":-2.667634,"lng":111.644614,"addr":"","type":"yes"},{"id":"xx-25495_1129474","name":"Masjid Nurul Fallah","lat":-2.549471,"lng":112.947355,"addr":"","type":"yes"},{"id":"xx-25487_1129485","name":"Islamic place","lat":-2.548668,"lng":112.948491,"addr":"","type":"yes"},{"id":"xx-39064_1148068","name":"Masjid Jami At-Taqwa","lat":-3.906415,"lng":114.806839,"addr":"","type":"yes"},{"id":"xx-37630_1147779","name":"Masjid Hasnurul Muhtadin","lat":-3.763031,"lng":114.777877,"addr":"","type":"mosque"},{"id":"xx-37981_1147853","name":"Masjid An Nur","lat":-3.798056,"lng":114.785343,"addr":"","type":"yes"},{"id":"xx-34048_1148500","name":"Musholla Darul Faizin","lat":-3.404796,"lng":114.849997,"addr":"","type":"yes"},{"id":"xx-33345_1149507","name":"Masjid Jami Al-Hidayah","lat":-3.334522,"lng":114.950716,"addr":"","type":"yes"},{"id":"xx-33281_1149568","name":"Masjid Da'watul Hasanah","lat":-3.328073,"lng":114.956845,"addr":"","type":"yes"},{"id":"xx-33436_1149218","name":"Masjid Ibadallah","lat":-3.343564,"lng":114.92183,"addr":"","type":"yes"},{"id":"xx-33399_1149344","name":"Masjid Jami At-Taqwa","lat":-3.339884,"lng":114.934399,"addr":"","type":"yes"},{"id":"xx-33529_1148967","name":"Masjid Jami Hidayatusshalihin","lat":-3.352923,"lng":114.89674,"addr":"","type":"yes"},{"id":"xx-33526_1148856","name":"Masjid Ar-Rasyidin","lat":-3.35261,"lng":114.885572,"addr":"","type":"yes"},{"id":"xx-33514_1148782","name":"Masjid Sabilal Jannah","lat":-3.35142,"lng":114.878156,"addr":"","type":"yes"},{"id":"xx-33726_1148648","name":"Masjid Jami Darul Istiqamah","lat":-3.372601,"lng":114.864805,"addr":"","type":"yes"},{"id":"xx-33615_1148242","name":"Masjid Jami Al-Husna","lat":-3.36147,"lng":114.82417,"addr":"","type":"yes"},{"id":"xx-33517_1148136","name":"Masjid Jami Syekh Abdul Hamid Abulung","lat":-3.351694,"lng":114.813641,"addr":"","type":"yes"},{"id":"xx-33241_1146978","name":"Masjid Jami Al-Quddus","lat":-3.324059,"lng":114.697827,"addr":"","type":"yes"},{"id":"xx-33031_1146027","name":"Masjid At-Tanwir","lat":-3.303095,"lng":114.602745,"addr":"","type":"yes"},{"id":"xx-33065_1146017","name":"Masjid Noor Khamis","lat":-3.306509,"lng":114.601723,"addr":"","type":"yes"},{"id":"xx-33319_1145802","name":"Masjid Jami Teluk Tiram","lat":-3.331929,"lng":114.580171,"addr":"","type":"mosque"},{"id":"xx-33370_1145801","name":"Musala Sirajul Mu'minin","lat":-3.336994,"lng":114.580108,"addr":"","type":"yes"},{"id":"xx-37631_1147779","name":"Masjid Hasnurul Muhtadin","lat":-3.763069,"lng":114.77786,"addr":"","type":"mosque"},{"id":"xx-33526_1148855","name":"Masjid Ar-Rasyidin","lat":-3.35263,"lng":114.885528,"addr":"","type":"yes"},{"id":"xx-33514_1148781","name":"Masjid Sabilal Jannah","lat":-3.351438,"lng":114.878114,"addr":"","type":"yes"},{"id":"xx-33615_1148241","name":"Masjid Jami Al-Husna","lat":-3.361482,"lng":114.824121,"addr":"","type":"yes"},{"id":"xx-33319_1145801","name":"Masjid Jami Teluk Tiram","lat":-3.331943,"lng":114.580141,"addr":"","type":"mosque"},{"id":"xx-25478_1129554","name":"Masjid Nurul Iman","lat":-2.54781,"lng":112.9554,"addr":"Sampit","type":"yes"},{"id":"xx-33258_1146118","name":"Islamic place","lat":-3.325821,"lng":114.611784,"addr":"","type":"mosque"},{"id":"xx-09537_1149027","name":"Masjid Shiratal Mustaqim","lat":-0.953654,"lng":114.902669,"addr":"Jl. Imam Bonjol","type":"yes"},{"id":"xx-09484_1149030","name":"Langgar Al-Muwafiqah","lat":-0.948424,"lng":114.902992,"addr":"","type":"yes"},{"id":"xx-09560_1148963","name":"Masjid Al-Hikmah","lat":-0.955978,"lng":114.896281,"addr":"","type":"yes"},{"id":"xx-09631_1148854","name":"Masjid Al-Muthmainnah","lat":-0.963142,"lng":114.885444,"addr":"","type":"yes"},{"id":"xx-09083_1148880","name":"Masjid Al-Huda","lat":-0.908282,"lng":114.887998,"addr":"","type":"yes"},{"id":"xx-08637_1148627","name":"Masjid Hayatul Islam","lat":-0.863702,"lng":114.862716,"addr":"","type":"yes"},{"id":"xx-09523_1148925","name":"Masjid Darul Aman","lat":-0.952286,"lng":114.892517,"addr":"","type":"yes"},{"id":"xx-09597_1149038","name":"Langgar Darul Khair","lat":-0.959717,"lng":114.903805,"addr":"","type":"yes"},{"id":"xx-25660_1129466","name":"Islamic place","lat":-2.566049,"lng":112.94659,"addr":"","type":"yes"},{"id":"xx-25537_1129566","name":"Masjid Nurul Hidayah","lat":-2.55373,"lng":112.956637,"addr":"Gg.Kelapa","type":"mosque"},{"id":"xx-25593_1129623","name":"Assasut Taqwa","lat":-2.559258,"lng":112.96232,"addr":"","type":"mosque"},{"id":"xx-25354_1129115","name":"Masjid islamic center wahyu alhadi","lat":-2.535442,"lng":112.911461,"addr":"Jl. Jendreal Sudirman","type":"yes"},{"id":"xx-25303_1129554","name":"Mushola STKIP","lat":-2.530273,"lng":112.955448,"addr":"","type":"yes"},{"id":"xx-25377_1129414","name":"ATM Bank Kalteng","lat":-2.537696,"lng":112.941424,"addr":"","type":"yes"},{"id":"xx-25075_1129734","name":"Islamic place","lat":-2.507521,"lng":112.973442,"addr":"","type":"yes"},{"id":"xx-25277_1129657","name":"Langgar Darul khair","lat":-2.527738,"lng":112.965741,"addr":"","type":"yes"},{"id":"xx-25348_1129605","name":"Masjid Sayyidul Ikhsan","lat":-2.534813,"lng":112.960453,"addr":"DI Pandjaitan","type":"place_of_worship"},{"id":"xx-25351_1129642","name":"Istiqlal","lat":-2.535122,"lng":112.964191,"addr":"Usman Harun","type":"mosque"},{"id":"xx-25241_1129667","name":"Mesjid Syuhada","lat":-2.524075,"lng":112.966679,"addr":"","type":"yes"},{"id":"xx-25416_1129576","name":"Mushola","lat":-2.541572,"lng":112.957619,"addr":"Jl. Melon","type":"musalla"},{"id":"xx-33371_1145863","name":"Langgar Al-Inayah","lat":-3.337128,"lng":114.586263,"addr":"","type":"yes"},{"id":"xx-33422_1145735","name":"Masjid Daruttaqwa Basirih","lat":-3.342189,"lng":114.573502,"addr":"","type":"mosque"},{"id":"xx-25269_1141895","name":"Masjid Agung Al-Jabir","lat":-2.526933,"lng":114.189497,"addr":"","type":"yes"},{"id":"xx-26752_1116297","name":"Islamic place","lat":-2.675198,"lng":111.629665,"addr":"","type":"yes"},{"id":"xx-26733_1116338","name":"Mesjid","lat":-2.673324,"lng":111.633758,"addr":"","type":"mosque"},{"id":"xx-26711_1116366","name":"Masjid Sirajul Muhtadin","lat":-2.671073,"lng":111.636587,"addr":"","type":"yes"},{"id":"xx-26767_1116276","name":"Masjid Nurul Huda","lat":-2.676697,"lng":111.627582,"addr":"","type":"yes"},{"id":"xx-26659_1116486","name":"Masjid Al Hikmah","lat":-2.665908,"lng":111.648593,"addr":"Jalan Ahmad Yani","type":"mosque"},{"id":"xx-26693_1116617","name":"Islamic place","lat":-2.669274,"lng":111.661705,"addr":"","type":"yes"},{"id":"xx-22307_1139302","name":"Masjid Al-Ukhuwah","lat":-2.230701,"lng":113.930195,"addr":"","type":"yes"},{"id":"xx-22058_1139101","name":"Masjid Darul Qudsi","lat":-2.205752,"lng":113.910133,"addr":"","type":"yes"},{"id":"xx-22043_1139064","name":"Masjid Nurul Iman","lat":-2.20429,"lng":113.906366,"addr":"","type":"yes"},{"id":"xx-21492_1138532","name":"Masjid Nurul Iman","lat":-2.14924,"lng":113.85323,"addr":"","type":"yes"},{"id":"xx-33259_1146118","name":"Islamic place","lat":-3.32586,"lng":114.61177,"addr":"","type":"mosque"},{"id":"xx-09537_1149026","name":"Masjid Shiratal Mustaqim","lat":-0.953684,"lng":114.902568,"addr":"Jl. Imam Bonjol","type":"yes"},{"id":"xx-09560_1148962","name":"Masjid Al-Hikmah","lat":-0.955975,"lng":114.896249,"addr":"","type":"yes"},{"id":"xx-09632_1148854","name":"Masjid Al-Muthmainnah","lat":-0.963167,"lng":114.885391,"addr":"","type":"yes"},{"id":"xx-25661_1129466","name":"Islamic place","lat":-2.566053,"lng":112.946585,"addr":"","type":"yes"},{"id":"xx-25538_1129566","name":"Masjid Nurul Hidayah","lat":-2.553753,"lng":112.956628,"addr":"Gg.Kelapa","type":"mosque"},{"id":"xx-25355_1129114","name":"Masjid islamic center wahyu alhadi","lat":-2.535486,"lng":112.911402,"addr":"Jl. Jendreal Sudirman","type":"yes"},{"id":"xx-25076_1129734","name":"Islamic place","lat":-2.507561,"lng":112.973425,"addr":"","type":"yes"},{"id":"xx-25278_1129657","name":"Langgar Darul khair","lat":-2.527752,"lng":112.965737,"addr":"","type":"yes"},{"id":"xx-33371_1145862","name":"Langgar Al-Inayah","lat":-3.33713,"lng":114.586221,"addr":"","type":"yes"},{"id":"xx-25270_1141894","name":"Masjid Agung Al-Jabir","lat":-2.526953,"lng":114.189448,"addr":"","type":"yes"},{"id":"xx-26734_1116337","name":"Mesjid","lat":-2.673355,"lng":111.633747,"addr":"","type":"mosque"},{"id":"xx-22307_1139301","name":"Masjid Al-Ukhuwah","lat":-2.230726,"lng":113.930128,"addr":"","type":"yes"},{"id":"xx-22043_1139063","name":"Masjid Nurul Iman","lat":-2.204307,"lng":113.906309,"addr":"","type":"yes"},{"id":"xx-19765_1142324","name":"Masjid Ar-Raudah","lat":-1.976511,"lng":114.232409,"addr":"","type":"yes"},{"id":"xx-17375_1148445","name":"Masjid Al-Qadar","lat":-1.737542,"lng":114.844493,"addr":"","type":"yes"},{"id":"xx-17177_1148334","name":"Masjid Besar Al-Munawwarah","lat":-1.717652,"lng":114.833359,"addr":"","type":"yes"},{"id":"xx-34423_1148699","name":"Alkah Muhibbin IV","lat":-3.442302,"lng":114.869877,"addr":"","type":"mosque"},{"id":"xx-33875_1148821","name":"Masjid Jami Ash-Shalihin","lat":-3.387519,"lng":114.882133,"addr":"","type":"yes"},{"id":"xx-26817_1116233","name":"Islamic place","lat":-2.681743,"lng":111.623312,"addr":"","type":"yes"},{"id":"xx-26790_1116247","name":"Musholla Mujahidin","lat":-2.678969,"lng":111.62472,"addr":"","type":"yes"},{"id":"xx-26799_1116260","name":"Masjid Mujahidin","lat":-2.679852,"lng":111.626008,"addr":"","type":"yes"},{"id":"xx-18510_1147779","name":"Masjid Darul Yaqin","lat":-1.850966,"lng":114.7779,"addr":"","type":"yes"},{"id":"xx-21087_1149305","name":"Islamic place","lat":-2.108692,"lng":114.930496,"addr":"","type":"yes"},{"id":"xx-13827_1148587","name":"Islamic place","lat":-1.382652,"lng":114.85869,"addr":"","type":"yes"},{"id":"xx-16443_1148072","name":"Islamic place","lat":-1.644301,"lng":114.807159,"addr":"","type":"yes"},{"id":"xx-11140_1138629","name":"Masjid Agung Darunnajah","lat":-1.114021,"lng":113.862906,"addr":"","type":"yes"},{"id":"xx-11295_1138594","name":"Islamic place","lat":-1.129516,"lng":113.859368,"addr":"","type":"yes"},{"id":"xx-34625_1137564","name":"Islamic place","lat":-3.462523,"lng":113.756394,"addr":"","type":"yes"},{"id":"xx-17376_1148445","name":"Masjid Al-Qadar","lat":-1.737552,"lng":114.844458,"addr":"","type":"yes"},{"id":"xx-17177_1148333","name":"Masjid Besar Al-Munawwarah","lat":-1.717676,"lng":114.833292,"addr":"","type":"yes"},{"id":"xx-34426_1148697","name":"Alkah Muhibbin IV","lat":-3.442592,"lng":114.869687,"addr":"","type":"mosque"},{"id":"xx-26818_1116233","name":"Islamic place","lat":-2.681784,"lng":111.623295,"addr":"","type":"yes"},{"id":"xx-16443_1148071","name":"Islamic place","lat":-1.644309,"lng":114.807132,"addr":"","type":"yes"},{"id":"xx-11141_1138628","name":"Masjid Agung Darunnajah","lat":-1.114053,"lng":113.862816,"addr":"","type":"yes"},{"id":"xx-11295_1138593","name":"Islamic place","lat":-1.129536,"lng":113.859313,"addr":"","type":"yes"},{"id":"xx-22125_1139064","name":"Masjid Shalahuddin UPR","lat":-2.212477,"lng":113.906443,"addr":"","type":"yes"},{"id":"xx-22274_1139251","name":"Islamic place","lat":-2.227447,"lng":113.925073,"addr":"","type":"yes"},{"id":"xx-26868_1116511","name":"Islamic place","lat":-2.686836,"lng":111.651099,"addr":"","type":"yes"},{"id":"xx-26833_1116439","name":"Islamic place","lat":-2.683336,"lng":111.643885,"addr":"","type":"yes"},{"id":"xx-22286_1139208","name":"Islamic place","lat":-2.228639,"lng":113.920796,"addr":"","type":"yes"},{"id":"xx-22312_1139205","name":"Islamic place","lat":-2.231183,"lng":113.920451,"addr":"","type":"yes"},{"id":"xx-22326_1139241","name":"Masjid Baiturrahman","lat":-2.232585,"lng":113.924097,"addr":"","type":"yes"},{"id":"xx-22363_1139111","name":"Islamic place","lat":-2.236285,"lng":113.911132,"addr":"","type":"yes"},{"id":"xx-22291_1139191","name":"Islamic place","lat":-2.229059,"lng":113.91906,"addr":"","type":"yes"},{"id":"xx-22340_1139168","name":"Islamic place","lat":-2.234031,"lng":113.916776,"addr":"","type":"yes"},{"id":"xx-22300_1139072","name":"Masjid Al Robbani","lat":-2.230049,"lng":113.907208,"addr":"","type":"yes"},{"id":"xx-22275_1139251","name":"Islamic place","lat":-2.227484,"lng":113.92506,"addr":"","type":"yes"},{"id":"xx-26869_1116511","name":"Islamic place","lat":-2.686871,"lng":111.651084,"addr":"","type":"yes"},{"id":"xx-26834_1116439","name":"Islamic place","lat":-2.683365,"lng":111.643874,"addr":"","type":"yes"},{"id":"xx-22287_1139208","name":"Islamic place","lat":-2.22866,"lng":113.920789,"addr":"","type":"yes"},{"id":"xx-22312_1139204","name":"Islamic place","lat":-2.231219,"lng":113.920436,"addr":"","type":"yes"},{"id":"xx-33198_1146297","name":"Islamic place","lat":-3.319779,"lng":114.62968,"addr":"","type":"yes"},{"id":"xx-33193_1146285","name":"Langgar Darul Aman","lat":-3.319283,"lng":114.628547,"addr":"","type":"yes"},{"id":"xx-33150_1146316","name":"Masjid Al-Kautsar","lat":-3.314962,"lng":114.631611,"addr":"","type":"mosque"},{"id":"xx-33370_1146021","name":"Masjid Hidayatussalikin","lat":-3.336954,"lng":114.602106,"addr":"","type":"yes"},{"id":"xx-10509_1137265","name":"Islamic place","lat":-1.05092,"lng":113.726506,"addr":"","type":"yes"},{"id":"xx-10527_1137241","name":"Islamic place","lat":-1.052695,"lng":113.724105,"addr":"","type":"yes"},{"id":"xx-19395_1149992","name":"Islamic place","lat":-1.93953,"lng":114.999183,"addr":"","type":"yes"},{"id":"xx-33198_1146296","name":"Islamic place","lat":-3.3198,"lng":114.629626,"addr":"","type":"yes"},{"id":"xx-10527_1137240","name":"Islamic place","lat":-1.052721,"lng":113.724037,"addr":"","type":"yes"},{"id":"xx-19396_1149991","name":"Islamic place","lat":-1.939557,"lng":114.999126,"addr":"","type":"yes"},{"id":"xx-09827_1149946","name":"Islamic place","lat":-0.98268,"lng":114.99459,"addr":"","type":"yes"},{"id":"xx-26978_1116214","name":"Masjid Nurul Hidayah","lat":-2.697828,"lng":111.621381,"addr":"","type":"yes"},{"id":"xx-26870_1116275","name":"Masjid Agung Riyadlus Salihin","lat":-2.686997,"lng":111.627521,"addr":"","type":"yes"},{"id":"xx-09827_1149945","name":"Islamic place","lat":-0.9827,"lng":114.99454,"addr":"","type":"yes"},{"id":"xx-37997_1146150","name":"Langgar Nurul Iman","lat":-3.799748,"lng":114.614976,"addr":"","type":"yes"},{"id":"xx-37963_1146283","name":"Masjid Nurul Yaqin","lat":-3.796295,"lng":114.628279,"addr":"","type":"yes"},{"id":"xx-37906_1146144","name":"Langgar Da'watul Khair","lat":-3.790562,"lng":114.614419,"addr":"","type":"yes"},{"id":"xx-34388_1148386","name":"Kanzul khairat","lat":-3.438837,"lng":114.838633,"addr":"","type":"yes"},{"id":"xx-32820_1145792","name":"Masjid Qariyyah Thayyibah","lat":-3.281981,"lng":114.579159,"addr":"","type":"mosque"},{"id":"xx-32841_1145765","name":"Masjid Al-Muhajirin","lat":-3.284124,"lng":114.576506,"addr":"","type":"mosque"},{"id":"xx-33174_1145846","name":"Masjid Asy-Syuhada","lat":-3.317387,"lng":114.584565,"addr":"","type":"mosque"},{"id":"xx-32877_1145731","name":"Masjid Nurul Islam","lat":-3.287703,"lng":114.573067,"addr":"","type":"mosque"},{"id":"xx-32878_1145683","name":"Islamic place","lat":-3.287799,"lng":114.568277,"addr":"","type":"mosque"},{"id":"xx-32753_1145732","name":"Masjid Hijratul Hidayah","lat":-3.275303,"lng":114.573207,"addr":"","type":"mosque"},{"id":"xx-32773_1145789","name":"Masjid Sairul Muhtadin","lat":-3.27729,"lng":114.578862,"addr":"","type":"mosque"},{"id":"xx-33078_1145724","name":"Masjid Al-Ashri","lat":-3.307752,"lng":114.572442,"addr":"","type":"mosque"},{"id":"xx-32997_1145706","name":"Masjid Baitul Rahman","lat":-3.299706,"lng":114.570573,"addr":"","type":"mosque"},{"id":"xx-32848_1145687","name":"Masjid Su'ada Uddarain","lat":-3.284769,"lng":114.568679,"addr":"","type":"mosque"},{"id":"xx-33280_1145979","name":"Masjid Agung Miftahul Ihsan","lat":-3.327988,"lng":114.597893,"addr":"","type":"mosque"},{"id":"xx-32890_1145890","name":"Masjid Hasanuddin Majedi","lat":-3.289042,"lng":114.588987,"addr":"Jalan Brigjen Hasan Basri","type":"mosque"},{"id":"xx-32687_1145701","name":"Masjid Jami Tuhfaturroghibin","lat":-3.26867,"lng":114.570126,"addr":"","type":"mosque"},{"id":"xx-37988_1146055","name":"Langgar Ikhlasol Abror","lat":-3.798819,"lng":114.605456,"addr":"","type":"yes"},{"id":"xx-38293_1146064","name":"Langgar Al Munawar","lat":-3.829266,"lng":114.606424,"addr":"","type":"yes"},{"id":"xx-38121_1146059","name":"Langgar Al Ikhsan","lat":-3.812062,"lng":114.605868,"addr":"","type":"yes"},{"id":"xx-38159_1146056","name":"Langgar Al Mubaroq","lat":-3.815929,"lng":114.605587,"addr":"","type":"yes"},{"id":"xx-38038_1146065","name":"Masjid Nussallal Yaqin","lat":-3.803751,"lng":114.606515,"addr":"","type":"yes"},{"id":"xx-33090_1145862","name":"Masjid Al-Mujahidin","lat":-3.308957,"lng":114.586196,"addr":"","type":"mosque"},{"id":"xx-37998_1146150","name":"Langgar Nurul Iman","lat":-3.79977,"lng":114.614967,"addr":"","type":"yes"},{"id":"xx-32773_1145788","name":"Masjid Sairul Muhtadin","lat":-3.27733,"lng":114.578841,"addr":"","type":"mosque"},{"id":"xx-37988_1146054","name":"Langgar Ikhlasol Abror","lat":-3.798842,"lng":114.605448,"addr":"","type":"yes"},{"id":"xx-33045_1145705","name":"Islamic place","lat":-3.304481,"lng":114.570524,"addr":"","type":"mosque"},{"id":"xx-34420_1148306","name":"Musholla Al-Hidayah","lat":-3.441959,"lng":114.830613,"addr":"","type":"yes"},{"id":"xx-35123_1149988","name":"Masjid Mathlaul Anwar","lat":-3.51232,"lng":114.998765,"addr":"","type":"yes"},{"id":"xx-15347_1105669","name":"Masjid Jami Miftahul Jannah","lat":-1.534689,"lng":110.566896,"addr":"","type":"yes"},{"id":"xx-15274_1105647","name":"Islamic place","lat":-1.527424,"lng":110.564723,"addr":"","type":"yes"},{"id":"xx-40555_1149269","name":"Islamic place","lat":-4.055486,"lng":114.926938,"addr":"","type":"yes"},{"id":"xx-39732_1146317","name":"Mushola Nurul Azhar","lat":-3.973196,"lng":114.631741,"addr":"","type":"yes"},{"id":"xx-39735_1146300","name":"Mushola Nurul Huda","lat":-3.9735,"lng":114.629984,"addr":"","type":"yes"},{"id":"xx-34714_1147065","name":"Islamic place","lat":-3.471367,"lng":114.70646,"addr":"","type":"yes"},{"id":"xx-37643_1146128","name":"MUSOLAH NURUL JANNAH","lat":-3.764299,"lng":114.612769,"addr":"","type":"yes"},{"id":"xx-37621_1146121","name":"MUSOLAH DAWATUL KHAIR","lat":-3.762091,"lng":114.61213,"addr":"","type":"yes"},{"id":"xx-37630_1146125","name":"MASJID JAMI FASTABIQUL KHAIROT","lat":-3.76302,"lng":114.612463,"addr":"","type":"yes"},{"id":"xx-37651_1146119","name":"MUSOLAH BABUSSALAM","lat":-3.765076,"lng":114.611948,"addr":"","type":"yes"},{"id":"xx-39698_1146297","name":"Masjid Sirajul Munir","lat":-3.969813,"lng":114.629659,"addr":"","type":"yes"},{"id":"xx-39672_1146304","name":"Mushola Nurul Iman","lat":-3.967176,"lng":114.630409,"addr":"","type":"yes"},{"id":"xx-37642_1146172","name":"MUSOLAH FATHUL HASANAH","lat":-3.764209,"lng":114.617162,"addr":"","type":"yes"},{"id":"xx-37603_1146116","name":"MUSOLAH ANNIDAH","lat":-3.760261,"lng":114.611577,"addr":"","type":"yes"},{"id":"xx-37603_1146187","name":"MUSOLAH ARRAUDAH","lat":-3.760293,"lng":114.618694,"addr":"","type":"yes"},{"id":"xx-37522_1146215","name":"MUSOLAH ISTIQOMAH","lat":-3.752249,"lng":114.621533,"addr":"","type":"yes"},{"id":"xx-38473_1146100","name":"Masjid Dusun 4 Takisung","lat":-3.847252,"lng":114.610012,"addr":"","type":"yes"},{"id":"xx-38633_1146493","name":"Islamic place","lat":-3.863299,"lng":114.649271,"addr":"","type":"yes"},{"id":"xx-38638_1146143","name":"Islamic place","lat":-3.863813,"lng":114.614255,"addr":"","type":"yes"},{"id":"xx-38548_1146103","name":"Islamic place","lat":-3.85482,"lng":114.610348,"addr":"","type":"yes"},{"id":"xx-38873_1146418","name":"Islamic place","lat":-3.887279,"lng":114.641769,"addr":"","type":"yes"},{"id":"xx-38850_1146464","name":"Islamic place","lat":-3.885,"lng":114.646393,"addr":"","type":"yes"},{"id":"xx-38837_1146521","name":"Islamic place","lat":-3.883719,"lng":114.652081,"addr":"","type":"yes"},{"id":"xx-38730_1146117","name":"Masjid Darul Iqomah","lat":-3.873041,"lng":114.611672,"addr":"","type":"yes"},{"id":"xx-38969_1146509","name":"Islamic place","lat":-3.896895,"lng":114.650941,"addr":"","type":"yes"},{"id":"xx-38953_1146426","name":"Islamic place","lat":-3.895305,"lng":114.642591,"addr":"","type":"yes"},{"id":"xx-33757_1146649","name":"MASJID NURUL IMAN","lat":-3.375697,"lng":114.66491,"addr":"","type":"place_of_worship"},{"id":"xx-33059_1145971","name":"Komplek Makam Pangeran Antasari","lat":-3.305918,"lng":114.597069,"addr":"","type":"roof"},{"id":"xx-22017_1139155","name":"Masjid Jami Annur","lat":-2.201652,"lng":113.915507,"addr":"","type":"yes"},{"id":"xx-38629_1146116","name":"Islamic place","lat":-3.862869,"lng":114.611597,"addr":"","type":"yes"},{"id":"xx-31545_1145054","name":"Masjid Besar Baiturrahman","lat":-3.154486,"lng":114.505426,"addr":"","type":"yes"},{"id":"xx-35369_1147987","name":"Islamic place","lat":-3.536882,"lng":114.798697,"addr":"","type":"yes"},{"id":"xx-22169_1139226","name":"Islamic place","lat":-2.21685,"lng":113.922645,"addr":"","type":"mosque"},{"id":"xx-29598_1143554","name":"Islamic place","lat":-2.95984,"lng":114.355417,"addr":"","type":"yes"},{"id":"xx-29643_1144163","name":"Islamic place","lat":-2.964288,"lng":114.4163,"addr":"","type":"yes"},{"id":"xx-29783_1144033","name":"Islamic place","lat":-2.978317,"lng":114.403282,"addr":"","type":"yes"},{"id":"xx-29797_1144034","name":"Islamic place","lat":-2.979665,"lng":114.403449,"addr":"","type":"yes"},{"id":"xx-29818_1143981","name":"Islamic place","lat":-2.981777,"lng":114.398136,"addr":"","type":"yes"},{"id":"xx-29826_1144122","name":"Islamic place","lat":-2.982623,"lng":114.412175,"addr":"","type":"yes"},{"id":"xx-34207_1143996","name":"Mesjid","lat":-3.420716,"lng":114.399634,"addr":"","type":"mosque"},{"id":"xx-30238_1143890","name":"Islamic place","lat":-3.023843,"lng":114.388982,"addr":"","type":"mosque"},{"id":"xx-30217_1143877","name":"Islamic place","lat":-3.021712,"lng":114.387719,"addr":"","type":"mosque"},{"id":"xx-30195_1143888","name":"Masjid Darul Muttaqin","lat":-3.019492,"lng":114.388809,"addr":"","type":"yes"},{"id":"xx-30050_1143767","name":"Islamic place","lat":-3.004962,"lng":114.376657,"addr":"","type":"mosque"},{"id":"xx-30173_1143798","name":"Langgar Al-Inayah","lat":-3.01729,"lng":114.3798,"addr":"","type":"yes"},{"id":"xx-37508_1147650","name":"Islamic place","lat":-3.750807,"lng":114.764961,"addr":"","type":"yes"},{"id":"xx-29839_1144282","name":"Islamic place","lat":-2.983941,"lng":114.428195,"addr":"","type":"yes"},{"id":"xx-29680_1144288","name":"Islamic place","lat":-2.968041,"lng":114.428838,"addr":"","type":"yes"},{"id":"xx-29628_1144122","name":"Islamic place","lat":-2.962784,"lng":114.412187,"addr":"","type":"yes"},{"id":"xx-29528_1144302","name":"Islamic place","lat":-2.952813,"lng":114.430242,"addr":"","type":"yes"},{"id":"xx-29018_1143729","name":"Islamic place","lat":-2.901813,"lng":114.372914,"addr":"","type":"yes"},{"id":"xx-29399_1143673","name":"Islamic place","lat":-2.939885,"lng":114.367303,"addr":"","type":"yes"},{"id":"xx-30059_1143883","name":"Masjid Agung Al-Mukarram Amanah","lat":-3.005857,"lng":114.388336,"addr":"","type":"yes"},{"id":"xx-36992_1147339","name":"Musholla","lat":-3.699183,"lng":114.73389,"addr":"","type":"yes"},{"id":"xx-37844_1147326","name":"Masjid Thoiratul Jannah","lat":-3.784436,"lng":114.732617,"addr":"","type":"yes"},{"id":"xx-38069_1147380","name":"Masjid Uswatun Hasanah","lat":-3.806885,"lng":114.738039,"addr":"","type":"yes"},{"id":"xx-38121_1147183","name":"Langgar Al Hijrah","lat":-3.81208,"lng":114.718321,"addr":"","type":"yes"},{"id":"xx-37955_1147156","name":"Mushola Babul Jannah","lat":-3.795453,"lng":114.715625,"addr":"","type":"yes"},{"id":"xx-37889_1147110","name":"Masjid Hidayatusalihin","lat":-3.788906,"lng":114.711028,"addr":"","type":"yes"},{"id":"xx-21713_1138688","name":"Masjid Al Muhajirin","lat":-2.171316,"lng":113.868752,"addr":"Komplek Transito","type":"yes"},{"id":"xx-34147_1142766","name":"Islamic place","lat":-3.414713,"lng":114.276609,"addr":"","type":"yes"},{"id":"xx-30013_1143912","name":"Masjid At-Taqwa","lat":-3.001334,"lng":114.391199,"addr":"","type":"yes"},{"id":"xx-34190_1142847","name":"Islamic place","lat":-3.419026,"lng":114.284716,"addr":"","type":"yes"},{"id":"xx-37783_1148200","name":"Masjid Darul Istiqomah","lat":-3.778287,"lng":114.819956,"addr":"","type":"yes"},{"id":"xx-22161_1139076","name":"Islamic place","lat":-2.216117,"lng":113.907556,"addr":"","type":"yes"},{"id":"xx-22146_1139084","name":"Islamic place","lat":-2.214602,"lng":113.908385,"addr":"","type":"yes"},{"id":"xx-33569_1143226","name":"Islamic place","lat":-3.356893,"lng":114.322602,"addr":"","type":"yes"},{"id":"xx-33897_1142606","name":"Islamic place","lat":-3.389747,"lng":114.260589,"addr":"","type":"yes"},{"id":"xx-32792_1145972","name":"Islamic place","lat":-3.279174,"lng":114.597233,"addr":"","type":"yes"},{"id":"xx-22651_1140622","name":"Islamic place","lat":-2.265077,"lng":114.062174,"addr":"","type":"place_of_worship"},{"id":"xx-37073_1147427","name":"Masjid Muhajirin","lat":-3.707344,"lng":114.742698,"addr":"","type":"yes"},{"id":"xx-37019_1147546","name":"Masjid Nurul Hikmah","lat":-3.701919,"lng":114.754557,"addr":"","type":"yes"},{"id":"xx-25109_1144940","name":"Langgar Al Ihsan","lat":-2.510892,"lng":114.494031,"addr":"Jalan Beringin","type":"yes"},{"id":"xx-25160_1144926","name":"Masjid Nurul Hikmah","lat":-2.516029,"lng":114.492584,"addr":"Nurul Himah","type":"mosque"},{"id":"xx-25226_1144871","name":"Langgar Al-Ikhlas","lat":-2.52259,"lng":114.487135,"addr":"Mantangai Hilir","type":"yes"},{"id":"xx-32690_1145814","name":"Langgar At Taqwa","lat":-3.26898,"lng":114.581375,"addr":"","type":"yes"},{"id":"xx-32678_1145809","name":"Islamic place","lat":-3.267752,"lng":114.580896,"addr":"","type":"mosque"},{"id":"xx-32635_1145831","name":"Masjid Arrohmanirrohim","lat":-3.263452,"lng":114.583068,"addr":"","type":"yes"},{"id":"xx-32848_1145881","name":"Islamic place","lat":-3.284769,"lng":114.588144,"addr":"","type":"yes"},{"id":"xx-32836_1145855","name":"Islamic place","lat":-3.283599,"lng":114.585457,"addr":"","type":"yes"},{"id":"xx-32685_1145777","name":"Langgar Nurul Yaqin","lat":-3.268461,"lng":114.577716,"addr":"","type":"mosque"},{"id":"xx-32730_1145932","name":"Masjid Al Muhibbiin","lat":-3.272955,"lng":114.593245,"addr":"","type":"yes"},{"id":"xx-32857_1145870","name":"Islamic place","lat":-3.285738,"lng":114.58699,"addr":"","type":"yes"},{"id":"xx-32526_1145657","name":"Islamic place","lat":-3.252603,"lng":114.565688,"addr":"","type":"yes"},{"id":"xx-32679_1145754","name":"Masjid Al Furqan","lat":-3.267895,"lng":114.575401,"addr":"","type":"yes"},{"id":"xx-32679_1145776","name":"Langgar Nuruddin","lat":-3.267864,"lng":114.577627,"addr":"","type":"mosque"},{"id":"xx-32574_1145699","name":"Islamic place","lat":-3.257406,"lng":114.569932,"addr":"","type":"yes"},{"id":"xx-32605_1145688","name":"Islamic place","lat":-3.260494,"lng":114.56877,"addr":"","type":"yes"},{"id":"xx-32619_1145730","name":"Islamic place","lat":-3.261901,"lng":114.572987,"addr":"","type":"yes"},{"id":"xx-32635_1145687","name":"Islamic place","lat":-3.263522,"lng":114.568746,"addr":"","type":"yes"},{"id":"xx-32756_1145944","name":"Islamic place","lat":-3.275609,"lng":114.594447,"addr":"","type":"yes"},{"id":"xx-32660_1145746","name":"Mushalla Jam'iyyatul Khair","lat":-3.265984,"lng":114.574588,"addr":"","type":"mosque"},{"id":"xx-32744_1145762","name":"Islamic place","lat":-3.274435,"lng":114.576164,"addr":"","type":"yes"},{"id":"xx-32724_1145757","name":"Islamic place","lat":-3.272404,"lng":114.575651,"addr":"","type":"yes"},{"id":"xx-32929_1145763","name":"Islamic place","lat":-3.292923,"lng":114.576277,"addr":"","type":"yes"},{"id":"xx-22522_1139173","name":"Masjid Al Huda","lat":-2.252166,"lng":113.917341,"addr":"","type":"yes"},{"id":"xx-32745_1146069","name":"Islamic place","lat":-3.274486,"lng":114.606894,"addr":"","type":"yes"},{"id":"xx-32741_1146047","name":"Islamic place","lat":-3.274116,"lng":114.604734,"addr":"","type":"yes"},{"id":"xx-22063_1139146","name":"Masjid Mini Al-Mubarak","lat":-2.206339,"lng":113.914567,"addr":"","type":"yes"},{"id":"xx-38822_1146187","name":"Musholla","lat":-3.882229,"lng":114.618728,"addr":"","type":"yes"},{"id":"xx-32904_1145562","name":"Islamic place","lat":-3.290372,"lng":114.556184,"addr":"","type":"yes"},{"id":"xx-32759_1145653","name":"Islamic place","lat":-3.275894,"lng":114.565301,"addr":"","type":"mosque"},{"id":"xx-32734_1145201","name":"Islamic place","lat":-3.273437,"lng":114.520148,"addr":"","type":"yes"},{"id":"xx-32650_1145173","name":"Islamic place","lat":-3.264952,"lng":114.517256,"addr":"","type":"yes"},{"id":"xx-25042_1144966","name":"Kubah Syekh Habib Ali Yusuf","lat":-2.504183,"lng":114.496591,"addr":"","type":"mosque"},{"id":"xx-25031_1144973","name":"MADIN ASSASUL ISLAM","lat":-2.503088,"lng":114.497311,"addr":"Jalan Pemda","type":"yes"},{"id":"xx-25042_1144964","name":"Majelis Taklim Raudhatul Muhibbin","lat":-2.504175,"lng":114.496379,"addr":"","type":"mosque"},{"id":"xx-25043_1144965","name":"Kubah","lat":-2.504274,"lng":114.496485,"addr":"","type":"mosque"},{"id":"xx-25051_1144956","name":"Masjid Nurul Islam Mantangai","lat":-2.505141,"lng":114.495565,"addr":"Mantangai Hilir","type":"mosque"},{"id":"xx-25078_1144955","name":"Langgar Fathurrahmah","lat":-2.507811,"lng":114.495483,"addr":"Jalan Kanamit","type":"yes"},{"id":"xx-32896_1146112","name":"Islamic place","lat":-3.28962,"lng":114.611184,"addr":"","type":"yes"},{"id":"xx-32918_1146102","name":"Islamic place","lat":-3.29176,"lng":114.610199,"addr":"","type":"yes"},{"id":"xx-33345_1145096","name":"Islamic place","lat":-3.334514,"lng":114.509577,"addr":"","type":"yes"},{"id":"xx-32927_1146163","name":"Islamic place","lat":-3.292688,"lng":114.616322,"addr":"","type":"mosque"},{"id":"xx-33266_1145078","name":"Islamic place","lat":-3.326606,"lng":114.50783,"addr":"","type":"yes"},{"id":"xx-32901_1146175","name":"Islamic place","lat":-3.290112,"lng":114.617473,"addr":"","type":"yes"},{"id":"xx-32910_1144794","name":"Islamic place","lat":-3.290964,"lng":114.479436,"addr":"","type":"yes"},{"id":"xx-32983_1144358","name":"Islamic place","lat":-3.298317,"lng":114.435754,"addr":"","type":"yes"},{"id":"xx-33016_1144371","name":"Islamic place","lat":-3.301627,"lng":114.437087,"addr":"","type":"yes"},{"id":"xx-33000_1144358","name":"Islamic place","lat":-3.300004,"lng":114.435755,"addr":"","type":"yes"},{"id":"xx-32734_1146114","name":"Islamic place","lat":-3.273375,"lng":114.611352,"addr":"","type":"yes"},{"id":"xx-32736_1146126","name":"Islamic place","lat":-3.273639,"lng":114.61264,"addr":"","type":"yes"},{"id":"xx-32858_1146121","name":"Masjid Ar-Raudah","lat":-3.285837,"lng":114.612119,"addr":"","type":"yes"},{"id":"xx-32804_1146107","name":"Islamic place","lat":-3.280426,"lng":114.610651,"addr":"","type":"yes"},{"id":"xx-32709_1146111","name":"Islamic place","lat":-3.270858,"lng":114.611101,"addr":"","type":"yes"},{"id":"xx-32772_1146095","name":"Islamic place","lat":-3.277158,"lng":114.609491,"addr":"","type":"yes"},{"id":"xx-32764_1146103","name":"Islamic place","lat":-3.276371,"lng":114.610334,"addr":"","type":"yes"},{"id":"xx-32828_1146096","name":"Islamic place","lat":-3.282817,"lng":114.609572,"addr":"","type":"yes"},{"id":"xx-32626_1146134","name":"Islamic place","lat":-3.262601,"lng":114.613381,"addr":"","type":"yes"},{"id":"xx-38033_1147630","name":"Mushola Nurul Ibadah","lat":-3.803261,"lng":114.762972,"addr":"","type":"yes"},{"id":"xx-38004_1147613","name":"Mushola Darul Muttakin","lat":-3.800397,"lng":114.761257,"addr":"","type":"yes"},{"id":"xx-37983_1147609","name":"Mushola Darul Fallah","lat":-3.798256,"lng":114.760902,"addr":"","type":"yes"},{"id":"xx-37836_1147778","name":"Masjid Angsau Pelaihari","lat":-3.783598,"lng":114.777793,"addr":"","type":"yes"},{"id":"xx-37843_1147768","name":"Musholla Darul Falah","lat":-3.784251,"lng":114.776805,"addr":"","type":"yes"},{"id":"xx-37995_1147524","name":"Mushola An Nur","lat":-3.799516,"lng":114.752379,"addr":"","type":"yes"},{"id":"xx-38050_1147511","name":"Islamic place","lat":-3.804998,"lng":114.751054,"addr":"","type":"yes"},{"id":"xx-38079_1147540","name":"Langggar RT 7A","lat":-3.807944,"lng":114.753966,"addr":"","type":"yes"},{"id":"xx-38093_1147571","name":"Islamic place","lat":-3.809273,"lng":114.757131,"addr":"","type":"yes"},{"id":"xx-38098_1147633","name":"Masjid Mutawakilin","lat":-3.809805,"lng":114.763316,"addr":"","type":"yes"},{"id":"xx-38145_1147630","name":"Langgar Babussalam","lat":-3.814506,"lng":114.763009,"addr":"","type":"yes"},{"id":"xx-38075_1147616","name":"Musala Al Ikhlas","lat":-3.807523,"lng":114.761598,"addr":"","type":"yes"},{"id":"xx-32907_1146104","name":"Islamic place","lat":-3.290715,"lng":114.610413,"addr":"","type":"yes"},{"id":"xx-32895_1146095","name":"Islamic place","lat":-3.289461,"lng":114.609481,"addr":"","type":"yes"},{"id":"xx-32869_1146177","name":"Islamic place","lat":-3.286896,"lng":114.617746,"addr":"","type":"yes"},{"id":"xx-32633_1146108","name":"Islamic place","lat":-3.263338,"lng":114.610846,"addr":"","type":"yes"},{"id":"xx-32719_1146359","name":"Masjid Jami As-Shodiqin","lat":-3.271873,"lng":114.635881,"addr":"Terantang","type":"yes"},{"id":"xx-32886_1146500","name":"Islamic place","lat":-3.288557,"lng":114.650049,"addr":"","type":"yes"},{"id":"xx-32634_1146219","name":"Islamic place","lat":-3.263395,"lng":114.621851,"addr":"","type":"yes"},{"id":"xx-32602_1146151","name":"Islamic place","lat":-3.260217,"lng":114.615147,"addr":"","type":"yes"},{"id":"xx-32811_1146090","name":"Islamic place","lat":-3.281106,"lng":114.608984,"addr":"","type":"yes"},{"id":"xx-32819_1146077","name":"Islamic place","lat":-3.281928,"lng":114.607714,"addr":"","type":"yes"},{"id":"xx-32835_1146079","name":"Islamic place","lat":-3.283546,"lng":114.607932,"addr":"","type":"yes"},{"id":"xx-22496_1139527","name":"Islamic place","lat":-2.249558,"lng":113.952709,"addr":"","type":"mosque"},{"id":"xx-32581_1144562","name":"Islamic place","lat":-3.2581,"lng":114.456231,"addr":"","type":"yes"},{"id":"xx-32841_1144986","name":"Islamic place","lat":-3.284075,"lng":114.498601,"addr":"","type":"yes"},{"id":"xx-32869_1145062","name":"Islamic place","lat":-3.286873,"lng":114.506248,"addr":"","type":"yes"},{"id":"xx-32714_1145042","name":"Islamic place","lat":-3.271411,"lng":114.504153,"addr":"","type":"yes"},{"id":"xx-32927_1145426","name":"Islamic place","lat":-3.292721,"lng":114.542567,"addr":"","type":"yes"},{"id":"xx-32639_1145503","name":"Islamic place","lat":-3.263912,"lng":114.550307,"addr":"","type":"yes"},{"id":"xx-32656_1145458","name":"Islamic place","lat":-3.26556,"lng":114.545762,"addr":"","type":"yes"},{"id":"xx-32635_1145480","name":"Islamic place","lat":-3.263457,"lng":114.548018,"addr":"","type":"yes"},{"id":"xx-32627_1145508","name":"Islamic place","lat":-3.262667,"lng":114.550766,"addr":"","type":"yes"},{"id":"xx-32641_1145462","name":"Islamic place","lat":-3.264147,"lng":114.546187,"addr":"","type":"yes"},{"id":"xx-34555_1143676","name":"Islamic place","lat":-3.455542,"lng":114.367569,"addr":"","type":"mosque"},{"id":"xx-34471_1143464","name":"Islamic place","lat":-3.44708,"lng":114.346366,"addr":"","type":"mosque"},{"id":"xx-32651_1145436","name":"Islamic place","lat":-3.265115,"lng":114.543648,"addr":"","type":"yes"},{"id":"xx-32666_1145432","name":"Islamic place","lat":-3.266557,"lng":114.543159,"addr":"","type":"yes"},{"id":"xx-32632_1145404","name":"Islamic place","lat":-3.263156,"lng":114.540406,"addr":"","type":"yes"},{"id":"xx-32657_1145403","name":"Islamic place","lat":-3.265674,"lng":114.540303,"addr":"","type":"yes"},{"id":"xx-32679_1145362","name":"Islamic place","lat":-3.267903,"lng":114.536178,"addr":"","type":"yes"},{"id":"xx-32746_1145214","name":"Islamic place","lat":-3.274592,"lng":114.521415,"addr":"","type":"yes"},{"id":"xx-32692_1145459","name":"Islamic place","lat":-3.269186,"lng":114.545948,"addr":"","type":"yes"},{"id":"xx-32701_1145302","name":"Islamic place","lat":-3.270094,"lng":114.530216,"addr":"","type":"yes"},{"id":"xx-32718_1145254","name":"Islamic place","lat":-3.271831,"lng":114.525399,"addr":"","type":"yes"},{"id":"xx-21822_1138764","name":"Masjid Al-Hakam","lat":-2.182238,"lng":113.876443,"addr":"","type":"place_of_worship"},{"id":"xx-24682_1148696","name":"Islamic place","lat":-2.468198,"lng":114.869626,"addr":"","type":"yes"},{"id":"xx-24670_1148724","name":"Islamic place","lat":-2.46697,"lng":114.87235,"addr":"","type":"yes"},{"id":"xx-25785_1148126","name":"Islamic place","lat":-2.578495,"lng":114.812563,"addr":"","type":"yes"},{"id":"xx-25673_1148298","name":"Islamic place","lat":-2.567273,"lng":114.829786,"addr":"","type":"yes"},{"id":"xx-32957_1146084","name":"Islamic place","lat":-3.295711,"lng":114.608429,"addr":"","type":"mosque"},{"id":"xx-32967_1146071","name":"Masjid As-Syifa","lat":-3.296671,"lng":114.60715,"addr":"","type":"mosque"},{"id":"xx-38186_1148686","name":"Masjid Al Muhajirin","lat":-3.818551,"lng":114.868623,"addr":"","type":"yes"},{"id":"xx-38032_1148303","name":"Mushola Baiturahim","lat":-3.803244,"lng":114.830344,"addr":"","type":"yes"},{"id":"xx-38045_1148319","name":"Mushola Baitulhuda","lat":-3.804462,"lng":114.831867,"addr":"","type":"yes"},{"id":"xx-24615_1149523","name":"Islamic place","lat":-2.461456,"lng":114.952317,"addr":"","type":"yes"},{"id":"xx-32875_1146069","name":"Islamic place","lat":-3.287486,"lng":114.606925,"addr":"","type":"yes"},{"id":"xx-32850_1146086","name":"Islamic place","lat":-3.28503,"lng":114.608606,"addr":"","type":"yes"},{"id":"xx-37654_1148424","name":"Mushola Nurul Muhtadin","lat":-3.765417,"lng":114.842394,"addr":"","type":"yes"},{"id":"xx-37719_1148338","name":"Masjid Syafatul Ikhwan","lat":-3.771865,"lng":114.833847,"addr":"","type":"yes"},{"id":"xx-25168_1149169","name":"Islamic place","lat":-2.51677,"lng":114.916875,"addr":"","type":"yes"},{"id":"xx-25555_1148367","name":"Islamic place","lat":-2.555497,"lng":114.836657,"addr":"","type":"yes"},{"id":"xx-32897_1146058","name":"Islamic place","lat":-3.289659,"lng":114.605775,"addr":"","type":"yes"},{"id":"xx-26753_1147930","name":"Islamic place","lat":-2.675271,"lng":114.793005,"addr":"","type":"yes"},{"id":"xx-32915_1146050","name":"Islamic place","lat":-3.291484,"lng":114.604983,"addr":"","type":"yes"},{"id":"xx-32093_1141595","name":"Islamic place","lat":-3.209347,"lng":114.159486,"addr":"","type":"yes"},{"id":"xx-37103_1148598","name":"Masjid Al Ikhlas","lat":-3.71032,"lng":114.859799,"addr":"","type":"mosque"},{"id":"xx-29399_1144446","name":"Islamic place","lat":-2.939868,"lng":114.444603,"addr":"","type":"yes"},{"id":"xx-22170_1138979","name":"Musholla Baitul Haq","lat":-2.217015,"lng":113.8979,"addr":"","type":"yes"},{"id":"xx-33432_1143805","name":"Islamic place","lat":-3.34321,"lng":114.38047,"addr":"","type":"yes"},{"id":"xx-34221_1144302","name":"Islamic place","lat":-3.422068,"lng":114.430159,"addr":"","type":"yes"},{"id":"xx-34236_1144172","name":"Islamic place","lat":-3.423554,"lng":114.417178,"addr":"","type":"yes"},{"id":"xx-29805_1147636","name":"Islamic place","lat":-2.980539,"lng":114.763601,"addr":"","type":"yes"},{"id":"xx-32834_1145526","name":"Islamic place","lat":-3.283442,"lng":114.552603,"addr":"","type":"yes"},{"id":"xx-32553_1145483","name":"Islamic place","lat":-3.255282,"lng":114.548314,"addr":"","type":"yes"},{"id":"xx-32517_1145466","name":"Islamic place","lat":-3.251698,"lng":114.546627,"addr":"","type":"yes"},{"id":"xx-33373_1146041","name":"Islamic place","lat":-3.337262,"lng":114.604124,"addr":"","type":"mosque"},{"id":"xx-31981_1143841","name":"Islamic place","lat":-3.198059,"lng":114.384108,"addr":"","type":"yes"},{"id":"xx-31959_1143803","name":"Islamic place","lat":-3.195893,"lng":114.380299,"addr":"","type":"yes"},{"id":"xx-33313_1146028","name":"Langgar Syi'arul Mu'minin","lat":-3.331282,"lng":114.602792,"addr":"","type":"yes"},{"id":"xx-33329_1146038","name":"Islamic place","lat":-3.332934,"lng":114.603801,"addr":"","type":"yes"},{"id":"xx-33360_1145998","name":"Islamic place","lat":-3.336019,"lng":114.599758,"addr":"","type":"yes"},{"id":"xx-29117_1144893","name":"Islamic place","lat":-2.911736,"lng":114.489271,"addr":"","type":"yes"},{"id":"xx-29359_1144597","name":"Islamic place","lat":-2.935887,"lng":114.459746,"addr":"","type":"yes"},{"id":"xx-32337_1145391","name":"Islamic place","lat":-3.233672,"lng":114.539088,"addr":"","type":"yes"},{"id":"xx-32129_1145808","name":"Islamic place","lat":-3.212867,"lng":114.580782,"addr":"","type":"yes"},{"id":"xx-32214_1145765","name":"Islamic place","lat":-3.221419,"lng":114.576542,"addr":"","type":"yes"},{"id":"xx-32253_1145747","name":"Islamic place","lat":-3.225306,"lng":114.574669,"addr":"","type":"yes"},{"id":"xx-32316_1145720","name":"Islamic place","lat":-3.231611,"lng":114.572039,"addr":"","type":"yes"},{"id":"xx-31903_1145926","name":"Islamic place","lat":-3.190346,"lng":114.592583,"addr":"","type":"yes"},{"id":"xx-32726_1145839","name":"Mushalla Darul Muna","lat":-3.272617,"lng":114.583868,"addr":"","type":"yes"},{"id":"xx-32894_1146078","name":"Islamic place","lat":-3.289448,"lng":114.607754,"addr":"","type":"yes"},{"id":"xx-32916_1146079","name":"Islamic place","lat":-3.291594,"lng":114.607932,"addr":"","type":"yes"},{"id":"xx-33173_1145403","name":"Islamic place","lat":-3.317304,"lng":114.540299,"addr":"","type":"yes"},{"id":"xx-33088_1145447","name":"Islamic place","lat":-3.30877,"lng":114.544669,"addr":"","type":"yes"},{"id":"xx-33104_1145525","name":"Islamic place","lat":-3.31037,"lng":114.552539,"addr":"","type":"yes"},{"id":"xx-33278_1145291","name":"Islamic place","lat":-3.32783,"lng":114.529058,"addr":"","type":"yes"},{"id":"xx-33376_1145313","name":"Islamic place","lat":-3.337572,"lng":114.531321,"addr":"","type":"yes"},{"id":"xx-32949_1145568","name":"Islamic place","lat":-3.294916,"lng":114.556763,"addr":"","type":"yes"},{"id":"xx-33151_1145452","name":"Islamic place","lat":-3.315083,"lng":114.545202,"addr":"","type":"yes"},{"id":"xx-32980_1145746","name":"Islamic place","lat":-3.298004,"lng":114.574557,"addr":"","type":"yes"},{"id":"xx-33025_1145808","name":"Masjid Al Huda","lat":-3.302493,"lng":114.58081,"addr":"","type":"yes"},{"id":"xx-33063_1145807","name":"Langgar Darul Musholla","lat":-3.306314,"lng":114.580682,"addr":"Jalan Belitung Darat","type":"yes"},{"id":"xx-32963_1146035","name":"Masjid Al Muttaqin","lat":-3.296318,"lng":114.603514,"addr":"","type":"yes"},{"id":"xx-35212_1147156","name":"Islamic place","lat":-3.52117,"lng":114.71563,"addr":"","type":"yes"},{"id":"xx-33360_1146084","name":"Islamic place","lat":-3.335953,"lng":114.608409,"addr":"","type":"yes"},{"id":"xx-33374_1146084","name":"Langgar Noor Ikhlas","lat":-3.337442,"lng":114.608361,"addr":"","type":"yes"},{"id":"xx-33349_1146077","name":"Langgar Mujahidin","lat":-3.334896,"lng":114.607692,"addr":"","type":"yes"},{"id":"xx-33157_1146069","name":"Islamic place","lat":-3.315699,"lng":114.606922,"addr":"","type":"yes"},{"id":"xx-33137_1146083","name":"Islamic place","lat":-3.313668,"lng":114.60828,"addr":"","type":"yes"},{"id":"xx-33129_1146082","name":"Islamic place","lat":-3.312911,"lng":114.608187,"addr":"","type":"yes"},{"id":"xx-33158_1146057","name":"Islamic place","lat":-3.315764,"lng":114.6057,"addr":"","type":"yes"},{"id":"xx-32746_1146084","name":"Islamic place","lat":-3.274609,"lng":114.608374,"addr":"","type":"yes"},{"id":"xx-32749_1146089","name":"Islamic place","lat":-3.274943,"lng":114.608938,"addr":"","type":"yes"},{"id":"xx-38079_1147592","name":"Langgar Darull Mukminin","lat":-3.807934,"lng":114.759181,"addr":"","type":"yes"},{"id":"xx-38043_1147536","name":"Majelis","lat":-3.804348,"lng":114.753556,"addr":"","type":"yes"},{"id":"xx-32774_1146061","name":"Islamic place","lat":-3.2774,"lng":114.606121,"addr":"","type":"yes"},{"id":"xx-32780_1146034","name":"Islamic place","lat":-3.278049,"lng":114.60343,"addr":"","type":"yes"},{"id":"xx-33345_1144814","name":"Islamic place","lat":-3.334489,"lng":114.48142,"addr":"","type":"yes"},{"id":"xx-22234_1139175","name":"Islamic place","lat":-2.223417,"lng":113.917469,"addr":"","type":"yes"},{"id":"xx-33223_1144784","name":"Islamic place","lat":-3.322305,"lng":114.478437,"addr":"","type":"yes"},{"id":"xx-33303_1144772","name":"Islamic place","lat":-3.330326,"lng":114.477164,"addr":"","type":"yes"},{"id":"xx-22181_1139182","name":"Masjid Al-Amanah","lat":-2.21812,"lng":113.918217,"addr":"","type":"yes"},{"id":"xx-29816_1147595","name":"Islamic place","lat":-2.98161,"lng":114.759544,"addr":"","type":"yes"},{"id":"xx-29812_1147492","name":"Islamic place","lat":-2.981168,"lng":114.749215,"addr":"","type":"yes"},{"id":"xx-33322_1144754","name":"Islamic place","lat":-3.332163,"lng":114.475414,"addr":"","type":"yes"},{"id":"xx-33350_1144896","name":"Islamic place","lat":-3.334996,"lng":114.489578,"addr":"","type":"yes"},{"id":"xx-22090_1139231","name":"Masjid Aqidah","lat":-2.208983,"lng":113.923111,"addr":"","type":"yes"},{"id":"xx-22107_1139220","name":"Masjid Al-Qona'ah RSUD dr. Doris Sylvanus","lat":-2.210657,"lng":113.921977,"addr":"","type":"yes"},{"id":"xx-33299_1144927","name":"Islamic place","lat":-3.329898,"lng":114.49266,"addr":"","type":"yes"},{"id":"xx-33362_1144884","name":"Islamic place","lat":-3.336235,"lng":114.488439,"addr":"","type":"yes"},{"id":"xx-29735_1147547","name":"Islamic place","lat":-2.973502,"lng":114.754688,"addr":"","type":"yes"},{"id":"xx-29765_1147443","name":"Islamic place","lat":-2.976524,"lng":114.744271,"addr":"","type":"yes"},{"id":"xx-33284_1144599","name":"Islamic place","lat":-3.328381,"lng":114.459882,"addr":"","type":"yes"},{"id":"xx-29845_1147747","name":"Masjid Agung Al Anwar","lat":-2.984545,"lng":114.774742,"addr":"","type":"yes"},{"id":"xx-37631_1146125","name":"MASJID JAMI FASTABIQUL KHAIROT","lat":-3.76305,"lng":114.612451,"addr":"","type":"yes"},{"id":"xx-37642_1146171","name":"MUSOLAH FATHUL HASANAH","lat":-3.76423,"lng":114.61715,"addr":"","type":"yes"},{"id":"xx-37523_1146215","name":"MUSOLAH ISTIQOMAH","lat":-3.752266,"lng":114.621526,"addr":"","type":"yes"},{"id":"xx-38638_1146142","name":"Islamic place","lat":-3.863836,"lng":114.614243,"addr":"","type":"yes"},{"id":"xx-38838_1146521","name":"Islamic place","lat":-3.883758,"lng":114.652067,"addr":"","type":"yes"},{"id":"xx-38731_1146117","name":"Masjid Darul Iqomah","lat":-3.87308,"lng":114.611664,"addr":"","type":"yes"},{"id":"xx-22017_1139154","name":"Masjid Jami Annur","lat":-2.201686,"lng":113.915425,"addr":"","type":"yes"},{"id":"xx-29599_1143554","name":"Islamic place","lat":-2.959866,"lng":114.355404,"addr":"","type":"yes"},{"id":"xx-34208_1143996","name":"Mesjid","lat":-3.420757,"lng":114.399624,"addr":"","type":"mosque"},{"id":"xx-30050_1143766","name":"Islamic place","lat":-3.004982,"lng":114.376649,"addr":"","type":"mosque"},{"id":"xx-37508_1147649","name":"Islamic place","lat":-3.750837,"lng":114.764947,"addr":"","type":"yes"},{"id":"xx-29840_1144282","name":"Islamic place","lat":-2.983984,"lng":114.428179,"addr":"","type":"yes"},{"id":"xx-29681_1144288","name":"Islamic place","lat":-2.968063,"lng":114.428828,"addr":"","type":"yes"},{"id":"xx-21714_1138687","name":"Masjid Al Muhajirin","lat":-2.171359,"lng":113.868732,"addr":"Komplek Transito","type":"yes"},{"id":"xx-34191_1142847","name":"Islamic place","lat":-3.419066,"lng":114.284691,"addr":"","type":"yes"},{"id":"xx-37783_1148199","name":"Masjid Darul Istiqomah","lat":-3.778325,"lng":114.819939,"addr":"","type":"yes"},{"id":"xx-22161_1139075","name":"Islamic place","lat":-2.216133,"lng":113.90755,"addr":"","type":"yes"},{"id":"xx-33898_1142606","name":"Islamic place","lat":-3.389775,"lng":114.260574,"addr":"","type":"yes"},{"id":"xx-37074_1147427","name":"Masjid Muhajirin","lat":-3.707368,"lng":114.742697,"addr":"","type":"yes"},{"id":"xx-32836_1145854","name":"Islamic place","lat":-3.283635,"lng":114.585441,"addr":"","type":"yes"},{"id":"xx-32605_1145687","name":"Islamic place","lat":-3.260528,"lng":114.568749,"addr":"","type":"yes"},{"id":"xx-38823_1146187","name":"Musholla","lat":-3.882256,"lng":114.618716,"addr":"","type":"yes"},{"id":"xx-32904_1145561","name":"Islamic place","lat":-3.290391,"lng":114.556134,"addr":"","type":"yes"},{"id":"xx-32735_1145201","name":"Islamic place","lat":-3.273473,"lng":114.520135,"addr":"","type":"yes"},{"id":"xx-32650_1145172","name":"Islamic place","lat":-3.264956,"lng":114.517231,"addr":"","type":"yes"},{"id":"xx-33345_1145095","name":"Islamic place","lat":-3.334519,"lng":114.509545,"addr":"","type":"yes"},{"id":"xx-32983_1144357","name":"Islamic place","lat":-3.298322,"lng":114.435727,"addr":"","type":"yes"},{"id":"xx-33001_1144357","name":"Islamic place","lat":-3.300057,"lng":114.435737,"addr":"","type":"yes"},{"id":"xx-32737_1146126","name":"Islamic place","lat":-3.273656,"lng":114.612632,"addr":"","type":"yes"},{"id":"xx-32804_1146106","name":"Islamic place","lat":-3.280423,"lng":114.610649,"addr":"","type":"yes"},{"id":"xx-38004_1147612","name":"Mushola Darul Muttakin","lat":-3.80042,"lng":114.761248,"addr":"","type":"yes"},{"id":"xx-38050_1147510","name":"Islamic place","lat":-3.805043,"lng":114.751037,"addr":"","type":"yes"},{"id":"xx-38080_1147540","name":"Langggar RT 7A","lat":-3.807962,"lng":114.753958,"addr":"","type":"yes"},{"id":"xx-32634_1146108","name":"Islamic place","lat":-3.263363,"lng":114.610834,"addr":"","type":"yes"},{"id":"xx-32634_1146218","name":"Islamic place","lat":-3.263423,"lng":114.621843,"addr":"","type":"yes"},{"id":"xx-32836_1146079","name":"Islamic place","lat":-3.283566,"lng":114.607922,"addr":"","type":"yes"},{"id":"xx-32714_1145041","name":"Islamic place","lat":-3.271425,"lng":114.504131,"addr":"","type":"yes"},{"id":"xx-32642_1145462","name":"Islamic place","lat":-3.26415,"lng":114.546156,"addr":"","type":"yes"},{"id":"xx-34556_1143676","name":"Islamic place","lat":-3.455576,"lng":114.367558,"addr":"","type":"mosque"},{"id":"xx-32666_1145431","name":"Islamic place","lat":-3.266572,"lng":114.543143,"addr":"","type":"yes"},{"id":"xx-32693_1145459","name":"Islamic place","lat":-3.269287,"lng":114.545893,"addr":"","type":"yes"},{"id":"xx-21823_1138764","name":"Masjid Al-Hakam","lat":-2.182255,"lng":113.876437,"addr":"","type":"place_of_worship"},{"id":"xx-24670_1148723","name":"Islamic place","lat":-2.467014,"lng":114.872329,"addr":"","type":"yes"},{"id":"xx-32958_1146084","name":"Islamic place","lat":-3.295763,"lng":114.608419,"addr":"","type":"mosque"},{"id":"xx-25555_1148366","name":"Islamic place","lat":-2.555519,"lng":114.836647,"addr":"","type":"yes"},{"id":"xx-32915_1146049","name":"Islamic place","lat":-3.291511,"lng":114.604946,"addr":"","type":"yes"},{"id":"xx-32094_1141595","name":"Islamic place","lat":-3.209382,"lng":114.159479,"addr":"","type":"yes"},{"id":"xx-34236_1144171","name":"Islamic place","lat":-3.423564,"lng":114.417126,"addr":"","type":"yes"},{"id":"xx-33330_1146038","name":"Islamic place","lat":-3.332976,"lng":114.603791,"addr":"","type":"yes"},{"id":"xx-29118_1144893","name":"Islamic place","lat":-2.911767,"lng":114.489257,"addr":"","type":"yes"},{"id":"xx-32129_1145807","name":"Islamic place","lat":-3.212885,"lng":114.580729,"addr":"","type":"yes"},{"id":"xx-32253_1145746","name":"Islamic place","lat":-3.22532,"lng":114.574644,"addr":"","type":"yes"},{"id":"xx-32726_1145838","name":"Mushalla Darul Muna","lat":-3.272622,"lng":114.583845,"addr":"","type":"yes"},{"id":"xx-32895_1146077","name":"Islamic place","lat":-3.289468,"lng":114.607749,"addr":"","type":"yes"},{"id":"xx-33088_1145446","name":"Islamic place","lat":-3.308774,"lng":114.544646,"addr":"","type":"yes"},{"id":"xx-33278_1145290","name":"Islamic place","lat":-3.327841,"lng":114.529027,"addr":"","type":"yes"},{"id":"xx-32949_1145567","name":"Islamic place","lat":-3.294932,"lng":114.55672,"addr":"","type":"yes"},{"id":"xx-33375_1146084","name":"Langgar Noor Ikhlas","lat":-3.337465,"lng":114.608353,"addr":"","type":"yes"},{"id":"xx-32750_1146089","name":"Islamic place","lat":-3.274969,"lng":114.608932,"addr":"","type":"yes"},{"id":"xx-38044_1147535","name":"Majelis","lat":-3.804366,"lng":114.753514,"addr":"","type":"yes"},{"id":"xx-22235_1139175","name":"Islamic place","lat":-2.223451,"lng":113.91746,"addr":"","type":"yes"},{"id":"xx-33299_1144926","name":"Islamic place","lat":-3.329905,"lng":114.492636,"addr":"","type":"yes"},{"id":"xx-29819_1147714","name":"Islamic place","lat":-2.981938,"lng":114.771425,"addr":"","type":"yes"},{"id":"xx-29808_1147694","name":"Islamic place","lat":-2.980803,"lng":114.769447,"addr":"","type":"yes"},{"id":"xx-29797_1147669","name":"Masjid At-Taqwa","lat":-2.9797,"lng":114.766875,"addr":"","type":"yes"},{"id":"xx-22139_1139261","name":"Masjid Baitul Ihsan","lat":-2.213867,"lng":113.926141,"addr":"","type":"yes"},{"id":"xx-32767_1146028","name":"Islamic place","lat":-3.276717,"lng":114.602781,"addr":"","type":"yes"},{"id":"xx-32773_1145994","name":"Islamic place","lat":-3.277309,"lng":114.599368,"addr":"","type":"mosque"},{"id":"xx-32746_1146006","name":"Islamic place","lat":-3.274625,"lng":114.60059,"addr":"","type":"yes"},{"id":"xx-32731_1146021","name":"Islamic place","lat":-3.273128,"lng":114.602119,"addr":"","type":"yes"},{"id":"xx-33123_1144452","name":"Islamic place","lat":-3.312266,"lng":114.445193,"addr":"","type":"yes"},{"id":"xx-33151_1144490","name":"Islamic place","lat":-3.315064,"lng":114.449041,"addr":"","type":"yes"},{"id":"xx-32655_1144736","name":"Islamic place","lat":-3.265488,"lng":114.473575,"addr":"","type":"yes"},{"id":"xx-32769_1145906","name":"Islamic place","lat":-3.276875,"lng":114.59055,"addr":"","type":"yes"},{"id":"xx-32742_1145981","name":"Mushalla","lat":-3.274169,"lng":114.598129,"addr":"","type":"mosque"},{"id":"xx-33343_1144513","name":"Islamic place","lat":-3.334268,"lng":114.451347,"addr":"","type":"yes"},{"id":"xx-32911_1146010","name":"Islamic place","lat":-3.291084,"lng":114.601002,"addr":"","type":"yes"},{"id":"xx-32933_1146040","name":"Islamic place","lat":-3.293315,"lng":114.604029,"addr":"","type":"yes"},{"id":"xx-31991_1145455","name":"Masjid Nurudzakirin","lat":-3.199075,"lng":114.545491,"addr":"","type":"yes"},{"id":"xx-33853_1144192","name":"Islamic place","lat":-3.385334,"lng":114.419194,"addr":"","type":"yes"},{"id":"xx-33762_1144200","name":"Islamic place","lat":-3.376239,"lng":114.42004,"addr":"","type":"yes"},{"id":"xx-33953_1144291","name":"Islamic place","lat":-3.395263,"lng":114.429077,"addr":"","type":"yes"},{"id":"xx-33957_1144030","name":"Islamic place","lat":-3.395654,"lng":114.402984,"addr":"","type":"yes"},{"id":"xx-37314_1147922","name":"MASJID DARUL MUTAKIN","lat":-3.731383,"lng":114.792218,"addr":"","type":"yes"},{"id":"xx-37306_1147886","name":"LANGGAR RT.10","lat":-3.730566,"lng":114.788605,"addr":"","type":"yes"},{"id":"xx-37690_1148196","name":"Langgar AL Amin","lat":-3.768975,"lng":114.819564,"addr":"","type":"yes"},{"id":"xx-37764_1148239","name":"Masjid Jami","lat":-3.77644,"lng":114.823879,"addr":"","type":"yes"},{"id":"xx-36679_1146869","name":"Masjid Al Hijriah","lat":-3.66789,"lng":114.686941,"addr":"","type":"yes"},{"id":"xx-32909_1145909","name":"Musala Ar-Rahman","lat":-3.290923,"lng":114.590908,"addr":"","type":"yes"},{"id":"xx-32939_1145938","name":"Islamic place","lat":-3.293904,"lng":114.593834,"addr":"","type":"yes"},{"id":"xx-33358_1145702","name":"Masjid Nurul Firdaus","lat":-3.335782,"lng":114.570198,"addr":"Jalur 9","type":"mosque"},{"id":"xx-33359_1145693","name":"Islamic place","lat":-3.335883,"lng":114.569321,"addr":"","type":"yes"},{"id":"xx-33341_1145659","name":"Islamic place","lat":-3.334086,"lng":114.565862,"addr":"","type":"mosque"},{"id":"xx-33325_1145684","name":"Islamic place","lat":-3.332473,"lng":114.568445,"addr":"","type":"yes"},{"id":"xx-33329_1145680","name":"Islamic place","lat":-3.332875,"lng":114.568016,"addr":"","type":"yes"},{"id":"xx-32901_1145931","name":"Islamic place","lat":-3.290066,"lng":114.593057,"addr":"","type":"yes"},{"id":"xx-32896_1145948","name":"Islamic place","lat":-3.289644,"lng":114.594764,"addr":"","type":"yes"},{"id":"xx-33227_1145857","name":"Masjid Al Jihad Banjarmasin","lat":-3.322696,"lng":114.585716,"addr":"Jalan Cempaka Besar","type":"mosque"},{"id":"xx-39012_1147287","name":"Masjid Al Muhajirin","lat":-3.90125,"lng":114.728712,"addr":"","type":"yes"},{"id":"xx-39014_1147261","name":"Mushala Nur Ihyaidin","lat":-3.901376,"lng":114.726127,"addr":"","type":"yes"},{"id":"xx-31053_1147002","name":"Masjid Miftahussalam","lat":-3.105347,"lng":114.700209,"addr":"","type":"yes"},{"id":"xx-32426_1147292","name":"Islamic place","lat":-3.242566,"lng":114.729216,"addr":"","type":"mosque"},{"id":"xx-35539_1145610","name":"Islamic place","lat":-3.553904,"lng":114.560986,"addr":"","type":"yes"},{"id":"xx-35201_1145358","name":"Islamic place","lat":-3.520129,"lng":114.53581,"addr":"","type":"yes"},{"id":"xx-32927_1145937","name":"Islamic place","lat":-3.292707,"lng":114.593714,"addr":"","type":"yes"},{"id":"xx-36116_1147011","name":"Langgar Darussalam","lat":-3.611601,"lng":114.701094,"addr":"","type":"yes"},{"id":"xx-36157_1147015","name":"Langgar Darul Aman","lat":-3.615676,"lng":114.701489,"addr":"","type":"yes"},{"id":"xx-32871_1145885","name":"Islamic place","lat":-3.287096,"lng":114.58846,"addr":"","type":"yes"},{"id":"xx-35033_1147860","name":"Islamic place","lat":-3.503348,"lng":114.786025,"addr":"","type":"yes"},{"id":"xx-33376_1145785","name":"Islamic place","lat":-3.337566,"lng":114.578498,"addr":"","type":"yes"},{"id":"xx-33378_1145752","name":"Islamic place","lat":-3.337848,"lng":114.575178,"addr":"","type":"yes"},{"id":"xx-33371_1145747","name":"Islamic place","lat":-3.337074,"lng":114.574689,"addr":"","type":"yes"},{"id":"xx-33374_1145732","name":"Islamic place","lat":-3.337394,"lng":114.573159,"addr":"","type":"mosque"},{"id":"xx-33357_1145736","name":"Islamic place","lat":-3.335738,"lng":114.573631,"addr":"","type":"yes"},{"id":"xx-33347_1145698","name":"Islamic place","lat":-3.334716,"lng":114.569765,"addr":"","type":"yes"},{"id":"xx-33362_1145719","name":"Islamic place","lat":-3.336195,"lng":114.571865,"addr":"","type":"yes"},{"id":"xx-22258_1139356","name":"Islamic place","lat":-2.225778,"lng":113.935647,"addr":"","type":"mosque"},{"id":"xx-33323_1145714","name":"Masjid Al-Hijrah","lat":-3.332298,"lng":114.571431,"addr":"","type":"yes"},{"id":"xx-22329_1139382","name":"Masjid Al-Intisyar","lat":-2.232905,"lng":113.938196,"addr":"","type":"yes"},{"id":"xx-35059_1145193","name":"Islamic place","lat":-3.505875,"lng":114.519333,"addr":"","type":"yes"},{"id":"xx-22356_1139340","name":"Masjid Darussaadah","lat":-2.235578,"lng":113.934017,"addr":"Jalan Pinus","type":"yes"},{"id":"xx-38981_1149064","name":"Langgar RT 15 Desa Damit","lat":-3.898077,"lng":114.906371,"addr":"","type":"yes"},{"id":"xx-39012_1149040","name":"Langgar RT 3 Desa Damit","lat":-3.901214,"lng":114.903993,"addr":"","type":"yes"},{"id":"xx-39039_1149117","name":"Langgar RT 5 Desa Damit","lat":-3.903948,"lng":114.91171,"addr":"","type":"yes"},{"id":"xx-39038_1149027","name":"Langgar RT 1 Desa Damit","lat":-3.90377,"lng":114.902681,"addr":"","type":"yes"},{"id":"xx-39008_1149079","name":"Masjid Al Mujahidin","lat":-3.90077,"lng":114.907915,"addr":"","type":"yes"},{"id":"xx-38941_1149025","name":"Langgar RT 16 Desa Damit","lat":-3.894092,"lng":114.902535,"addr":"","type":"yes"},{"id":"xx-38958_1149045","name":"Langgar RT 15 Desa Damit","lat":-3.895759,"lng":114.904509,"addr":"","type":"yes"},{"id":"xx-38868_1149106","name":"Langgar RT 22 Desa Damit","lat":-3.886762,"lng":114.910621,"addr":"","type":"yes"},{"id":"xx-32890_1145976","name":"Islamic place","lat":-3.289049,"lng":114.597567,"addr":"","type":"yes"},{"id":"xx-32885_1145991","name":"Islamic place","lat":-3.288502,"lng":114.599092,"addr":"","type":"yes"},{"id":"xx-32907_1145975","name":"Masjid Ar-Rahim","lat":-3.290653,"lng":114.597459,"addr":"","type":"yes"},{"id":"xx-38904_1149127","name":"Langgar RT 23 Desa Damit","lat":-3.890365,"lng":114.912671,"addr":"","type":"yes"},{"id":"xx-38854_1149069","name":"Masjid Al Abror","lat":-3.88543,"lng":114.906896,"addr":"","type":"yes"},{"id":"xx-38888_1149160","name":"Langgar RT 24 Desa Damit","lat":-3.888811,"lng":114.916004,"addr":"","type":"yes"},{"id":"xx-38578_1147441","name":"Masjid Syiar Muslimin","lat":-3.857811,"lng":114.744132,"addr":"","type":"yes"},{"id":"xx-32876_1145977","name":"Islamic place","lat":-3.287553,"lng":114.597663,"addr":"","type":"yes"},{"id":"xx-32862_1145923","name":"Islamic place","lat":-3.286191,"lng":114.592308,"addr":"","type":"yes"},{"id":"xx-39040_1148816","name":"Masjid Miftahul Jannah","lat":-3.903993,"lng":114.881605,"addr":"","type":"yes"},{"id":"xx-38979_1148830","name":"Masjid Ar Rahman","lat":-3.897896,"lng":114.882977,"addr":"","type":"yes"},{"id":"xx-38944_1148835","name":"Langgar","lat":-3.894429,"lng":114.883529,"addr":"","type":"yes"},{"id":"xx-32801_1145760","name":"Langgar Al-Amin","lat":-3.280098,"lng":114.57596,"addr":"","type":"mosque"},{"id":"xx-32569_1146074","name":"Islamic place","lat":-3.256877,"lng":114.607389,"addr":"","type":"mosque"},{"id":"xx-33330_1145772","name":"Islamic place","lat":-3.332965,"lng":114.577202,"addr":"","type":"yes"},{"id":"xx-33345_1145760","name":"Islamic place","lat":-3.334519,"lng":114.576031,"addr":"","type":"yes"},{"id":"xx-33342_1145730","name":"Islamic place","lat":-3.3342,"lng":114.573041,"addr":"","type":"yes"},{"id":"xx-32629_1146079","name":"Islamic place","lat":-3.262947,"lng":114.607863,"addr":"","type":"yes"},{"id":"xx-36743_1149236","name":"Masjid Sabilar Rasyad","lat":-3.674308,"lng":114.923631,"addr":"","type":"yes"},{"id":"xx-32696_1146069","name":"Islamic place","lat":-3.269574,"lng":114.606931,"addr":"","type":"yes"},{"id":"xx-32693_1146091","name":"Islamic place","lat":-3.26925,"lng":114.609123,"addr":"","type":"yes"},{"id":"xx-32894_1145755","name":"Islamic place","lat":-3.289356,"lng":114.575473,"addr":"","type":"yes"},{"id":"xx-32897_1145767","name":"Islamic place","lat":-3.289677,"lng":114.576734,"addr":"","type":"mosque"},{"id":"xx-32697_1146003","name":"Masjid Baiturrahim","lat":-3.269657,"lng":114.60033,"addr":"","type":"mosque"},{"id":"xx-32632_1146036","name":"Islamic place","lat":-3.263178,"lng":114.603592,"addr":"","type":"yes"},{"id":"xx-32636_1146032","name":"Islamic place","lat":-3.263588,"lng":114.603229,"addr":"","type":"yes"},{"id":"xx-20347_1101208","name":"Islamic place","lat":-2.034728,"lng":110.120794,"addr":"","type":"mosque"},{"id":"xx-20361_1101230","name":"Islamic place","lat":-2.036053,"lng":110.122988,"addr":"","type":"mosque"},{"id":"xx-32403_1146137","name":"Islamic place","lat":-3.240289,"lng":114.613718,"addr":"","type":"mosque"},{"id":"xx-32918_1146888","name":"Langgar Darussyafaah","lat":-3.291752,"lng":114.688772,"addr":"","type":"yes"},{"id":"xx-33093_1146046","name":"Islamic place","lat":-3.309255,"lng":114.604618,"addr":"","type":"yes"},{"id":"xx-33076_1145998","name":"Islamic place","lat":-3.307612,"lng":114.599755,"addr":"","type":"yes"},{"id":"xx-37991_1147944","name":"Mushala Komplek Sinar Atu Atu","lat":-3.799051,"lng":114.794416,"addr":"","type":"yes"},{"id":"xx-22218_1139448","name":"Mushola Raudhatul Jannah","lat":-2.221807,"lng":113.944849,"addr":"","type":"yes"},{"id":"xx-22079_1139287","name":"Islamic place","lat":-2.207943,"lng":113.928683,"addr":"","type":"yes"},{"id":"xx-33109_1145999","name":"Islamic place","lat":-3.310865,"lng":114.59992,"addr":"","type":"yes"},{"id":"xx-38110_1147788","name":"MASJID AT-TAQWA","lat":-3.811,"lng":114.778781,"addr":"","type":"yes"},{"id":"xx-38244_1147164","name":"Langgar Nurul Yaqin","lat":-3.824415,"lng":114.716353,"addr":"","type":"yes"},{"id":"xx-38319_1147230","name":"Masjid Darusalihin","lat":-3.83193,"lng":114.723005,"addr":"","type":"yes"},{"id":"xx-22013_1139411","name":"Islamic place","lat":-2.201338,"lng":113.94115,"addr":"","type":"yes"},{"id":"xx-22013_1139357","name":"Musola","lat":-2.201319,"lng":113.935665,"addr":"","type":"stilt_house"},{"id":"xx-21970_1139433","name":"Islamic place","lat":-2.196954,"lng":113.94325,"addr":"","type":"yes"},{"id":"xx-22019_1139320","name":"Islamic place","lat":-2.201859,"lng":113.932026,"addr":"","type":"yes"},{"id":"xx-30251_1146884","name":"Islamic place","lat":-3.025148,"lng":114.688421,"addr":"","type":"yes"},{"id":"xx-35679_1146005","name":"Islamic place","lat":-3.567903,"lng":114.600512,"addr":"","type":"yes"},{"id":"xx-35842_1145857","name":"Islamic place","lat":-3.584192,"lng":114.585693,"addr":"","type":"yes"},{"id":"xx-35828_1145845","name":"Mushalla","lat":-3.582762,"lng":114.584491,"addr":"","type":"yes"},{"id":"xx-35806_1145831","name":"Mushalla","lat":-3.58063,"lng":114.583084,"addr":"","type":"yes"},{"id":"xx-35786_1145813","name":"Mushalla","lat":-3.578597,"lng":114.58132,"addr":"","type":"yes"},{"id":"xx-35771_1145802","name":"Mushalla","lat":-3.577138,"lng":114.58024,"addr":"","type":"yes"},{"id":"xx-35236_1147182","name":"Islamic place","lat":-3.523587,"lng":114.71818,"addr":"","type":"yes"},{"id":"xx-33257_1146062","name":"Islamic place","lat":-3.325672,"lng":114.606187,"addr":"","type":"yes"},{"id":"xx-35257_1145983","name":"Islamic place","lat":-3.525656,"lng":114.59827,"addr":"","type":"yes"},{"id":"xx-35155_1145704","name":"Islamic place","lat":-3.515475,"lng":114.570441,"addr":"","type":"yes"},{"id":"xx-35154_1145948","name":"Islamic place","lat":-3.515362,"lng":114.594763,"addr":"","type":"yes"},{"id":"xx-35340_1145803","name":"Islamic place","lat":-3.534043,"lng":114.580259,"addr":"","type":"yes"},{"id":"xx-35443_1145943","name":"Islamic place","lat":-3.544313,"lng":114.594347,"addr":"","type":"yes"},{"id":"xx-35461_1145995","name":"Islamic place","lat":-3.546061,"lng":114.599477,"addr":"","type":"yes"},{"id":"xx-37643_1147748","name":"LANGGAR AL-IKHLAS","lat":-3.764319,"lng":114.774837,"addr":"","type":"yes"},{"id":"xx-22070_1139320","name":"Islamic place","lat":-2.207031,"lng":113.932049,"addr":"","type":"stilt_house"},{"id":"xx-35995_1147003","name":"Langgar Nurul Islam","lat":-3.599526,"lng":114.700345,"addr":"","type":"yes"},{"id":"xx-29835_1147734","name":"Makam Tabib Gaboen","lat":-2.983537,"lng":114.773403,"addr":"","type":"mosque"},{"id":"xx-22036_1139336","name":"Islamic place","lat":-2.203628,"lng":113.93361,"addr":"","type":"stilt_house"},{"id":"xx-22033_1139358","name":"Islamic place","lat":-2.203284,"lng":113.935798,"addr":"","type":"yes"},{"id":"xx-20409_1101241","name":"Islamic place","lat":-2.040872,"lng":110.12412,"addr":"","type":"mosque"},{"id":"xx-37698_1147876","name":"LANGGAR NURUL IMAN","lat":-3.769771,"lng":114.787559,"addr":"","type":"yes"},{"id":"xx-32982_1146038","name":"Islamic place","lat":-3.298181,"lng":114.603768,"addr":"","type":"yes"},{"id":"xx-33075_1146021","name":"Musholla Al Ikhlas","lat":-3.307459,"lng":114.602113,"addr":"Komplek Perkasa Indah","type":"yes"},{"id":"xx-33076_1146012","name":"Islamic place","lat":-3.307555,"lng":114.601237,"addr":"","type":"yes"},{"id":"xx-33068_1146007","name":"Islamic place","lat":-3.306803,"lng":114.6007,"addr":"","type":"yes"},{"id":"xx-33030_1146003","name":"Islamic place","lat":-3.303025,"lng":114.60029,"addr":"","type":"yes"},{"id":"xx-33011_1146038","name":"Islamic place","lat":-3.301068,"lng":114.603786,"addr":"","type":"yes"},{"id":"xx-32997_1146012","name":"Islamic place","lat":-3.299747,"lng":114.601227,"addr":"","type":"yes"},{"id":"xx-33148_1146020","name":"Langgar At Takwa","lat":-3.314769,"lng":114.602001,"addr":"","type":"yes"},{"id":"xx-33140_1146008","name":"Islamic place","lat":-3.314017,"lng":114.600756,"addr":"","type":"yes"},{"id":"xx-33135_1146001","name":"Islamic place","lat":-3.313455,"lng":114.600095,"addr":"","type":"yes"},{"id":"xx-33123_1146010","name":"Islamic place","lat":-3.312289,"lng":114.601032,"addr":"","type":"yes"},{"id":"xx-36113_1146997","name":"Masjid Jami Ihyauddin","lat":-3.611255,"lng":114.699748,"addr":"","type":"yes"},{"id":"xx-36099_1147027","name":"Langgar Siratul Muhtaqin","lat":-3.609919,"lng":114.702668,"addr":"","type":"yes"},{"id":"xx-36081_1146984","name":"Mushola Taufiqurahman","lat":-3.608085,"lng":114.698446,"addr":"","type":"yes"},{"id":"xx-22099_1139358","name":"Masjid Raya Nurul Islam","lat":-2.209915,"lng":113.935783,"addr":"","type":"yes"},{"id":"xx-37542_1147677","name":"Musholla","lat":-3.754175,"lng":114.76772,"addr":"","type":"yes"},{"id":"xx-33000_1145772","name":"Langgar Jannatul Khair","lat":-3.300045,"lng":114.577204,"addr":"","type":"yes"},{"id":"xx-32999_1145786","name":"Langgar An Nur","lat":-3.299932,"lng":114.578613,"addr":"","type":"yes"},{"id":"xx-32971_1145770","name":"Ukhuwah Islamiah","lat":-3.297091,"lng":114.577017,"addr":"","type":"mosque"},{"id":"xx-33005_1145918","name":"Masjid Muhammadiyah Sungai Miai Banjarmasin","lat":-3.300455,"lng":114.591844,"addr":"","type":"yes"},{"id":"xx-33035_1146048","name":"Islamic place","lat":-3.303493,"lng":114.604789,"addr":"","type":"yes"},{"id":"xx-33017_1146054","name":"Islamic place","lat":-3.301663,"lng":114.605397,"addr":"","type":"yes"},