[{"id":"xx07942_1020467","name":"Masjid Raya Syahbuddin","lat":0.79422,"lng":102.046732,"addr":"","type":"mosque"},{"id":"xx11694_1040120","name":"Mesjid Al Muhlisin","lat":1.16938,"lng":104.011991,"addr":"","type":"mosque"},{"id":"xx10480_1039810","name":"Masjid Agung Hidayatullah","lat":1.047974,"lng":103.980983,"addr":"","type":"mosque"},{"id":"xx11049_1039507","name":"Masjid Al-Forqan","lat":1.104941,"lng":103.950744,"addr":"","type":"place_of_worship"},{"id":"xx10397_1039862","name":"Masjid Al Izzah","lat":1.03971,"lng":103.9862,"addr":"","type":"mosque"},{"id":"xx10437_1039816","name":"Masjid Al Mujahidin","lat":1.0437,"lng":103.98163,"addr":"","type":"mosque"},{"id":"xx10453_1039809","name":"Masjid Al Muttaqin","lat":1.04527,"lng":103.98092,"addr":"","type":"mosque"},{"id":"xx10374_1039724","name":"Masjid At Taqwa Graha Nusa","lat":1.03741,"lng":103.9724,"addr":"","type":"mosque"},{"id":"xx10468_1039733","name":"Masjid Baitul Falah","lat":1.04675,"lng":103.97328,"addr":"","type":"mosque"},{"id":"xx10466_1039703","name":"Masjid Al Ishlah","lat":1.04662,"lng":103.97034,"addr":"","type":"mosque"},{"id":"xx10330_1039751","name":"Masjid Hidayatul Akbar Griya Batugi Asri","lat":1.03302,"lng":103.97509,"addr":"","type":"mosque"},{"id":"xx10341_1039759","name":"Masjid Al Ikhlas","lat":1.03413,"lng":103.97588,"addr":"","type":"mosque"},{"id":"xx10500_1039809","name":"Masjid Al Huda","lat":1.05003,"lng":103.98085,"addr":"","type":"mosque"},{"id":"xx10509_1039780","name":"Masjid Baitul Rohimi","lat":1.05087,"lng":103.97802,"addr":"","type":"mosque"},{"id":"xx10535_1039778","name":"Masjid Baitul A'La","lat":1.053497,"lng":103.977833,"addr":"Jl.Soeprapto","type":"mosque"},{"id":"xx10558_1039772","name":"Masjid Baitul Rohiman","lat":1.0558,"lng":103.97725,"addr":"Jl.Soeprapto","type":"mosque"},{"id":"xx10596_1039751","name":"Masjid Syed Sahul Hameed","lat":1.059592,"lng":103.975055,"addr":"","type":"mosque"},{"id":"xx10533_1039766","name":"Masjid Al Muhajirin","lat":1.053252,"lng":103.976615,"addr":"Jl.Soeprapto","type":"mosque"},{"id":"xx10530_1039739","name":"Masjid Al Muttaqim","lat":1.05301,"lng":103.97388,"addr":"","type":"mosque"},{"id":"xx10513_1039735","name":"Masjid Baitul Jannah","lat":1.0513,"lng":103.9735,"addr":"","type":"mosque"},{"id":"xx10509_1039752","name":"Masjid Nurul Iman","lat":1.05093,"lng":103.97517,"addr":"","type":"mosque"},{"id":"xx10543_1039713","name":"Masjid Al Kautsar","lat":1.05426,"lng":103.97133,"addr":"","type":"mosque"},{"id":"xx10501_1039717","name":"Masjid Baitul Maghfiroh","lat":1.05014,"lng":103.97174,"addr":"","type":"mosque"},{"id":"xx10490_1039682","name":"Masjid Univ Rikep","lat":1.049,"lng":103.96817,"addr":"","type":"mosque"},{"id":"xx10488_1039649","name":"Masjid Al Barokah","lat":1.04881,"lng":103.96489,"addr":"","type":"mosque"},{"id":"xx10490_1039625","name":"Masjid At-Taubah","lat":1.049,"lng":103.96255,"addr":"","type":"mosque"},{"id":"xx10487_1039601","name":"Masjid Al Mujahidin Bamkuning Rw3","lat":1.04866,"lng":103.96009,"addr":"","type":"mosque"},{"id":"xx10472_1039660","name":"Masjid Darul Ikhsan","lat":1.0472,"lng":103.96605,"addr":"","type":"mosque"},{"id":"xx10465_1039630","name":"Mushallah Al Amin","lat":1.04651,"lng":103.96298,"addr":"","type":"mosque"},{"id":"xx10416_1039604","name":"Mushallah","lat":1.04164,"lng":103.96038,"addr":"","type":"mosque"},{"id":"xx10446_1039607","name":"Mushallah","lat":1.04462,"lng":103.96067,"addr":"","type":"mosque"},{"id":"xx10431_1039584","name":"Masjid Al Istiqomah","lat":1.04314,"lng":103.95845,"addr":"","type":"mosque"},{"id":"xx10404_1039540","name":"Masjid Nurul Haq","lat":1.04044,"lng":103.95395,"addr":"","type":"mosque"},{"id":"xx10557_1039826","name":"Masjid Nurul Huda Bumi Agung Permai","lat":1.05567,"lng":103.98264,"addr":"batam","type":"mosque"},{"id":"xx10548_1039868","name":"Masjid Roudathatul Jannah Tamn Lestari Blkb","lat":1.05484,"lng":103.98676,"addr":"","type":"mosque"},{"id":"xx10549_1039840","name":"Masjid Sunaturrasul Tmn Lestari Blk.A","lat":1.0549,"lng":103.98401,"addr":"","type":"mosque"},{"id":"xx10521_1039827","name":"Masjid At Taqwa","lat":1.05213,"lng":103.98266,"addr":"","type":"mosque"},{"id":"xx10446_1039858","name":"Masjid Al Mursidin","lat":1.04456,"lng":103.98581,"addr":"","type":"mosque"},{"id":"xx10424_1039872","name":"Masjid Al Jihad","lat":1.04239,"lng":103.98723,"addr":"","type":"mosque"},{"id":"xx10441_1039941","name":"Masjid Hj Fatimah","lat":1.04415,"lng":103.99405,"addr":"","type":"mosque"},{"id":"xx10420_1039914","name":"Mushallah Al Ahyahu Sunnah","lat":1.04205,"lng":103.99143,"addr":"","type":"mosque"},{"id":"xx10453_1039900","name":"Masjid At Taqwa","lat":1.04533,"lng":103.99,"addr":"","type":"mosque"},{"id":"xx10388_1039953","name":"Masjid Al Amin","lat":1.03883,"lng":103.99526,"addr":"","type":"mosque"},{"id":"xx10365_1040006","name":"Masjid Al Mukmin","lat":1.03653,"lng":104.00057,"addr":"","type":"mosque"},{"id":"xx10371_1040037","name":"Mushallah Al Abrar","lat":1.03714,"lng":104.00371,"addr":"","type":"mosque"},{"id":"xx10355_1040045","name":"Masjid Bumi Sakinah","lat":1.03546,"lng":104.00453,"addr":"","type":"mosque"},{"id":"xx10408_1039868","name":"Masjid Sabilunnajah","lat":1.04076,"lng":103.98684,"addr":"","type":"mosque"},{"id":"xx10453_1040045","name":"Masjid Irsadul Ikhlas","lat":1.04525,"lng":104.0045,"addr":"","type":"mosque"},{"id":"xx10668_1039615","name":"Mushallah Baitul Solihin","lat":1.06683,"lng":103.96154,"addr":"","type":"mosque"},{"id":"xx10584_1039456","name":"Masjid Baitul Jannah","lat":1.058379,"lng":103.945583,"addr":"","type":"mosque"},{"id":"xx10587_1039482","name":"Masjid Jabal Nur","lat":1.05872,"lng":103.94818,"addr":"","type":"mosque"},{"id":"xx10558_1039503","name":"Masjid Al Hijrah","lat":1.05585,"lng":103.95034,"addr":"","type":"mosque"},{"id":"xx10473_1039836","name":"Masjid Ibadur Rocchman","lat":1.047292,"lng":103.983601,"addr":"","type":"mosque"},{"id":"xx10429_1039390","name":"Masjid Al Hidayah + Tpa","lat":1.04293,"lng":103.93901,"addr":"","type":"mosque"},{"id":"xx10440_1039389","name":"Islamic place","lat":1.04402,"lng":103.93886,"addr":"","type":"mosque"},{"id":"xx10580_1039390","name":"Masjid Baitul Iman","lat":1.05797,"lng":103.93899,"addr":"","type":"mosque"},{"id":"xx10372_1039394","name":"Masjid Al- Ikhlas","lat":1.03722,"lng":103.93944,"addr":"","type":"place_of_worship"},{"id":"xx10428_1039498","name":"Masjid Nurul Ikhsan","lat":1.04276,"lng":103.94981,"addr":"","type":"mosque"},{"id":"xx10395_1039489","name":"Masjid Darusalam","lat":1.039497,"lng":103.948869,"addr":"","type":"mosque"},{"id":"xx10431_1039468","name":"Masjid Babusalam","lat":1.04314,"lng":103.9468,"addr":"","type":"mosque"},{"id":"xx10438_1039456","name":"Masjid Al Kautsar","lat":1.04377,"lng":103.94564,"addr":"","type":"mosque"},{"id":"xx10463_1039525","name":"Masjid Nurul Huda","lat":1.04634,"lng":103.95253,"addr":"","type":"mosque"},{"id":"xx10450_1039430","name":"Masjid Al Quba, Pjb","lat":1.04503,"lng":103.94298,"addr":"","type":"mosque"},{"id":"xx10461_1039463","name":"Masjid Baiturrahman Mantang","lat":1.04613,"lng":103.94629,"addr":"","type":"mosque"},{"id":"xx10345_1039573","name":"Masjid Al Ikhwan","lat":1.034492,"lng":103.957311,"addr":"","type":"place_of_worship"},{"id":"xx10352_1039551","name":"Masjid Syuhada Nurul","lat":1.035194,"lng":103.955082,"addr":"","type":"place_of_worship"},{"id":"xx10444_1039520","name":"Masjid Babusalam","lat":1.04437,"lng":103.95201,"addr":"","type":"place_of_worship"},{"id":"xx10622_1039195","name":"Islamic place","lat":1.06222,"lng":103.91951,"addr":"","type":"mosque"},{"id":"xx10665_1039167","name":"Masjid Al-Khairat","lat":1.066515,"lng":103.916745,"addr":"","type":"mosque"},{"id":"xx10558_1039123","name":"Masjid Al Mukmin","lat":1.05585,"lng":103.91234,"addr":"","type":"mosque"},{"id":"xx10539_1039171","name":"Mushallah ?","lat":1.053878,"lng":103.917071,"addr":"","type":"mosque"},{"id":"xx10598_1039207","name":"Masjid Al Ma'Rij","lat":1.05984,"lng":103.92073,"addr":"","type":"mosque"},{"id":"xx10598_1039324","name":"Masjid Al Istiqomah","lat":1.05982,"lng":103.93238,"addr":"","type":"mosque"},{"id":"xx10639_1039257","name":"Masjid Baiturrahman","lat":1.06391,"lng":103.92565,"addr":"","type":"mosque"},{"id":"xx10087_1039681","name":"Masjid An Nikmah","lat":1.00873,"lng":103.96809,"addr":"","type":"place_of_worship"},{"id":"xx10809_1039393","name":"G Gkari","lat":1.08087,"lng":103.9393,"addr":"","type":"mosque"},{"id":"xx10989_1039299","name":"Masjid Nurul Huda","lat":1.09893,"lng":103.92985,"addr":"","type":"mosque"},{"id":"xx11002_1039335","name":"Masjid Nurul Haq","lat":1.10022,"lng":103.93346,"addr":"","type":"place_of_worship"},{"id":"xx10995_1039338","name":"Masjid Baiturahmah","lat":1.099495,"lng":103.933846,"addr":"","type":"mosque"},{"id":"xx10956_1039346","name":"Mushallah Tg.Riau","lat":1.09559,"lng":103.93463,"addr":"","type":"mosque"},{"id":"xx10982_1039339","name":"Mushallah Al Amin","lat":1.098183,"lng":103.933909,"addr":"","type":"mosque"},{"id":"xx10990_1039354","name":"Mushallahushallah Al Mukmin","lat":1.099031,"lng":103.935376,"addr":"","type":"mosque"},{"id":"xx11009_1039357","name":"Masjid An Nur","lat":1.100887,"lng":103.935739,"addr":"","type":"mosque"},{"id":"xx10963_1039333","name":"Mushallah Al Ikhlas","lat":1.096277,"lng":103.93333,"addr":"","type":"mosque"},{"id":"xx11111_1039424","name":"Masjid Al Isra","lat":1.111081,"lng":103.942389,"addr":"","type":"mosque"},{"id":"xx11108_1039393","name":"Masjid Al Mukmin","lat":1.11082,"lng":103.9393,"addr":"","type":"mosque"},{"id":"xx11082_1039347","name":"Masjid Al Wustha","lat":1.108242,"lng":103.934673,"addr":"","type":"mosque"},{"id":"xx11068_1039438","name":"Mushallah Al Barokah","lat":1.10685,"lng":103.94376,"addr":"","type":"mosque"},{"id":"xx11175_1039438","name":"Masjid Rabul Jannah","lat":1.11747,"lng":103.94376,"addr":"","type":"mosque"},{"id":"xx11123_1039956","name":"Masjid Al Baroqah SLCC","lat":1.11228,"lng":103.99558,"addr":"","type":"mosque"},{"id":"xx11195_1040176","name":"Masjid Mishbah","lat":1.11947,"lng":104.01761,"addr":"","type":"mosque"},{"id":"xx10973_1040361","name":"Mushallah Spbu Duriangkang","lat":1.09732,"lng":104.03609,"addr":"","type":"mosque"},{"id":"xx11296_1039337","name":"Mushalla Asyifa","lat":1.12962,"lng":103.93365,"addr":"","type":"place_of_worship"},{"id":"xx11245_1039335","name":"Mushallah Guest House Ob","lat":1.12447,"lng":103.93346,"addr":"","type":"mosque"},{"id":"xx11312_1039253","name":"Masjid Nurul Iman","lat":1.13121,"lng":103.92528,"addr":"","type":"mosque"},{"id":"xx11273_1039271","name":"Mushallah Al-Ihsan","lat":1.12732,"lng":103.92708,"addr":"","type":"mosque"},{"id":"xx09108_1041213","name":"Mushallah","lat":0.91079,"lng":104.12129,"addr":"","type":"musalla"},{"id":"xx08414_1042118","name":"Masjid Al Ikhlas","lat":0.84142,"lng":104.21183,"addr":"","type":"mosque"},{"id":"xx08048_1042150","name":"Masjid Al Ihsan Tg.Banun","lat":0.80477,"lng":104.215,"addr":"","type":"mosque"},{"id":"xx11329_1040185","name":"Masjid Darul Hikmah","lat":1.13288,"lng":104.01847,"addr":"","type":"place_of_worship"},{"id":"xx11793_1040144","name":"Islamic place","lat":1.17929,"lng":104.01444,"addr":"","type":"mosque"},{"id":"xx11870_1040124","name":"Masjid Batu Merah-2","lat":1.18702,"lng":104.01242,"addr":"","type":"mosque"},{"id":"xx11737_1040179","name":"Islamic place","lat":1.173713,"lng":104.017868,"addr":"","type":"mosque"},{"id":"xx11732_1040192","name":"Islamic place","lat":1.17322,"lng":104.01916,"addr":"","type":"mosque"},{"id":"xx11709_1040190","name":"Masjid Nurul Huda","lat":1.17088,"lng":104.01898,"addr":"","type":"place_of_worship"},{"id":"xx11621_1040026","name":"Mushallah An Nur (Polsekta Batu Ampar)","lat":1.16213,"lng":104.00257,"addr":"","type":"musalla"},{"id":"xx11583_1040018","name":"Masjid Mardhotillah","lat":1.15833,"lng":104.00178,"addr":"","type":"mosque"},{"id":"xx11560_1040017","name":"Masjid Rusun Lancang Kuning","lat":1.15597,"lng":104.00167,"addr":"","type":"mosque"},{"id":"xx11551_1040006","name":"Mushallah Hotel Urbay","lat":1.15507,"lng":104.00064,"addr":"","type":"mosque"},{"id":"xx11492_1039989","name":"Mushallah At Taubah","lat":1.14923,"lng":103.99894,"addr":"","type":"mosque"},{"id":"xx10295_1040941","name":"Masjid Attaubah Bagan","lat":1.02952,"lng":104.09411,"addr":"","type":"mosque"},{"id":"xx10317_1040932","name":"Masjid Darul Aman Bgn","lat":1.03175,"lng":104.09319,"addr":"","type":"mosque"},{"id":"xx11069_1039498","name":"Masjid Nurul Hidayah","lat":1.10692,"lng":103.94976,"addr":"","type":"mosque"},{"id":"xx11065_1039479","name":"Mushallah Baiturrahim","lat":1.10649,"lng":103.94792,"addr":"","type":"mosque"},{"id":"xx11062_1039467","name":"Mushallah Al Mutaqin","lat":1.10621,"lng":103.94665,"addr":"","type":"mosque"},{"id":"xx11013_1039498","name":"Mushallah An Nabawi","lat":1.10125,"lng":103.94981,"addr":"","type":"musalla"},{"id":"xx10984_1039645","name":"Masjid Az Zikra","lat":1.09841,"lng":103.964533,"addr":"","type":"mosque"},{"id":"xx10993_1039627","name":"Masjid Al-Fitrah","lat":1.099335,"lng":103.962716,"addr":"","type":"mosque"},{"id":"xx11049_1039663","name":"Masjid An-Nahdhah","lat":1.10492,"lng":103.96631,"addr":"","type":"mosque"},{"id":"xx11049_1039641","name":"Masjid Drun Nizam","lat":1.104911,"lng":103.964121,"addr":"","type":"mosque"},{"id":"xx10971_1039627","name":"Masjid Al Mubarokh","lat":1.09711,"lng":103.9627,"addr":"","type":"mosque"},{"id":"xx11018_1039628","name":"Masjid An-Nur","lat":1.10177,"lng":103.96283,"addr":"","type":"mosque"},{"id":"xx11032_1039607","name":"Masjid Al-Taubat","lat":1.10322,"lng":103.96073,"addr":"","type":"mosque"},{"id":"xx11078_1039616","name":"Masjid Jabal Rahmah","lat":1.10775,"lng":103.96161,"addr":"","type":"mosque"},{"id":"xx11056_1039634","name":"Masjid Jabal Nur","lat":1.10563,"lng":103.96343,"addr":"","type":"mosque"},{"id":"xx11086_1039607","name":"Masjid Al Aqsha","lat":1.10863,"lng":103.960668,"addr":"","type":"mosque"},{"id":"xx11077_1039593","name":"Masjid An Nur","lat":1.10771,"lng":103.95927,"addr":"","type":"mosque"},{"id":"xx11062_1039663","name":"Masjid Baitul Muttaqin","lat":1.10621,"lng":103.96633,"addr":"","type":"mosque"},{"id":"xx11092_1039558","name":"Masjid Baiturrahman","lat":1.109194,"lng":103.955817,"addr":"","type":"mosque"},{"id":"xx11078_1039540","name":"Mushallah Depag","lat":1.10775,"lng":103.95395,"addr":"","type":"mosque"},{"id":"xx11100_1039524","name":"Mushallah Al -Ikhlas","lat":1.11005,"lng":103.95236,"addr":"","type":"mosque"},{"id":"xx11091_1039535","name":"Mushallah Al-Jannah","lat":1.1091,"lng":103.95352,"addr":"","type":"mosque"},{"id":"xx11113_1039516","name":"Mushallah An -Nur","lat":1.11131,"lng":103.95156,"addr":"","type":"mosque"},{"id":"xx11126_1039519","name":"Masjid At Taqwa","lat":1.11256,"lng":103.95195,"addr":"","type":"mosque"},{"id":"xx11078_1039731","name":"Masjid Al Kautsar Taman Sari","lat":1.10775,"lng":103.97307,"addr":"","type":"place_of_worship"},{"id":"xx11096_1039759","name":"Masjid Nur Islam","lat":1.109637,"lng":103.975897,"addr":"","type":"place_of_worship"},{"id":"xx11104_1039776","name":"Masjid At Taqwa","lat":1.11043,"lng":103.97757,"addr":"","type":"mosque"},{"id":"xx11096_1039888","name":"Mushallah Al-Ikhlas","lat":1.10964,"lng":103.9888,"addr":"","type":"mosque"},{"id":"xx11094_1039896","name":"Mushallah Ar-Rahman","lat":1.10938,"lng":103.98963,"addr":"","type":"mosque"},{"id":"xx11042_1039847","name":"Mushallah Nurul Falah","lat":1.10419,"lng":103.98474,"addr":"","type":"mosque"},{"id":"xx11119_1039854","name":"Masjit Al Kautsar","lat":1.11194,"lng":103.98536,"addr":"","type":"mosque"},{"id":"xx11144_1039832","name":"Masjid Baitusslam","lat":1.1144,"lng":103.9832,"addr":"","type":"mosque"},{"id":"xx11180_1039779","name":"Masjid Al Muhajirin Tiban Btn","lat":1.11805,"lng":103.97792,"addr":"","type":"place_of_worship"},{"id":"xx11170_1039847","name":"Masjid Al Ridho","lat":1.11704,"lng":103.98472,"addr":"","type":"mosque"},{"id":"xx11181_1039823","name":"Mushallah An Nafiah","lat":1.11814,"lng":103.98227,"addr":"","type":"mosque"},{"id":"xx11167_1039796","name":"Mushallah At Taqwa","lat":1.1167,"lng":103.97961,"addr":"","type":"mosque"},{"id":"xx11147_1039777","name":"Al Huda","lat":1.11468,"lng":103.97772,"addr":"","type":"mosque"},{"id":"xx11172_1039857","name":"Mushallah Al Hidayah","lat":1.11719,"lng":103.98568,"addr":"","type":"mosque"},{"id":"xx11179_1039884","name":"Mushallah Baiturahman","lat":1.11792,"lng":103.98839,"addr":"","type":"mosque"},{"id":"xx11132_1039727","name":"Mushallah Nabilah","lat":1.11318,"lng":103.97268,"addr":"","type":"place_of_worship"},{"id":"xx11174_1039767","name":"Mushallah Sabilillah","lat":1.117428,"lng":103.97669,"addr":"","type":"mosque"},{"id":"xx11143_1039653","name":"Mushallah Al Falah","lat":1.11428,"lng":103.96532,"addr":"","type":"mosque"},{"id":"xx11194_1039671","name":"Masjid Shalhuddin","lat":1.11943,"lng":103.96714,"addr":"","type":"mosque"},{"id":"xx11205_1039582","name":"Masjid Btl Jannah","lat":1.12054,"lng":103.95818,"addr":"","type":"mosque"},{"id":"xx11145_1039452","name":"Masjid Al Ikhlas Sangrila","lat":1.11447,"lng":103.94524,"addr":"","type":"mosque"},{"id":"xx11279_1039603","name":"Mus Al Azis","lat":1.12792,"lng":103.96025,"addr":"","type":"mosque"},{"id":"xx11272_1039654","name":"Masjid Al Hidayah","lat":1.12719,"lng":103.9654,"addr":"","type":"mosque"},{"id":"xx11237_1039675","name":"Masjid Al Munawarah","lat":1.12365,"lng":103.96746,"addr":"","type":"mosque"},{"id":"xx11274_1040123","name":"Masjid Baitul Iman","lat":1.127392,"lng":104.012277,"addr":"","type":"mosque"},{"id":"xx11350_1039944","name":"Masjid Al Bahri","lat":1.13498,"lng":103.99444,"addr":"","type":"place_of_worship"},{"id":"xx11359_1040006","name":"Masjid Al Hidayah","lat":1.1359,"lng":104.00055,"addr":"","type":"mosque"},{"id":"xx11348_1040008","name":"Masjid Al Muttaqin","lat":1.13481,"lng":104.00079,"addr":"","type":"mosque"},{"id":"xx11332_1040013","name":"Masjid Nurul Ikhwan","lat":1.13322,"lng":104.00126,"addr":"","type":"mosque"},{"id":"xx11338_1040010","name":"Mushallah Al Ikhlas","lat":1.13378,"lng":104.001,"addr":"","type":"musalla"},{"id":"xx11426_1039949","name":"Masjid Al Muttaqin Tg.Uma","lat":1.14256,"lng":103.99489,"addr":"","type":"mosque"},{"id":"xx11466_1039979","name":"Mushalla Ar Rahman Tg.Uma","lat":1.14661,"lng":103.99794,"addr":"","type":"musalla"},{"id":"xx11479_1039983","name":"Masjid Nurul Hikmah","lat":1.14786,"lng":103.99832,"addr":"","type":"mosque"},{"id":"xx11482_1039952","name":"Masjid Al Mukminin Tg.Uma","lat":1.14818,"lng":103.99517,"addr":"","type":"mosque"},{"id":"xx11413_1039938","name":"Masjid Al Istiqomah","lat":1.14131,"lng":103.99384,"addr":"","type":"mosque"},{"id":"xx11469_1040004","name":"Mushallah Al Ikhlas","lat":1.1469,"lng":104.000376,"addr":"","type":"mosque"},{"id":"xx11316_1040145","name":"Masjid Albarkah","lat":1.13159,"lng":104.01448,"addr":"","type":"mosque"},{"id":"xx11312_1040140","name":"Masjid Al Barkah","lat":1.131178,"lng":104.01402,"addr":"","type":"mosque"},{"id":"xx11304_1040140","name":"Masjid Radahtul Hikmah","lat":1.13037,"lng":104.01399,"addr":"","type":"mosque"},{"id":"xx11300_1040107","name":"Masjid Al Ikhmah","lat":1.13004,"lng":104.010704,"addr":"","type":"mosque"},{"id":"xx11282_1040057","name":"Masjid Miftahul Jannah","lat":1.128156,"lng":104.005657,"addr":"","type":"mosque"},{"id":"xx11307_1040036","name":"Musallah","lat":1.13073,"lng":104.00362,"addr":"","type":"musalla"},{"id":"xx11305_1040036","name":"Majlis Dzikir","lat":1.13052,"lng":104.00356,"addr":"","type":"place_of_worship"},{"id":"xx11342_1040139","name":"Masjid Nurul Iman Blok 2","lat":1.13417,"lng":104.0139,"addr":"","type":"mosque"},{"id":"xx11361_1040040","name":"Masjid Al Anshor","lat":1.13608,"lng":104.00395,"addr":"","type":"mosque"},{"id":"xx11376_1040118","name":"Masjid An' Nur","lat":1.137578,"lng":104.011813,"addr":"","type":"mosque"},{"id":"xx11382_1040098","name":"Masjid Darul Hijrah","lat":1.138224,"lng":104.00975,"addr":"","type":"mosque"},{"id":"xx11393_1040117","name":"Masjid Nurul Fajar","lat":1.13925,"lng":104.01171,"addr":"","type":"mosque"},{"id":"xx11378_1040144","name":"Masjid Nurul-Huda","lat":1.13781,"lng":104.01439,"addr":"","type":"mosque"},{"id":"xx11442_1040024","name":"Masjid Namirah","lat":1.14425,"lng":104.00236,"addr":"","type":"mosque"},{"id":"xx11445_1040012","name":"Masjid Raudhatul Jannah","lat":1.14455,"lng":104.00124,"addr":"","type":"mosque"},{"id":"xx11418_1040146","name":"Masjid Al Istiqomah","lat":1.14176,"lng":104.01461,"addr":"","type":"mosque"},{"id":"xx11445_1040160","name":"Masjid Al-Hikmah","lat":1.14453,"lng":104.01602,"addr":"","type":"mosque"},{"id":"xx11454_1040114","name":"Masjid Arafah","lat":1.14543,"lng":104.01145,"addr":"","type":"mosque"},{"id":"xx11384_1040204","name":"Masjid Al Fajar","lat":1.13844,"lng":104.02045,"addr":"","type":"mosque"},{"id":"xx11482_1040186","name":"Masjid As-Syifa","lat":1.14822,"lng":104.01858,"addr":"","type":"mosque"},{"id":"xx11646_1040157","name":"Masjid Rusun Bida Ampar","lat":1.16464,"lng":104.01573,"addr":"","type":"mosque"},{"id":"xx11864_1040099","name":"Masjid Batu Merah","lat":1.18637,"lng":104.00989,"addr":"","type":"mosque"},{"id":"xx11842_1040237","name":"Masjid Sengkuang","lat":1.18421,"lng":104.02366,"addr":"","type":"mosque"},{"id":"xx11834_1040167","name":"Masjid Al-Muhajirin","lat":1.183448,"lng":104.016734,"addr":"","type":"mosque"},{"id":"xx11795_1040182","name":"Islamic place","lat":1.17951,"lng":104.01819,"addr":"","type":"mosque"},{"id":"xx11792_1040198","name":"Islamic place","lat":1.17921,"lng":104.01982,"addr":"","type":"mosque"},{"id":"xx11111_1040765","name":"Masjid Al Hidayah, Pln","lat":1.11108,"lng":104.07649,"addr":"","type":"place_of_worship"},{"id":"xx11084_1040780","name":"Masjid An Nur","lat":1.10842,"lng":104.07804,"addr":"","type":"mosque"},{"id":"xx11041_1040832","name":"Majid An Nur","lat":1.10415,"lng":104.08321,"addr":"","type":"mosque"},{"id":"xx11054_1040780","name":"Masjid Darussalam","lat":1.105419,"lng":104.078008,"addr":"","type":"mosque"},{"id":"xx11136_1040893","name":"Masjid Thoriqul Jannah","lat":1.11355,"lng":104.08926,"addr":"","type":"mosque"},{"id":"xx11036_1040939","name":"Islamic place","lat":1.103573,"lng":104.093891,"addr":"","type":"mosque"},{"id":"xx11082_1040937","name":"Masjid Bidayatul Hida","lat":1.10818,"lng":104.0937,"addr":"","type":"mosque"},{"id":"xx11137_1040935","name":"Masjid Al Muhajirin","lat":1.11374,"lng":104.09355,"addr":"","type":"mosque"},{"id":"xx11166_1040902","name":"Masjid Babussalam","lat":1.11661,"lng":104.09023,"addr":"","type":"mosque"},{"id":"xx11054_1040870","name":"Islamic place","lat":1.10535,"lng":104.08701,"addr":"","type":"mosque"},{"id":"xx11059_1040904","name":"Islamic place","lat":1.10595,"lng":104.0904,"addr":"","type":"mosque"},{"id":"xx11026_1040866","name":"Masjid Jami'Atul Huda","lat":1.10265,"lng":104.08656,"addr":"","type":"mosque"},{"id":"xx11024_1040883","name":"Masjid At Taqwa","lat":1.10241,"lng":104.08834,"addr":"","type":"mosque"},{"id":"xx11181_1040976","name":"Masjid Al Furqon","lat":1.11812,"lng":104.09758,"addr":"","type":"mosque"},{"id":"xx11177_1040901","name":"Islamic place","lat":1.11771,"lng":104.09014,"addr":"","type":"mosque"},{"id":"xx11316_1040990","name":"Masjid At Toyyibah","lat":1.13156,"lng":104.098965,"addr":"","type":"mosque"},{"id":"xx11292_1041007","name":"Masjid Al Falah","lat":1.12921,"lng":104.10066,"addr":"","type":"mosque"},{"id":"xx11364_1041118","name":"Masjid Al Barokah","lat":1.13638,"lng":104.11181,"addr":"","type":"mosque"},{"id":"xx11295_1041063","name":"Masjid Al Huda","lat":1.12945,"lng":104.10628,"addr":"","type":"mosque"},{"id":"xx11391_1041158","name":"Masjid Jabal Nur","lat":1.139143,"lng":104.115809,"addr":"","type":"mosque"},{"id":"xx10830_1041146","name":"Masjid Istiqomah","lat":1.08299,"lng":104.1146,"addr":"","type":"mosque"},{"id":"xx11130_1041302","name":"Masjid Fathun Nur","lat":1.11295,"lng":104.13024,"addr":"","type":"mosque"},{"id":"xx11155_1041332","name":"Masjid Nurul Huda","lat":1.11546,"lng":104.13323,"addr":"","type":"mosque"},{"id":"xx11452_1041395","name":"Masjid Al Muttaqin (Kp.Melayu Nongsa)","lat":1.1452,"lng":104.13949,"addr":"","type":"mosque"},{"id":"xx11304_1041410","name":"Mushallah Al Mujahidin","lat":1.13039,"lng":104.14095,"addr":"","type":"mosque"},{"id":"xx11553_1041313","name":"Masjid Al Munawaroh","lat":1.15526,"lng":104.13127,"addr":"","type":"mosque"},{"id":"xx11437_1041383","name":"Mushallah","lat":1.14365,"lng":104.13833,"addr":"","type":"mosque"},{"id":"xx11522_1041360","name":"Masjid Nurul Hidayah","lat":1.15217,"lng":104.13597,"addr":"","type":"mosque"},{"id":"xx11553_1041219","name":"Masjid Muhajirin","lat":1.15528,"lng":104.12192,"addr":"","type":"mosque"},{"id":"xx11555_1041257","name":"Masjid Lembang Jaya","lat":1.155477,"lng":104.12569,"addr":"","type":"mosque"},{"id":"xx11566_1041205","name":"Masjid Nongsa Asri","lat":1.15663,"lng":104.12055,"addr":"","type":"mosque"},{"id":"xx11606_1041155","name":"Masjid Taman Batu Besar","lat":1.16065,"lng":104.11546,"addr":"","type":"mosque"},{"id":"xx11514_1041284","name":"Masjid Al Falah","lat":1.15138,"lng":104.12844,"addr":"","type":"mosque"},{"id":"xx11665_1041194","name":"Masjid Taman Yose","lat":1.16655,"lng":104.11941,"addr":"","type":"mosque"},{"id":"xx11607_1040949","name":"Mushallah Smpn.08","lat":1.16075,"lng":104.09488,"addr":"","type":"mosque"},{"id":"xx11716_1040708","name":"Masjid Bakau Srip","lat":1.17157,"lng":104.07085,"addr":"","type":"mosque"},{"id":"xx11936_1040926","name":"Masjid At Taqwa Nongsa","lat":1.19363,"lng":104.09256,"addr":"","type":"mosque"},{"id":"xx10690_1041240","name":"Mushallah","lat":1.06898,"lng":104.12396,"addr":"","type":"mosque"},{"id":"xx10749_1041168","name":"Masjid Al Ikhlas","lat":1.0749,"lng":104.11685,"addr":"","type":"mosque"},{"id":"xx10678_1041175","name":"Masjid Al Muhajirin","lat":1.06778,"lng":104.11752,"addr":"","type":"mosque"},{"id":"xx10633_1041340","name":"Masjid Al-Iman","lat":1.06329,"lng":104.13404,"addr":"","type":"mosque"},{"id":"xx10879_1041345","name":"Masjid An Nur","lat":1.08786,"lng":104.13449,"addr":"","type":"mosque"},{"id":"xx10809_1041313","name":"Masjid Jamiatul Magfirah","lat":1.08089,"lng":104.13132,"addr":"","type":"mosque"},{"id":"xx10735_1041169","name":"Mushallah Al Imfag","lat":1.07351,"lng":104.1169,"addr":"","type":"mosque"},{"id":"xx10771_1041172","name":"Mushallah Al Muttaqiin","lat":1.07707,"lng":104.1172,"addr":"","type":"mosque"},{"id":"xx10652_1041171","name":"Masjid Nuruddin","lat":1.06524,"lng":104.11714,"addr":"","type":"mosque"},{"id":"xx10798_1041180","name":"Masjid Nurul Jihad","lat":1.07977,"lng":104.11797,"addr":"","type":"mosque"},{"id":"xx10376_1040780","name":"Masjid Baitul Muttaqin","lat":1.03759,"lng":104.078,"addr":"Batam","type":"mosque"},{"id":"xx10392_1040825","name":"Mushallah Alfajar","lat":1.03917,"lng":104.0825,"addr":"","type":"mosque"},{"id":"xx10378_1040752","name":"Masjid Fastabiqul Khairat","lat":1.037845,"lng":104.075197,"addr":"","type":"mosque"},{"id":"xx10721_1040230","name":"Mushallah Panbill","lat":1.072121,"lng":104.023007,"addr":"","type":"musalla"},{"id":"xx11035_1040684","name":"Masjid Al Muhajirin","lat":1.103532,"lng":104.068396,"addr":"Jalan Raja Isa","type":"mosque"},{"id":"xx11030_1040722","name":"Majid Baitul Dakwah","lat":1.10295,"lng":104.07216,"addr":"","type":"mosque"},{"id":"xx11048_1040416","name":"Masjid Al Ikhlas","lat":1.104772,"lng":104.041646,"addr":"","type":"mosque"},{"id":"xx11243_1040561","name":"Mushallah Asrama Haji batam center","lat":1.124259,"lng":104.056139,"addr":"","type":"musalla"},{"id":"xx11265_1040450","name":"Masjid Sirat Al Mustakim","lat":1.126512,"lng":104.044965,"addr":"","type":"mosque"},{"id":"xx11250_1040505","name":"Islamic place","lat":1.12503,"lng":104.05046,"addr":"","type":"mosque"},{"id":"xx11311_1040408","name":"Masjid Nurul Halimah","lat":1.13114,"lng":104.04081,"addr":"","type":"mosque"},{"id":"xx11178_1040409","name":"Masjid Al Munawwarah","lat":1.117782,"lng":104.040866,"addr":"","type":"mosque"},{"id":"xx11092_1040387","name":"Masjid Nurul Jannah Eden Park","lat":1.10917,"lng":104.03875,"addr":"","type":"mosque"},{"id":"xx11221_1040448","name":"Masjid Nurul Abidin","lat":1.12213,"lng":104.0448,"addr":"","type":"mosque"},{"id":"xx11337_1040239","name":"Masjid Nurul Iman","lat":1.133676,"lng":104.023937,"addr":"","type":"mosque"},{"id":"xx11332_1040313","name":"Masjid Al Jihad","lat":1.13324,"lng":104.03131,"addr":"","type":"mosque"},{"id":"xx11365_1040318","name":"Masjid Al Mustaqim","lat":1.13653,"lng":104.03179,"addr":"","type":"mosque"},{"id":"xx11384_1040307","name":"Mushallah Baitul Muslim","lat":1.13839,"lng":104.03068,"addr":"","type":"place_of_worship"},{"id":"xx11395_1040360","name":"Masjid Nurul Ikwah","lat":1.139464,"lng":104.036009,"addr":"","type":"mosque"},{"id":"xx11388_1040325","name":"Masjid Al Mi'Raj","lat":1.13876,"lng":104.03253,"addr":"","type":"mosque"},{"id":"xx11448_1040281","name":"Masjid Darul Muttalim","lat":1.14481,"lng":104.02811,"addr":"","type":"mosque"},{"id":"xx11416_1040256","name":"Masjid An Nikmah","lat":1.14155,"lng":104.02564,"addr":"","type":"mosque"},{"id":"xx11436_1040449","name":"Masjid Munjiyatul Ikhwan","lat":1.14363,"lng":104.04486,"addr":"","type":"mosque"},{"id":"xx11544_1040375","name":"Masjid Putra Kelana","lat":1.154396,"lng":104.037547,"addr":"","type":"mosque"},{"id":"xx11480_1040391","name":"Masjid Al Qadr","lat":1.147958,"lng":104.039063,"addr":"","type":"mosque"},{"id":"xx11471_1040420","name":"Mushallah Bahrul Ulum","lat":1.14712,"lng":104.042044,"addr":"","type":"mosque"},{"id":"xx11478_1040286","name":"Masjid Babussalam","lat":1.14784,"lng":104.02862,"addr":"","type":"mosque"},{"id":"xx11467_1040238","name":"Masjid At Taubah","lat":1.14674,"lng":104.02384,"addr":"","type":"mosque"},{"id":"xx11499_1040240","name":"Masjid Al Jabar","lat":1.1499,"lng":104.02397,"addr":"","type":"mosque"},{"id":"xx11502_1040287","name":"Masjid Jami' Nurul Iman","lat":1.1502,"lng":104.02867,"addr":"","type":"mosque"},{"id":"xx11528_1040297","name":"Masjid Al Munawaroh","lat":1.152782,"lng":104.029659,"addr":"","type":"mosque"},{"id":"xx11523_1040253","name":"Masjid Mubarokatul","lat":1.152324,"lng":104.025306,"addr":"","type":"place_of_worship"},{"id":"xx11543_1040263","name":"Masjid Al Anshor","lat":1.15432,"lng":104.0263,"addr":"","type":"yes"},{"id":"xx11551_1040314","name":"Mushallah An Nur","lat":1.155087,"lng":104.031438,"addr":"","type":"mosque"},{"id":"xx11555_1040322","name":"Masjid Al Fudhola","lat":1.15545,"lng":104.03223,"addr":"","type":"mosque"},{"id":"xx11578_1040298","name":"Mushallah Nurul Iman","lat":1.157772,"lng":104.029817,"addr":"","type":"mosque"},{"id":"xx11632_1040196","name":"Masjid Nurul Hidayah","lat":1.16322,"lng":104.01963,"addr":"","type":"place_of_worship"},{"id":"xx11623_1040253","name":"Masjid Nurul Qomar","lat":1.1623,"lng":104.02532,"addr":"","type":"place_of_worship"},{"id":"xx11680_1040303","name":"Mushallah Al Hijrah","lat":1.16803,"lng":104.03034,"addr":"","type":"mosque"},{"id":"xx11657_1040216","name":"Masjid Al Mubarokah","lat":1.16571,"lng":104.02156,"addr":"","type":"mosque"},{"id":"xx11649_1040310","name":"Balai Parsakti","lat":1.16492,"lng":104.03098,"addr":"","type":"mosque"},{"id":"xx11605_1040234","name":"Mushallah Batul IJtihad","lat":1.16047,"lng":104.02336,"addr":"","type":"mosque"},{"id":"xx11590_1040274","name":"Masjid Al Ikhsan","lat":1.158965,"lng":104.027396,"addr":"","type":"place_of_worship"},{"id":"xx11622_1040231","name":"Masjid Anshorullah","lat":1.16223,"lng":104.02307,"addr":"","type":"mosque"},{"id":"xx11646_1040280","name":"Mushallah Al Maghfirah","lat":1.16464,"lng":104.02796,"addr":"","type":"mosque"},{"id":"xx11649_1040239","name":"Mushallah Darussalam","lat":1.16492,"lng":104.02386,"addr":"","type":"mosque"},{"id":"xx11672_1040282","name":"Mushallah Al Ikhlas","lat":1.16723,"lng":104.02823,"addr":"","type":"mosque"},{"id":"xx11595_1040345","name":"Masjid Hidayatussalam","lat":1.15947,"lng":104.0345,"addr":"","type":"mosque"},{"id":"xx11597_1040321","name":"Mushallah Al Jihad","lat":1.15968,"lng":104.03208,"addr":"","type":"musalla"},{"id":"xx11611_1040316","name":"Masjid Al Amin","lat":1.16112,"lng":104.0316,"addr":"","type":"mosque"},{"id":"xx11674_1040335","name":"Masjid Al Amin","lat":1.167396,"lng":104.033483,"addr":"","type":"mosque"},{"id":"xx11701_1040326","name":"Mushallah","lat":1.17013,"lng":104.03257,"addr":"","type":"mosque"},{"id":"xx11716_1040314","name":"Mushallah Darut Taubah","lat":1.171604,"lng":104.031447,"addr":"","type":"mosque"},{"id":"xx10491_1040426","name":"Masjid Jabal Nur","lat":1.04911,"lng":104.04259,"addr":"","type":"mosque"},{"id":"xx10443_1040480","name":"Masjid Ash Sirath","lat":1.04432,"lng":104.04795,"addr":"","type":"mosque"},{"id":"xx10409_1040478","name":"Masjid Al Baqa","lat":1.04089,"lng":104.0478,"addr":"","type":"mosque"},{"id":"xx10446_1040533","name":"Masjid Al Makruf Sei.Beduk","lat":1.0446,"lng":104.05328,"addr":"","type":"mosque"},{"id":"xx10415_1040510","name":"Masjid Roudhotul Qur'an","lat":1.041516,"lng":104.051033,"addr":"","type":"mosque"},{"id":"xx10398_1040519","name":"Masjid Al Kautsar","lat":1.03977,"lng":104.051873,"addr":"","type":"mosque"},{"id":"xx10363_1040537","name":"Masjid Al Amin S","lat":1.0363,"lng":104.05373,"addr":"","type":"mosque"},{"id":"xx10366_1040562","name":"Masjid Nur Hidayah","lat":1.03656,"lng":104.05619,"addr":"","type":"mosque"},{"id":"xx10399_1040553","name":"Masjid Nur Huda","lat":1.03995,"lng":104.05525,"addr":"","type":"mosque"},{"id":"xx10324_1040483","name":"Masjid Al Hijrah","lat":1.03244,"lng":104.0483,"addr":"","type":"mosque"},{"id":"xx10348_1040513","name":"Masjid Al Ikhlas","lat":1.03482,"lng":104.05133,"addr":"","type":"mosque"},{"id":"xx10386_1040515","name":"Masjid Al Muttaqien","lat":1.038636,"lng":104.051517,"addr":"","type":"mosque"},{"id":"xx10274_1040493","name":"Masjid Baitul Atiq","lat":1.02737,"lng":104.04927,"addr":"","type":"mosque"},{"id":"xx10275_1040553","name":"Masjid Babussalam","lat":1.02754,"lng":104.05529,"addr":"","type":"mosque"},{"id":"xx10341_1040498","name":"Mushallah Al Muhajir","lat":1.03411,"lng":104.04975,"addr":"","type":"mosque"},{"id":"xx10323_1040534","name":"Masjid Baiturrahim","lat":1.03229,"lng":104.05342,"addr":"","type":"mosque"},{"id":"xx10319_1040547","name":"Mushallah Nurul Ilmi","lat":1.0319,"lng":104.05474,"addr":"","type":"mosque"},{"id":"xx10307_1040557","name":"Masjid Al Muhajirin","lat":1.03068,"lng":104.05568,"addr":"","type":"mosque"},{"id":"xx10251_1040560","name":"Mushollah Abdulah Salam","lat":1.02505,"lng":104.05596,"addr":"","type":"mosque"},{"id":"xx10285_1040523","name":"Masjid Bukratawaasila","lat":1.02853,"lng":104.05231,"addr":"","type":"mosque"},{"id":"xx10290_1040547","name":"Masjid Al Hikmah","lat":1.02898,"lng":104.05469,"addr":"","type":"mosque"},{"id":"xx10308_1040598","name":"Masjid Griyatama","lat":1.03078,"lng":104.05982,"addr":"","type":"mosque"},{"id":"xx11191_1040328","name":"Islamic place","lat":1.119146,"lng":104.032849,"addr":"","type":"mosque"},{"id":"xx11506_1040072","name":"Bank Mandiri","lat":1.15061,"lng":104.007212,"addr":"","type":"bank"},{"id":"xx11214_1040888","name":"Masjid Al-Hidayah","lat":1.12142,"lng":104.088838,"addr":"Batam","type":"mosque"},{"id":"xx11109_1040956","name":"Mushola Bida Garden","lat":1.110922,"lng":104.09557,"addr":"","type":"mosque"},{"id":"xx06356_1016481","name":"Islamic place","lat":0.635571,"lng":101.648109,"addr":"","type":"mosque"},{"id":"xx11264_1040534","name":"Masjid Agung Batam","lat":1.126402,"lng":104.053375,"addr":"Jl. Engku Puteri","type":"place_of_worship"},{"id":"xx11076_1039473","name":"Masjid Uswatun Hasanah","lat":1.107578,"lng":103.947281,"addr":"","type":"place_of_worship"},{"id":"xx08487_1046011","name":"Madrasah Ibtidaiyah Islamiyah Kijang","lat":0.848683,"lng":104.601064,"addr":"Jl. Tenggiri","type":"school"},{"id":"xx08485_1046007","name":"MTSN Bintan Timur","lat":0.848457,"lng":104.600662,"addr":"Jl. Tongkol","type":"school"},{"id":"xx08529_1046045","name":"Masjid Al Hikmah","lat":0.852899,"lng":104.604455,"addr":"Jl. Mawar","type":"place_of_worship"},{"id":"xx12871_1011789","name":"Masjid Raya Arafah","lat":1.287141,"lng":101.178885,"addr":"","type":"place_of_worship"},{"id":"xx14795_1021112","name":"Masjid Muhammadiyah","lat":1.479546,"lng":102.11115,"addr":"Jl. Antara","type":"yes"},{"id":"xx04581_1014067","name":"Musholla Ukhuwatun","lat":0.458072,"lng":101.40673,"addr":"","type":"place_of_worship"},{"id":"xx21616_1008029","name":"Mesjid Al Ikhlas Bagansiapiapi","lat":2.161581,"lng":100.802892,"addr":"","type":"place_of_worship"},{"id":"xx21450_1008089","name":"Mesjid Muhammadiyah","lat":2.14499,"lng":100.808868,"addr":"","type":"place_of_worship"},{"id":"xx21469_1008074","name":"Mesjid Ar-Ridha","lat":2.14685,"lng":100.807392,"addr":"","type":"place_of_worship"},{"id":"xx04153_1014631","name":"Masjid Nurul Amin","lat":0.415336,"lng":101.463071,"addr":"","type":"mosque"},{"id":"xx04200_1014609","name":"Islamic place","lat":0.419975,"lng":101.460851,"addr":"","type":"mosque"},{"id":"xx04765_1014727","name":"Islamic place","lat":0.476545,"lng":101.472654,"addr":"","type":"mosque"},{"id":"xx04775_1014834","name":"Islamic place","lat":0.477451,"lng":101.48343,"addr":"","type":"mosque"},{"id":"xx10256_1033906","name":"Mesjid Agung Tanjung Balai Karimun","lat":1.02558,"lng":103.390571,"addr":"","type":"place_of_worship"},{"id":"xx16521_1014343","name":"Al Hikmah II","lat":1.652094,"lng":101.434251,"addr":"","type":"place_of_worship"},{"id":"xx16680_1014784","name":"Istiqomah","lat":1.668009,"lng":101.47842,"addr":"","type":"place_of_worship"},{"id":"xx05086_1014477","name":"TPU Kuini","lat":0.508575,"lng":101.447705,"addr":"","type":"grave_yard"},{"id":"xx04816_1014591","name":"Ar Rahmad","lat":0.481631,"lng":101.459077,"addr":"","type":"mosque"},{"id":"xx14782_1021270","name":"Masjid Al Hakim","lat":1.478188,"lng":102.127044,"addr":"Jalan Pertanian","type":"place_of_worship"},{"id":"xx14797_1021230","name":"Mushola","lat":1.479701,"lng":102.122999,"addr":"Jl. HR. Soebrantas","type":"place_of_worship"},{"id":"xx14816_1021246","name":"Masjid Isti'da","lat":1.481643,"lng":102.124588,"addr":"Jl. HR. Soebrantas","type":"place_of_worship"},{"id":"xx14710_1021261","name":"Islamic place","lat":1.470991,"lng":102.126137,"addr":"Jl. Bantan","type":"place_of_worship"},{"id":"xx14760_1021185","name":"Masjid Nurul Qurba","lat":1.476019,"lng":102.118533,"addr":"Jl. Gatot Subroto","type":"place_of_worship"},{"id":"xx14769_1021304","name":"Mushola","lat":1.476931,"lng":102.130433,"addr":"Jl. Bantan","type":"place_of_worship"},{"id":"xx14711_1021061","name":"Masjid Agung Bengkalis","lat":1.471115,"lng":102.106065,"addr":"Jl. Pattimura","type":"place_of_worship"},{"id":"xx14811_1021169","name":"Masjid Al Muslihun","lat":1.481109,"lng":102.116873,"addr":"Jl. Al Muslihun","type":"place_of_worship"},{"id":"xx14727_1021193","name":"Islamic place","lat":1.472653,"lng":102.119291,"addr":"Gg. Sahabat","type":"place_of_worship"},{"id":"xx14869_1021173","name":"Islamic place","lat":1.486905,"lng":102.117295,"addr":"Jl. Wonosari Tengah","type":"place_of_worship"},{"id":"xx14847_1021024","name":"Mushola","lat":1.484653,"lng":102.102375,"addr":"","type":"place_of_worship"},{"id":"xx14788_1021189","name":"Masjid Attaubah","lat":1.478828,"lng":102.118919,"addr":"","type":"place_of_worship"},{"id":"xx14802_1020914","name":"Islamic place","lat":1.480203,"lng":102.091441,"addr":"","type":"place_of_worship"},{"id":"xx14764_1020983","name":"Islamic place","lat":1.476374,"lng":102.098253,"addr":"","type":"place_of_worship"},{"id":"xx14796_1020992","name":"Masjid Nurul Iman","lat":1.479602,"lng":102.099227,"addr":"","type":"place_of_worship"},{"id":"xx14697_1021121","name":"Mushola","lat":1.469726,"lng":102.112074,"addr":"","type":"place_of_worship"},{"id":"xx14719_1021172","name":"Islamic place","lat":1.471891,"lng":102.117222,"addr":"","type":"mosque"},{"id":"xx05352_1014516","name":"Nurul Ikhlas","lat":0.535205,"lng":101.451557,"addr":"Pekanbaru","type":"mosque"},{"id":"xx04929_1014533","name":"Islamic place","lat":0.492874,"lng":101.453283,"addr":"","type":"place_of_worship"},{"id":"xx04321_1014338","name":"Masjid Baiturrahman","lat":0.43212,"lng":101.433758,"addr":"","type":"mosque"},{"id":"xx04608_1014577","name":"Mesjid","lat":0.460764,"lng":101.457677,"addr":"","type":"place_of_worship"},{"id":"xx04619_1014593","name":"Islamic place","lat":0.46194,"lng":101.459276,"addr":"","type":"place_of_worship"},{"id":"xx14677_1021290","name":"Musala Nurul Hidayah","lat":1.467668,"lng":102.128998,"addr":"","type":"place_of_worship"},{"id":"xx14606_1021276","name":"Masjid Kuning","lat":1.460568,"lng":102.127598,"addr":"Jl. Panglima Minal","type":"place_of_worship"},{"id":"xx08361_1020416","name":"Masjid Baiturrohim","lat":0.836099,"lng":102.041552,"addr":"","type":"place_of_worship"},{"id":"xx04928_1014851","name":"Masjid Raudhatus Sholihin","lat":0.492839,"lng":101.485105,"addr":"Jl. Bukit Barisan","type":"place_of_worship"},{"id":"xx04935_1014672","name":"Nurul Iman","lat":0.493526,"lng":101.467175,"addr":"Jl. Tanjung","type":"place_of_worship"},{"id":"xx04958_1014586","name":"Nurul Hidayah","lat":0.495814,"lng":101.458602,"addr":"Jalan Surabaya","type":"place_of_worship"},{"id":"xx04993_1014581","name":"Masjid Ar-Rahman","lat":0.499337,"lng":101.458056,"addr":"Jl. H. Imam Munandar","type":"place_of_worship"},{"id":"xx04673_1013863","name":"Islamic place","lat":0.467341,"lng":101.386272,"addr":"Jalan Manyar Sakti Panam","type":"place_of_worship"},{"id":"xx04634_1014073","name":"Masjid Darussalam","lat":0.463381,"lng":101.407286,"addr":"Jalan HR Soebrantas","type":"place_of_worship"},{"id":"xx13388_1021543","name":"Islamic place","lat":1.338806,"lng":102.154258,"addr":"","type":"place_of_worship"},{"id":"xx13781_1021475","name":"Mushola","lat":1.378054,"lng":102.147466,"addr":"","type":"place_of_worship"},{"id":"xx14899_1021154","name":"Masjid Istianah","lat":1.48993,"lng":102.11544,"addr":"","type":"place_of_worship"},{"id":"xx14843_1021109","name":"Surau At-Taufiq","lat":1.484321,"lng":102.110901,"addr":"","type":"place_of_worship"},{"id":"xx14810_1021054","name":"Masjid Al-Kautsar","lat":1.480958,"lng":102.10541,"addr":"Jl. Pembangunan 1","type":"place_of_worship"},{"id":"xx14719_1021226","name":"Islamic place","lat":1.471907,"lng":102.122632,"addr":"","type":"mosque"},{"id":"xx04433_1014440","name":"Mesjid Iqrar","lat":0.443315,"lng":101.444015,"addr":"","type":"place_of_worship"},{"id":"xx04230_1014340","name":"Mesjid Nurul Yakin","lat":0.423002,"lng":101.433978,"addr":"","type":"place_of_worship"},{"id":"xx04992_1014760","name":"Tsamaratul Iman","lat":0.499213,"lng":101.476027,"addr":"","type":"place_of_worship"},{"id":"xx04182_1014345","name":"Masjid Raya Kubang","lat":0.418181,"lng":101.434498,"addr":"","type":"place_of_worship"},{"id":"xx14607_1021272","name":"Islamic place","lat":1.460692,"lng":102.127166,"addr":"Jl. Panglima Minal","type":"grave_yard"},{"id":"xx14711_1021258","name":"TPU","lat":1.471067,"lng":102.125837,"addr":"Jl. Bantan","type":"grave_yard"},{"id":"xx05699_1016152","name":"Surau","lat":0.569892,"lng":101.615167,"addr":"","type":"place_of_worship"},{"id":"xx06091_1016464","name":"Islamic place","lat":0.609083,"lng":101.646377,"addr":"","type":"place_of_worship"},{"id":"xx06442_1017011","name":"Surau","lat":0.644215,"lng":101.701074,"addr":"","type":"place_of_worship"},{"id":"xx06440_1017101","name":"Surau","lat":0.644015,"lng":101.710121,"addr":"","type":"place_of_worship"},{"id":"xx06563_1017987","name":"Masjid","lat":0.656279,"lng":101.798686,"addr":"","type":"mosque"},{"id":"xx08314_1020366","name":"Masjid Ar-Rahmat","lat":0.831413,"lng":102.036587,"addr":"","type":"place_of_worship"},{"id":"xx09205_1020340","name":"Surau","lat":0.920525,"lng":102.033991,"addr":"","type":"place_of_worship"},{"id":"xx10615_1020821","name":"Masjid","lat":1.061516,"lng":102.082122,"addr":"","type":"place_of_worship"},{"id":"xx10766_1021024","name":"Islamic place","lat":1.076648,"lng":102.1024,"addr":"","type":"place_of_worship"},{"id":"xx11146_1021101","name":"Masjid","lat":1.114612,"lng":102.110109,"addr":"","type":"place_of_worship"},{"id":"xx12602_1021394","name":"Islamic place","lat":1.26015,"lng":102.139391,"addr":"","type":"place_of_worship"},{"id":"xx13174_1021503","name":"Masjid","lat":1.31739,"lng":102.150256,"addr":"","type":"place_of_worship"},{"id":"xx13475_1021568","name":"Masjid Raya Pakning","lat":1.347463,"lng":102.156803,"addr":"","type":"place_of_worship"},{"id":"xx13553_1021563","name":"Islamic place","lat":1.3553,"lng":102.156345,"addr":"","type":"mosque"},{"id":"xx12925_1021446","name":"Masjid","lat":1.292509,"lng":102.144584,"addr":"","type":"place_of_worship"},{"id":"xx12842_1021452","name":"Islamic place","lat":1.284243,"lng":102.145229,"addr":"","type":"place_of_worship"},{"id":"xx10737_1020979","name":"Islamic place","lat":1.073697,"lng":102.097893,"addr":"","type":"place_of_worship"},{"id":"xx10534_1020709","name":"Islamic place","lat":1.053384,"lng":102.070899,"addr":"","type":"place_of_worship"},{"id":"xx14863_1020931","name":"Surau","lat":1.486276,"lng":102.093055,"addr":"","type":"place_of_worship"},{"id":"xx15342_1022168","name":"Masjid Ar-Raudah","lat":1.534235,"lng":102.216825,"addr":"","type":"place_of_worship"},{"id":"xx16575_1014596","name":"Masjid Al Mukminin","lat":1.657479,"lng":101.459637,"addr":"Jalan Akasia","type":"place_of_worship"},{"id":"xx15016_1021490","name":"Mushola Al-Mukmin","lat":1.501569,"lng":102.148975,"addr":"Jl. Bantan","type":"place_of_worship"},{"id":"xx15197_1021961","name":"Masjid Al-Muslihin","lat":1.519733,"lng":102.196111,"addr":"","type":"place_of_worship"},{"id":"xx15212_1022374","name":"Islamic place","lat":1.521249,"lng":102.237379,"addr":"","type":"place_of_worship"},{"id":"xx14765_1024667","name":"Islamic place","lat":1.476529,"lng":102.466712,"addr":"","type":"place_of_worship"},{"id":"xx14966_1024747","name":"Mushola","lat":1.496569,"lng":102.474688,"addr":"","type":"place_of_worship"},{"id":"xx13439_1023921","name":"Islamic place","lat":1.343918,"lng":102.392099,"addr":"","type":"place_of_worship"},{"id":"xx13243_1024087","name":"Masjid","lat":1.32425,"lng":102.408748,"addr":"","type":"place_of_worship"},{"id":"xx14858_1021360","name":"Masjid Al-Falah","lat":1.485763,"lng":102.136036,"addr":"Jl. Bantan","type":"place_of_worship"},{"id":"xx15226_1021748","name":"Islamic place","lat":1.522593,"lng":102.174844,"addr":"","type":"place_of_worship"},{"id":"xx15216_1021850","name":"Masjid Hubbuttaqwa","lat":1.521572,"lng":102.185012,"addr":"","type":"place_of_worship"},{"id":"xx15232_1022004","name":"Mushola Al-Firdaus","lat":1.523173,"lng":102.200443,"addr":"","type":"place_of_worship"},{"id":"xx15290_1022089","name":"Mushola","lat":1.52905,"lng":102.208876,"addr":"","type":"place_of_worship"},{"id":"xx15468_1022254","name":"Mushola Al-Muslimin","lat":1.54684,"lng":102.22539,"addr":"","type":"place_of_worship"},{"id":"xx15584_1022419","name":"Islamic place","lat":1.558444,"lng":102.241935,"addr":"Jl. Pantai Indah","type":"place_of_worship"},{"id":"xx15254_1023082","name":"Mushola","lat":1.525373,"lng":102.308223,"addr":"","type":"place_of_worship"},{"id":"xx15231_1024212","name":"Mushola","lat":1.523078,"lng":102.421176,"addr":"","type":"place_of_worship"},{"id":"xx14465_1024350","name":"Mushola","lat":1.446478,"lng":102.435038,"addr":"","type":"place_of_worship"},{"id":"xx14497_1024225","name":"Islamic place","lat":1.449736,"lng":102.422478,"addr":"","type":"place_of_worship"},{"id":"xx14406_1023580","name":"Islamic place","lat":1.440604,"lng":102.35801,"addr":"","type":"place_of_worship"},{"id":"xx14368_1023397","name":"Mushola","lat":1.43676,"lng":102.339727,"addr":"","type":"place_of_worship"},{"id":"xx14269_1023208","name":"Islamic place","lat":1.426913,"lng":102.32079,"addr":"","type":"place_of_worship"},{"id":"xx12982_1024734","name":"Langgar","lat":1.298234,"lng":102.473424,"addr":"","type":"place_of_worship"},{"id":"xx13019_1024488","name":"Islamic place","lat":1.30194,"lng":102.448808,"addr":"","type":"place_of_worship"},{"id":"xx14392_1023214","name":"Mushola","lat":1.439248,"lng":102.321422,"addr":"","type":"place_of_worship"},{"id":"xx14712_1024617","name":"Mushola","lat":1.47121,"lng":102.461734,"addr":"","type":"place_of_worship"},{"id":"xx15160_1024299","name":"Islamic place","lat":1.516029,"lng":102.429935,"addr":"","type":"mosque"},{"id":"xx14811_1024329","name":"Mushola","lat":1.481108,"lng":102.432875,"addr":"","type":"place_of_worship"},{"id":"xx04807_1014132","name":"Al-Jihad","lat":0.480722,"lng":101.413214,"addr":"","type":"place_of_worship"},{"id":"xx04554_1014541","name":"Mesjid Al- Hidayah","lat":0.45541,"lng":101.454088,"addr":"","type":"mosque"},{"id":"xx07984_1020519","name":"Masjid Al-Fatah","lat":0.798422,"lng":102.051926,"addr":"Dr, Sutomo","type":"place_of_worship"},{"id":"xx04845_1014327","name":"Fatimah","lat":0.48452,"lng":101.432724,"addr":"","type":"place_of_worship"},{"id":"xx04950_1014316","name":"Masjid Al-Aqsa","lat":0.494974,"lng":101.43156,"addr":"Jl. Duyung","type":"mosque"},{"id":"xx04850_1014373","name":"Masjid Amal Khairat","lat":0.485045,"lng":101.437346,"addr":"Jl. Paus RT 03 RW 13","type":"place_of_worship"},{"id":"xx04938_1014480","name":"Islamic place","lat":0.493843,"lng":101.447989,"addr":"","type":"place_of_worship"},{"id":"xx05610_1014270","name":"Islamic place","lat":0.561013,"lng":101.427004,"addr":"","type":"place_of_worship"},{"id":"xx05334_1014754","name":"Islamic place","lat":0.533447,"lng":101.475435,"addr":"","type":"place_of_worship"},{"id":"xx05594_1014495","name":"Islamic place","lat":0.55935,"lng":101.449459,"addr":"","type":"place_of_worship"},{"id":"xx05633_1014202","name":"Masjid Nurul Ukhuwah","lat":0.563265,"lng":101.420185,"addr":"","type":"place_of_worship"},{"id":"xx05654_1014148","name":"Masjid Nurul Ilmi","lat":0.565436,"lng":101.414775,"addr":"","type":"place_of_worship"},{"id":"xx05714_1014528","name":"Masjid Akhlaqul Karimah","lat":0.571366,"lng":101.452753,"addr":"Jl. Pramuka","type":"place_of_worship"},{"id":"xx05606_1014415","name":"Masjid","lat":0.560646,"lng":101.441481,"addr":"Jl. Kayangan / Sekolah","type":"place_of_worship"},{"id":"xx05704_1014489","name":"Islamic place","lat":0.570401,"lng":101.44889,"addr":"","type":"place_of_worship"},{"id":"xx05713_1014565","name":"Masjid Al-Fithrah","lat":0.571318,"lng":101.456487,"addr":"Jl. Pramuka","type":"place_of_worship"},{"id":"xx04969_1015118","name":"Islamic place","lat":0.496879,"lng":101.511772,"addr":"","type":"place_of_worship"},{"id":"xx05245_1014682","name":"Islamic place","lat":0.524473,"lng":101.468173,"addr":"","type":"place_of_worship"},{"id":"xx04726_1014272","name":"Masjid Al Mukmin","lat":0.472608,"lng":101.427215,"addr":"Jl. Rambutan","type":"place_of_worship"},{"id":"xx04790_1014251","name":"Ar-Raudah","lat":0.479031,"lng":101.425147,"addr":"Jl. Bakti","type":"place_of_worship"},{"id":"xx05295_1014736","name":"Islamic place","lat":0.529482,"lng":101.473578,"addr":"","type":"place_of_worship"},{"id":"xx05155_1014430","name":"Al-Khairat","lat":0.515493,"lng":101.442999,"addr":"Jl. Mangga","type":"place_of_worship"},{"id":"xx05209_1014388","name":"Islamic place","lat":0.520904,"lng":101.438755,"addr":"Jalan KH Ahmad Dahlan","type":"place_of_worship"},{"id":"xx04893_1014464","name":"Mesjid Asy-Syakirin","lat":0.489256,"lng":101.446351,"addr":"Jl. Asy-syakirin RT 03 RW 08 Tangkerang Tengah","type":"place_of_worship"},{"id":"xx05188_1014628","name":"Masjid Al istiqlal","lat":0.518808,"lng":101.462827,"addr":"","type":"place_of_worship"},{"id":"xx05449_1014329","name":"Masjid Al-Uzlah","lat":0.544946,"lng":101.432876,"addr":"","type":"place_of_worship"},{"id":"xx05293_1014498","name":"Musholla Al Maghfirah","lat":0.529269,"lng":101.449799,"addr":"","type":"place_of_worship"},{"id":"xx05167_1014248","name":"Islamic place","lat":0.516665,"lng":101.424753,"addr":"","type":"place_of_worship"},{"id":"xx05170_1014366","name":"Islamic place","lat":0.516952,"lng":101.436575,"addr":"","type":"place_of_worship"},{"id":"xx05111_1014210","name":"Islamic place","lat":0.511094,"lng":101.420997,"addr":"","type":"place_of_worship"},{"id":"xx05072_1014333","name":"Babussalam","lat":0.507211,"lng":101.433271,"addr":"","type":"place_of_worship"},{"id":"xx04772_1014528","name":"Islamic place","lat":0.477215,"lng":101.45281,"addr":"SPBU Jalan Arifin Achmad","type":"place_of_worship"},{"id":"xx05248_1014375","name":"Masjid Al-Hikmah","lat":0.524784,"lng":101.437519,"addr":"","type":"place_of_worship"},{"id":"xx05263_1014339","name":"Al Jihad","lat":0.52634,"lng":101.43393,"addr":"","type":"place_of_worship"},{"id":"xx05707_1014450","name":"Masjid Dakwah Rumbai","lat":0.570666,"lng":101.444951,"addr":"Pekanbaru","type":"place_of_worship"},{"id":"xx05586_1014338","name":"Masjid Al Ihsan","lat":0.558589,"lng":101.433775,"addr":"Yos Sudarso Rumbai","type":"place_of_worship"},{"id":"xx04979_1014371","name":"Islamic place","lat":0.497941,"lng":101.437067,"addr":"","type":"place_of_worship"},{"id":"xx05709_1014260","name":"Musholla","lat":0.570886,"lng":101.426041,"addr":"","type":"place_of_worship"},{"id":"xx05132_1014372","name":"Al-Fida'","lat":0.513208,"lng":101.437217,"addr":"Jalan KH Ahmad Dahlan","type":"place_of_worship"},{"id":"xx05148_1014330","name":"Bainatul Mukminin","lat":0.514813,"lng":101.432965,"addr":"","type":"place_of_worship"},{"id":"xx04645_1013972","name":"Masjid Nurul Huda","lat":0.464471,"lng":101.397211,"addr":"Jalan HR Soebrantas","type":"place_of_worship"},{"id":"xx05327_1014627","name":"Mesjid Al-Makmur","lat":0.532742,"lng":101.462688,"addr":"","type":"place_of_worship"},{"id":"xx05330_1014349","name":"Islamic place","lat":0.532958,"lng":101.434901,"addr":"","type":"place_of_worship"},{"id":"xx05387_1014304","name":"Islamic place","lat":0.53873,"lng":101.430352,"addr":"","type":"place_of_worship"},{"id":"xx05006_1013945","name":"Masjid Umar Ibn Khattab","lat":0.50061,"lng":101.394531,"addr":"","type":"place_of_worship"},{"id":"xx05238_1014417","name":"Masjid Paripurna Al-Jami'","lat":0.523818,"lng":101.441732,"addr":"","type":"place_of_worship"},{"id":"xx05274_1014446","name":"Masjid Al-Irsyad","lat":0.527433,"lng":101.444577,"addr":"","type":"place_of_worship"},{"id":"xx05674_1014463","name":"Masjid Baitul Amal","lat":0.567449,"lng":101.446305,"addr":"Jl. Harapan / Kurnia","type":"place_of_worship"},{"id":"xx11070_1040590","name":"Masjid Al-Ikhlas","lat":1.10701,"lng":104.059049,"addr":"","type":"place_of_worship"},{"id":"xx07757_1020528","name":"Masjid Raya Mempura","lat":0.77566,"lng":102.052844,"addr":"","type":"place_of_worship"},{"id":"xx04770_1014063","name":"Masjid Al-Ikhlas","lat":0.477019,"lng":101.406327,"addr":"Jalan Delima","type":"place_of_worship"},{"id":"xx04689_1013629","name":"Masjid Buluh Cina","lat":0.468874,"lng":101.362921,"addr":"Jalan masuk UIN SUSKA RIAU via Gg. Buluh Cina","type":"place_of_worship"},{"id":"xx05245_1014388","name":"Al-Ihsan","lat":0.524491,"lng":101.438778,"addr":"Jalan Teratai","type":"place_of_worship"},{"id":"xx05133_1014631","name":"Nurul Huda","lat":0.513265,"lng":101.463066,"addr":"Jalan Ronggo Warsito","type":"place_of_worship"},{"id":"xx05006_1014628","name":"Raidatul Amilin","lat":0.500621,"lng":101.462811,"addr":"Jalan bengkuli","type":"place_of_worship"},{"id":"xx05736_1014460","name":"Mushalla Nurul Yakin","lat":0.573644,"lng":101.445993,"addr":"Chevron Rumbai","type":"place_of_worship"},{"id":"xx05750_1014454","name":"Mesjid Raya Al-khairat","lat":0.575026,"lng":101.445407,"addr":"Chevron Rumbai","type":"place_of_worship"},{"id":"xx10075_1027200","name":"Surau Al-Ikhlas","lat":1.007483,"lng":102.719975,"addr":"","type":"place_of_worship"},{"id":"xx10132_1027084","name":"Masjid Darul Ulum","lat":1.013182,"lng":102.7084,"addr":"","type":"place_of_worship"},{"id":"xx05231_1014239","name":"Al Mujahidin","lat":0.523109,"lng":101.423925,"addr":"","type":"place_of_worship"},{"id":"xx05652_1014233","name":"Mushollla al-Furqon","lat":0.565224,"lng":101.423328,"addr":"Jl. Sayur Sari","type":"place_of_worship"},{"id":"xx05741_1014186","name":"mesjid Al-muhajirin","lat":0.57414,"lng":101.418559,"addr":"Jl. Umban Sari","type":"place_of_worship"},{"id":"xx04540_1013924","name":"Masjid Nurul Jannah","lat":0.454028,"lng":101.392362,"addr":"","type":"place_of_worship"},{"id":"xx16242_1010356","name":"Masjid Raya Al-Munawaroh","lat":1.624203,"lng":101.035575,"addr":"jalan lintas bagan siapi-api","type":"place_of_worship"},{"id":"xx16247_1010325","name":"Masjid Darussalam","lat":1.624699,"lng":101.032478,"addr":"jalan lintas bagan siapi-api","type":"place_of_worship"},{"id":"xx03248_1009930","name":"Masjid At Taqwa Salo","lat":0.324831,"lng":100.992981,"addr":"Salo, Kabupaten Kampar, Riau","type":"place_of_worship"},{"id":"xx05595_1014279","name":"Masjid Nurul HaQ","lat":0.559454,"lng":101.427917,"addr":"","type":"place_of_worship"},{"id":"xx05575_1014269","name":"Masjid Nurul Jannah","lat":0.557523,"lng":101.426887,"addr":"","type":"place_of_worship"},{"id":"xx05625_1014682","name":"Musholla Al-Hijaz","lat":0.562493,"lng":101.468223,"addr":"","type":"place_of_worship"},{"id":"xx05672_1014706","name":"Habibullah","lat":0.567238,"lng":101.470604,"addr":"","type":"place_of_worship"},{"id":"xx04609_1013485","name":"mesjid ar-rahman","lat":0.460854,"lng":101.348478,"addr":"","type":"place_of_worship"},{"id":"xx03360_1009977","name":"mensjid raya salo","lat":0.335972,"lng":100.997719,"addr":"","type":"place_of_worship"},{"id":"xx05694_1014638","name":"Masjid Asy Syakuur","lat":0.569386,"lng":101.463806,"addr":"Jalan Limbungan","type":"place_of_worship"},{"id":"xx05676_1014497","name":"Mesjid Nurul Amal","lat":0.567641,"lng":101.449687,"addr":"","type":"place_of_worship"},{"id":"xx05637_1014737","name":"Musholla Nur Arrasyid","lat":0.563739,"lng":101.473681,"addr":"","type":"place_of_worship"},{"id":"xx04841_1015095","name":"Mesjid Ar- Rahman","lat":0.484142,"lng":101.509468,"addr":"JL. Bukit Rahayu","type":"place_of_worship"},{"id":"xx05174_1014082","name":"Islamic place","lat":0.517419,"lng":101.408159,"addr":"Jl Dharma Bakti","type":"place_of_worship"},{"id":"xx12723_1011890","name":"MDA Shiratul Jannah","lat":1.272282,"lng":101.189004,"addr":"","type":"school"},{"id":"xx12724_1011891","name":"Mesjid Shiratul Jannah","lat":1.2724,"lng":101.189121,"addr":"","type":"place_of_worship"},{"id":"xx12730_1011870","name":"Mesjid An-Nur","lat":1.272959,"lng":101.186976,"addr":"","type":"place_of_worship"},{"id":"xx04833_1013542","name":"Masjid Baitull Jannah","lat":0.483349,"lng":101.354183,"addr":"Jalan Uka","type":"place_of_worship"},{"id":"xx04780_1013660","name":"masjid ubudiyah;SPBU KM 2","lat":0.478018,"lng":101.366038,"addr":"Garuda Sakti","type":"place_of_worship"},{"id":"xx04579_1013808","name":"MASJID NURUL FALLAH 2","lat":0.457946,"lng":101.380788,"addr":"","type":"place_of_worship"},{"id":"xx04826_1014658","name":"Mushola","lat":0.482616,"lng":101.465793,"addr":"","type":"musalla"},{"id":"xx05882_1014172","name":"Masjid Aliyah Syifa","lat":0.588186,"lng":101.417233,"addr":"","type":"place_of_worship"},{"id":"xx05065_1015066","name":"Masjid Al-Amin","lat":0.506485,"lng":101.506584,"addr":"","type":"place_of_worship"},{"id":"xx05093_1015043","name":"Pekuburan","lat":0.509344,"lng":101.504255,"addr":"","type":"grave_yard"},{"id":"xx04551_1013663","name":"Masjid Khairul-Anam","lat":0.45507,"lng":101.366327,"addr":"","type":"place_of_worship"},{"id":"xx04640_1013685","name":"Mesjid","lat":0.464007,"lng":101.368492,"addr":"","type":"place_of_worship"},{"id":"xx04474_1013860","name":"Masjid Taqwa","lat":0.447422,"lng":101.386008,"addr":"","type":"place_of_worship"},{"id":"xx12474_1012443","name":"Mesjid Al - Hidayah","lat":1.247361,"lng":101.244278,"addr":"Jalan Gajah Mada","type":"place_of_worship"},{"id":"xx05201_1014457","name":"Muslimin","lat":0.520148,"lng":101.445741,"addr":"Jl. Muslimin","type":"place_of_worship"},{"id":"xx04568_1013782","name":"Musholla Ruhul Ibadah","lat":0.456816,"lng":101.378176,"addr":"Jalan Taman Karya","type":"place_of_worship"},{"id":"xx04558_1013876","name":"Mesjid Al-ihlas","lat":0.45577,"lng":101.387647,"addr":"","type":"place_of_worship"},{"id":"xx05669_1014263","name":"Mesjid Baitul Muktamar","lat":0.566925,"lng":101.426293,"addr":"","type":"place_of_worship"},{"id":"xx05649_1014311","name":"Taufiq Walhidayah","lat":0.564914,"lng":101.431145,"addr":"","type":"place_of_worship"},{"id":"xx05690_1014285","name":"Mesjid Al-Mizan","lat":0.569002,"lng":101.428527,"addr":"Jl. Patimura (Paus) Rumbai","type":"place_of_worship"},{"id":"xx18703_1017439","name":"Masjid Jami' Nurul Falah","lat":1.870274,"lng":101.743929,"addr":"","type":"place_of_worship"},{"id":"xx17435_1016961","name":"Musholla Babussalam","lat":1.743521,"lng":101.69609,"addr":"","type":"musalla"},{"id":"xx05717_1006858","name":"Masjid Al-muttaqin","lat":0.571733,"lng":100.685763,"addr":"","type":"place_of_worship"},{"id":"xx05673_1006888","name":"Masjid At-Taqwa","lat":0.567284,"lng":100.68884,"addr":"","type":"place_of_worship"},{"id":"xx05652_1006920","name":"Masjid Nurul Huda","lat":0.56516,"lng":100.692027,"addr":"","type":"place_of_worship"},{"id":"xx04816_1014160","name":"Masque Wahidin","lat":0.481627,"lng":101.416009,"addr":"","type":"place_of_worship"},{"id":"xx11450_1040135","name":"Masjid Jabal Arafah","lat":1.144989,"lng":104.01353,"addr":"","type":"place_of_worship"},{"id":"xx04888_1015166","name":"Mushalla As Sakinah","lat":0.48878,"lng":101.516565,"addr":"","type":"place_of_worship"},{"id":"xx04548_1013685","name":"Masjid Al-Ikhlas","lat":0.454829,"lng":101.368518,"addr":"","type":"mosque"},{"id":"xx04656_1013644","name":"Masjid Baitul Ma'mur","lat":0.465559,"lng":101.364398,"addr":"","type":"place_of_worship"},{"id":"xx04692_1013671","name":"mesjid al-fajar","lat":0.469214,"lng":101.367104,"addr":"","type":"place_of_worship"},{"id":"xx04779_1013650","name":"musholla griya taman anggrek","lat":0.477935,"lng":101.364974,"addr":"","type":"place_of_worship"},{"id":"xx04787_1013715","name":"Musholah","lat":0.478704,"lng":101.37146,"addr":"","type":"musalla"},{"id":"xx05244_1014454","name":"As salam","lat":0.524406,"lng":101.445391,"addr":"Jalan Pangeran Hidayat","type":"place_of_worship"},{"id":"xx04796_1013622","name":"MDA","lat":0.479551,"lng":101.36222,"addr":"","type":"school"},{"id":"xx04800_1013625","name":"Islamic place","lat":0.479997,"lng":101.362483,"addr":"","type":"mosque"},{"id":"xx06134_1010333","name":"masjid SPBU","lat":0.613401,"lng":101.033335,"addr":"","type":"place_of_worship"},{"id":"xx04736_1014179","name":"Masjid Al-Ikhlas","lat":0.473625,"lng":101.417866,"addr":"","type":"mosque"},{"id":"xx04413_1013906","name":"Masjid Gufron","lat":0.441348,"lng":101.390567,"addr":"","type":"place_of_worship"},{"id":"xx04638_1013958","name":"Mushola Al-Hidayah","lat":0.463753,"lng":101.395775,"addr":"","type":"place_of_worship"},{"id":"xx03843_1018415","name":"Masjid Raya Kerinci","lat":0.384331,"lng":101.841466,"addr":"","type":"place_of_worship"},{"id":"xx03891_1018529","name":"Masjid Nur Jannah","lat":0.389062,"lng":101.852907,"addr":"","type":"place_of_worship"},{"id":"xx04317_1013892","name":"Mushola Perumahan Kalimasa Permai","lat":0.431729,"lng":101.389179,"addr":"","type":"musalla"},{"id":"xx05631_1014343","name":"Masjid AL-BAYAN","lat":0.563148,"lng":101.434257,"addr":"","type":"mosque"},{"id":"xx04636_1013743","name":"Mesjid Ikhlas","lat":0.463608,"lng":101.374314,"addr":"Jalan Ikhlas","type":"place_of_worship"},{"id":"xx05025_1013846","name":"Mesjid Al-Hikmah","lat":0.50246,"lng":101.384577,"addr":"","type":"place_of_worship"},{"id":"xx04342_1013847","name":"LAILATUL QADAR","lat":0.434221,"lng":101.384726,"addr":"","type":"place_of_worship"},{"id":"xx04347_1013773","name":"Darul Hikmah","lat":0.434738,"lng":101.377334,"addr":"","type":"place_of_worship"},{"id":"xx04358_1013828","name":"Nurul Huda","lat":0.435845,"lng":101.382828,"addr":"","type":"place_of_worship"},{"id":"xx04278_1013777","name":"Halba","lat":0.427753,"lng":101.377709,"addr":"","type":"place_of_worship"},{"id":"xx04303_1013807","name":"Mesjid","lat":0.430322,"lng":101.380746,"addr":"","type":"place_of_worship"},{"id":"xx04541_1014018","name":"Mesjid Al-Jami'ah","lat":0.454137,"lng":101.401841,"addr":"","type":"mosque"},{"id":"xx04967_1014296","name":"Al-Iklas","lat":0.496738,"lng":101.429591,"addr":"","type":"mosque"},{"id":"xx04670_1014332","name":"Mesjid Istiqomah","lat":0.467019,"lng":101.433151,"addr":"","type":"place_of_worship"},{"id":"xx05075_1014385","name":"Ar-Raudah","lat":0.507531,"lng":101.43855,"addr":"","type":"place_of_worship"},{"id":"xx05077_1014356","name":"Al-Falah","lat":0.507703,"lng":101.435622,"addr":"","type":"place_of_worship"},{"id":"xx04765_1013700","name":"Mushola Al-Ikhlas","lat":0.476453,"lng":101.369972,"addr":"","type":"place_of_worship"},{"id":"xx04476_1013986","name":"Masjid Tauhid","lat":0.447643,"lng":101.398632,"addr":"","type":"place_of_worship"},{"id":"xx12920_1011874","name":"Masjid Ahlusunnah","lat":1.292025,"lng":101.187383,"addr":"","type":"place_of_worship"},{"id":"xx04694_1013710","name":"mesjid istiqomah","lat":0.469388,"lng":101.371006,"addr":"","type":"place_of_worship"},{"id":"xx03560_1012265","name":"masjid ar rahma","lat":0.356009,"lng":101.226526,"addr":"","type":"place_of_worship"},{"id":"xx04584_1013479","name":"al-huda","lat":0.458387,"lng":101.347923,"addr":"","type":"musalla"},{"id":"xx05042_1014250","name":"Islamic place","lat":0.504151,"lng":101.425019,"addr":"","type":"mosque"},{"id":"xx05040_1014255","name":"Islamic place","lat":0.503974,"lng":101.425496,"addr":"","type":"mosque"},{"id":"xx05035_1014253","name":"Islamic place","lat":0.50351,"lng":101.425324,"addr":"","type":"mosque"},{"id":"xx05037_1014248","name":"Islamic place","lat":0.503687,"lng":101.424847,"addr":"","type":"mosque"},{"id":"xx04720_1013634","name":"Masjid Al-Faizin","lat":0.47196,"lng":101.36336,"addr":"Gang sepakat","type":"place_of_worship"},{"id":"xx11940_1040879","name":"Islamic place","lat":1.193987,"lng":104.087944,"addr":"","type":"place_of_worship"},{"id":"xx04568_1013566","name":"Islamic place","lat":0.456758,"lng":101.356633,"addr":"","type":"place_of_worship"},{"id":"xx04588_1013560","name":"Islamic place","lat":0.458832,"lng":101.355984,"addr":"","type":"place_of_worship"},{"id":"xx04709_1013868","name":"mesjid abdurrahman bin auf","lat":0.470946,"lng":101.386769,"addr":"pekanbaru","type":"place_of_worship"},{"id":"xx03491_1010197","name":"mesjid miftahul jannah","lat":0.349075,"lng":101.019684,"addr":"","type":"place_of_worship"},{"id":"xx04534_1014091","name":"Masjid Nur Ikhlas","lat":0.453354,"lng":101.40911,"addr":"","type":"place_of_worship"},{"id":"xx04718_1013614","name":"Nur Ikhlas","lat":0.471812,"lng":101.361408,"addr":"","type":"place_of_worship"},{"id":"xx04556_1014029","name":"Masjid Babul Iman","lat":0.455643,"lng":101.40285,"addr":"Jalan Purwodadi","type":"place_of_worship"},{"id":"xx04623_1014600","name":"Masjid Nurul Hidayah","lat":0.462282,"lng":101.460005,"addr":"","type":"place_of_worship"},{"id":"xx04580_1014618","name":"Masjid Al-Muhajirin","lat":0.458023,"lng":101.46184,"addr":"","type":"place_of_worship"},{"id":"xx04546_1014676","name":"Masjid Amaliyah","lat":0.454646,"lng":101.46763,"addr":"","type":"place_of_worship"},{"id":"xx04366_1013850","name":"Mesjid Raya","lat":0.436554,"lng":101.385015,"addr":"","type":"mosque"},{"id":"xx04652_1013458","name":"Surau Balenggek","lat":0.465175,"lng":101.345791,"addr":"","type":"place_of_worship"},{"id":"xx04531_1014667","name":"Masjid Muslimin","lat":0.453069,"lng":101.466723,"addr":"","type":"place_of_worship"},{"id":"xx04601_1013630","name":"Masjid Al-Fathul","lat":0.460141,"lng":101.362972,"addr":"","type":"place_of_worship"},{"id":"xx04821_1013603","name":"Mesjid Miftahul Jannah","lat":0.482087,"lng":101.360273,"addr":"","type":"place_of_worship"},{"id":"xx04710_1014265","name":"Mesjid PTPN V","lat":0.470962,"lng":101.426474,"addr":"Jl. Rambutan","type":"place_of_worship"},{"id":"xx04135_1013888","name":"Masjid Raya Kubang","lat":0.413453,"lng":101.388833,"addr":"Jl. Kubang Raya","type":"place_of_worship"},{"id":"xx04643_1013509","name":"mushalla paradise","lat":0.464309,"lng":101.350919,"addr":"","type":"place_of_worship"},{"id":"xx04433_1014220","name":"al jamiah","lat":0.443301,"lng":101.422009,"addr":"","type":"place_of_worship"},{"id":"xx04777_1014261","name":"Islamic place","lat":0.477663,"lng":101.426083,"addr":"","type":"place_of_worship"},{"id":"xx03543_1012134","name":"mesjid al-hidayah teratak padang","lat":0.354287,"lng":101.213441,"addr":"","type":"place_of_worship"},{"id":"xx04743_1014231","name":"Islamic place","lat":0.474277,"lng":101.423103,"addr":"","type":"place_of_worship"},{"id":"xx05017_1014770","name":"Masjid Al-Ikhlas","lat":0.501741,"lng":101.476952,"addr":"","type":"mosque"},{"id":"xx04907_1014012","name":"Musholla Darul Jannah","lat":0.490678,"lng":101.40124,"addr":"","type":"place_of_worship"},{"id":"xx04883_1013551","name":"Mesjid Al Huda","lat":0.488293,"lng":101.355138,"addr":"","type":"place_of_worship"},{"id":"xx04693_1013703","name":"Masjid Raudha","lat":0.469307,"lng":101.370257,"addr":"","type":"mosque"},{"id":"xx04916_1014028","name":"Musholla Raudhatul Muslimin","lat":0.491569,"lng":101.402756,"addr":"","type":"place_of_worship"},{"id":"xx04698_1013727","name":"Mushollah Ar-Rahman","lat":0.469753,"lng":101.372734,"addr":"","type":"musalla"},{"id":"xx04703_1013706","name":"Masjid Nurul Iman","lat":0.470294,"lng":101.370572,"addr":"","type":"mosque"},{"id":"xx04434_1014219","name":"mesjid aljamiah","lat":0.443443,"lng":101.421934,"addr":"","type":"place_of_worship"},{"id":"xx05381_1014177","name":"Raudhatul Zikri","lat":0.538094,"lng":101.417714,"addr":"pekanbaru","type":"place_of_worship"},{"id":"xx05382_1014196","name":"Al-Ghulam","lat":0.538158,"lng":101.41956,"addr":"Jl. Sempurna","type":"place_of_worship"},{"id":"xx05377_1014220","name":"Al-Huda","lat":0.537729,"lng":101.421977,"addr":"Jl. Kayu Manis","type":"place_of_worship"},{"id":"xx05153_1014185","name":"Al-Fajar","lat":0.515303,"lng":101.418477,"addr":"Jl. Fajar","type":"place_of_worship"},{"id":"xx04872_1013604","name":"Masjid Ar-Rahman","lat":0.487154,"lng":101.360425,"addr":"gg smp","type":"mosque"},{"id":"xx04665_1013714","name":"Masjid As-Shohwah","lat":0.466463,"lng":101.371371,"addr":"GANG PANTI ASUHAN AS-SHOHWAH","type":"place_of_worship"},{"id":"xx04613_1014107","name":"Masjid Nurul Fajar","lat":0.46128,"lng":101.410689,"addr":"","type":"place_of_worship"},{"id":"xx04663_1013871","name":"Masjid Abu Ad Darda'","lat":0.466303,"lng":101.387084,"addr":"","type":"place_of_worship"},{"id":"xx04258_1013798","name":"Masjid Nur Alia","lat":0.425817,"lng":101.379848,"addr":"","type":"mosque"},{"id":"xx04509_1013896","name":"Mushallah Ar-Rahman","lat":0.450949,"lng":101.389646,"addr":"","type":"place_of_worship"},{"id":"xx04736_1013676","name":"Masjid Nururrahman","lat":0.47359,"lng":101.367565,"addr":"","type":"place_of_worship"},{"id":"xx04174_1014543","name":"Islamic place","lat":0.417361,"lng":101.454272,"addr":"","type":"place_of_worship"},{"id":"xx05185_1014189","name":"Islamic place","lat":0.518493,"lng":101.418941,"addr":"Gang Irham","type":"place_of_worship"},{"id":"xx05170_1014319","name":"Darul Jannah","lat":0.516983,"lng":101.43193,"addr":"","type":"place_of_worship"},{"id":"xx05126_1014472","name":"MasjidNur Salim","lat":0.512556,"lng":101.447232,"addr":"","type":"place_of_worship"},{"id":"xx05085_1014295","name":"Islamic place","lat":0.508504,"lng":101.429541,"addr":"","type":"place_of_worship"},{"id":"xx05044_1014536","name":"Islamic place","lat":0.504437,"lng":101.453568,"addr":"","type":"place_of_worship"},{"id":"xx05089_1014332","name":"Ryadusalihin","lat":0.508892,"lng":101.433206,"addr":"","type":"place_of_worship"},{"id":"xx04876_1014357","name":"Al-Azhar","lat":0.487633,"lng":101.435696,"addr":"","type":"place_of_worship"},{"id":"xx05031_1014466","name":"Masjid Al-Mujahadah","lat":0.5031,"lng":101.446622,"addr":"","type":"place_of_worship"},{"id":"xx05083_1014450","name":"Masjid Tasyakkur","lat":0.508274,"lng":101.44499,"addr":"Jl. Taskurun Gg. Belimbing","type":"place_of_worship"},{"id":"xx05398_1014519","name":"Islamic place","lat":0.539758,"lng":101.451865,"addr":"","type":"place_of_worship"},{"id":"xx05166_1014206","name":"Islamic place","lat":0.516603,"lng":101.420617,"addr":"","type":"place_of_worship"},{"id":"xx05208_1014065","name":"Nurul Yakin","lat":0.520773,"lng":101.406497,"addr":"","type":"place_of_worship"},{"id":"xx04503_1014189","name":"Muslimin","lat":0.450274,"lng":101.418933,"addr":"","type":"place_of_worship"},{"id":"xx05012_1014157","name":"An-Namira","lat":0.501241,"lng":101.415664,"addr":"","type":"place_of_worship"},{"id":"xx05431_1014322","name":"Islamic place","lat":0.543135,"lng":101.432165,"addr":"","type":"place_of_worship"},{"id":"xx05199_1014489","name":"Masjid Muthmainnah Polda Riau","lat":0.519945,"lng":101.448905,"addr":"","type":"place_of_worship"},{"id":"xx05111_1014322","name":"Da'watul Islam","lat":0.511107,"lng":101.432194,"addr":"","type":"place_of_worship"},{"id":"xx05286_1014360","name":"Mukhlishin","lat":0.528604,"lng":101.435983,"addr":"","type":"mosque"},{"id":"xx04426_1014180","name":"rumah bangkit","lat":0.442588,"lng":101.41798,"addr":"","type":"place_of_worship"},{"id":"xx04252_1014364","name":"Masjid Al-Amin","lat":0.425248,"lng":101.436366,"addr":"","type":"place_of_worship"},{"id":"xx08954_1003094","name":"Masjid Agung Islamic Centre Rokan Hulu","lat":0.895355,"lng":100.309368,"addr":"Jl. Tuangku Tambusai","type":"place_of_worship"},{"id":"xx08913_1003036","name":"Masjid Muhajirin","lat":0.891271,"lng":100.303615,"addr":"","type":"place_of_worship"},{"id":"xx08826_1002970","name":"Masjid Al Hikmah","lat":0.882615,"lng":100.297011,"addr":"","type":"place_of_worship"},{"id":"xx08898_1003056","name":"Musholla Istiqomah","lat":0.889772,"lng":100.305581,"addr":"","type":"place_of_worship"},{"id":"xx04717_1013663","name":"Mushalla Alhamdulillah","lat":0.471657,"lng":101.366299,"addr":"","type":"place_of_worship"},{"id":"xx16299_1013826","name":"masjjid","lat":1.629882,"lng":101.382582,"addr":"","type":"place_of_worship"},{"id":"xx05297_1014366","name":"Imam Bonjol","lat":0.529717,"lng":101.436589,"addr":"","type":"mosque"},{"id":"xx09032_1045087","name":"Masjid Nurul Azam","lat":0.90324,"lng":104.508685,"addr":"","type":"place_of_worship"},{"id":"xx05690_1014292","name":"Islamic place","lat":0.568981,"lng":101.429249,"addr":"","type":"place_of_worship"},{"id":"xx10739_1040254","name":"Islamic place","lat":1.073932,"lng":104.025358,"addr":"","type":"mosque"},{"id":"xx10735_1040251","name":"Islamic place","lat":1.073541,"lng":104.025077,"addr":"","type":"mosque"},{"id":"xx10737_1040248","name":"Islamic place","lat":1.073699,"lng":104.024792,"addr":"","type":"mosque"},{"id":"xx04648_1014498","name":"Mesjid Bandara SSK II","lat":0.464774,"lng":101.449837,"addr":"","type":"place_of_worship"},{"id":"xx11858_1041071","name":"Islamic place","lat":1.185769,"lng":104.107078,"addr":"","type":"place_of_worship"},{"id":"xx11484_1041326","name":"Islamic place","lat":1.148395,"lng":104.132565,"addr":"","type":"place_of_worship"},{"id":"xx11576_1041308","name":"Musholla Baitul Jannah","lat":1.15762,"lng":104.130781,"addr":"","type":"place_of_worship"},{"id":"xx09306_1045152","name":"Masjid Jami Attaqwa","lat":0.930631,"lng":104.515159,"addr":"Tanjungpinang","type":"place_of_worship"},{"id":"xx10110_1027085","name":"Mesjid Raya Selatpanjang","lat":1.010981,"lng":102.708536,"addr":"Jl. Siak","type":"place_of_worship"},{"id":"xx04627_1013834","name":"Masjid Al-Mukhsinin","lat":0.462728,"lng":101.3834,"addr":"","type":"place_of_worship"},{"id":"xx04692_1013632","name":"Mesjid Buluh Cina","lat":0.469185,"lng":101.363242,"addr":"jl. buluh cina","type":"place_of_worship"},{"id":"xx03403_1014222","name":"Masjid Raya Lubuk Sakat","lat":0.340307,"lng":101.422214,"addr":"Lubuk Sakat, Perhentian Raja","type":"place_of_worship"},{"id":"xx14825_1008131","name":"Masjid Raya Manggala Kota","lat":1.482455,"lng":100.813136,"addr":"Menggala Sakti, Tanah Putih","type":"place_of_worship"},{"id":"xx04499_1013785","name":"Masjid Ruhul Jadid","lat":0.44988,"lng":101.378453,"addr":"Perumahan Riau Indah Lestari Blok D 12, Jalan Taman Karya,","type":"place_of_worship"},{"id":"xx04459_1013814","name":"Al-Wihdah Islamic Center","lat":0.445898,"lng":101.381409,"addr":"Tuah Karya, Tampan,","type":"place_of_worship"},{"id":"xx04246_1013748","name":"Masjid Haqqul Yaqin","lat":0.424588,"lng":101.374841,"addr":"Jl. Tuah Karya No.Desa, Tarai Bangun","type":"place_of_worship"},{"id":"xx15978_1014077","name":"masjid assalam","lat":1.597783,"lng":101.407703,"addr":"","type":"place_of_worship"},{"id":"xx10542_1039433","name":"Islamic place","lat":1.054194,"lng":103.943256,"addr":"","type":"mosque"},{"id":"xx10542_1039434","name":"Islamic place","lat":1.054153,"lng":103.943366,"addr":"","type":"mosque"},{"id":"xx10540_1039433","name":"Islamic place","lat":1.054012,"lng":103.943312,"addr":"","type":"mosque"},{"id":"xx10541_1039432","name":"Islamic place","lat":1.054051,"lng":103.943214,"addr":"","type":"mosque"},{"id":"xx03982_1031527","name":"Mesjid Raya Al-Muhajirin","lat":0.398221,"lng":103.152654,"addr":"","type":"place_of_worship"},{"id":"xx05110_1014431","name":"Rahmad","lat":0.51104,"lng":101.443117,"addr":"","type":"place_of_worship"},{"id":"xx05063_1014405","name":"Masjid Al Mubarokah Komplek Sutiono I","lat":0.50628,"lng":101.44051,"addr":"","type":"place_of_worship"},{"id":"xx05360_1014642","name":"Masjid Assyuhada","lat":0.535963,"lng":101.464204,"addr":"","type":"place_of_worship"},{"id":"xx16662_1014770","name":"Mushalla","lat":1.666216,"lng":101.477033,"addr":"","type":"mosque"},{"id":"xx16664_1014758","name":"mushalla","lat":1.666432,"lng":101.475807,"addr":"","type":"mosque"},{"id":"xx11088_1041313","name":"Masjid Citra Mas","lat":1.108773,"lng":104.131257,"addr":"","type":"place_of_worship"},{"id":"xx10327_1040505","name":"Masjid Darul Huda","lat":1.032693,"lng":104.050512,"addr":"Jl.S.Parman","type":"place_of_worship"},{"id":"xx10271_1040584","name":"masjid mujahidin","lat":1.02709,"lng":104.058427,"addr":"Tg.Piayu","type":"place_of_worship"},{"id":"xx10243_1040585","name":"Islamic place","lat":1.02431,"lng":104.058526,"addr":"","type":"mosque"},{"id":"xx10244_1040586","name":"Islamic place","lat":1.02442,"lng":104.058575,"addr":"","type":"mosque"},{"id":"xx10244_1040587","name":"Islamic place","lat":1.024378,"lng":104.058679,"addr":"","type":"mosque"},{"id":"xx10243_1040586","name":"Islamic place","lat":1.024259,"lng":104.058637,"addr":"","type":"mosque"},{"id":"xx11393_1041406","name":"Mushola Al-Hikmah","lat":1.139314,"lng":104.140588,"addr":"Jl. Hj. Madiun","type":"place_of_worship"},{"id":"xx11425_1041430","name":"Mushola Al-Ikhlas","lat":1.14246,"lng":104.143007,"addr":"","type":"place_of_worship"},{"id":"xx10190_1040677","name":"Musholla  Al-Muslihun","lat":1.018967,"lng":104.067656,"addr":"Jl. S. Parman","type":"place_of_worship"},{"id":"xx10204_1040704","name":"Masjid Baitul Mutaqin","lat":1.020372,"lng":104.070449,"addr":"Jl. S. Parman","type":"place_of_worship"},{"id":"xx11057_1041307","name":"Masjid Rusun Kabil","lat":1.105744,"lng":104.130746,"addr":"","type":"place_of_worship"},{"id":"xx11127_1039493","name":"MTSN 2 Batam","lat":1.112738,"lng":103.949259,"addr":"Jl.Ir.Sutami","type":"school"},{"id":"xx05178_1014404","name":"Amal Ikhlas","lat":0.517787,"lng":101.440353,"addr":"","type":"place_of_worship"},{"id":"xx05123_1014457","name":"Ar-Rahim","lat":0.512263,"lng":101.445656,"addr":"","type":"place_of_worship"},{"id":"xx05110_1014483","name":"Masjid Ar-Rahman","lat":0.511014,"lng":101.448326,"addr":"","type":"place_of_worship"},{"id":"xx05160_1014383","name":"Baitul Makmur","lat":0.516039,"lng":101.438344,"addr":"","type":"place_of_worship"},{"id":"xx05274_1014401","name":"Masjid Ad-Dakwah","lat":0.527367,"lng":101.440137,"addr":"","type":"place_of_worship"},{"id":"xx05226_1014348","name":"Jami' Muamalah","lat":0.522569,"lng":101.434847,"addr":"","type":"mosque"},{"id":"xx05213_1014321","name":"Masjid Baitul Jalal","lat":0.521344,"lng":101.432057,"addr":"","type":"place_of_worship"},{"id":"xx05182_1014385","name":"Al-Khairun","lat":0.518205,"lng":101.438526,"addr":"","type":"place_of_worship"},{"id":"xx05187_1014344","name":"Al-Fitra","lat":0.518669,"lng":101.434434,"addr":"","type":"place_of_worship"},{"id":"xx05127_1014408","name":"Amilin","lat":0.512732,"lng":101.440773,"addr":"","type":"place_of_worship"},{"id":"xx05129_1014433","name":"Nurul Iman Al-Akhirat","lat":0.512901,"lng":101.443339,"addr":"","type":"place_of_worship"},{"id":"xx05201_1014415","name":"Masjid Al-Mukhlisin","lat":0.520097,"lng":101.441461,"addr":"","type":"place_of_worship"},{"id":"xx05227_1014308","name":"Baitul Izzah","lat":0.522729,"lng":101.430847,"addr":"","type":"place_of_worship"},{"id":"xx05276_1014312","name":"Baitul Muttaqin","lat":0.527603,"lng":101.431196,"addr":"","type":"place_of_worship"},{"id":"xx05270_1014320","name":"Musholla Al-Yaqin","lat":0.527016,"lng":101.431984,"addr":"","type":"place_of_worship"},{"id":"xx05257_1014446","name":"Masjid Al-Israr","lat":0.525714,"lng":101.444615,"addr":"","type":"place_of_worship"},{"id":"xx04862_1014416","name":"Masjid Shiratal Mustaqim","lat":0.486246,"lng":101.441621,"addr":"Jl. Garuda Ujung","type":"place_of_worship"},{"id":"xx04908_1014418","name":"Mesjid Darussalam","lat":0.490763,"lng":101.441755,"addr":"Jalan Katio Ujung, Gg. Kubu indah Tangkerang tengah","type":"place_of_worship"},{"id":"xx04957_1014531","name":"Al Muqaddis","lat":0.495738,"lng":101.453144,"addr":"Jl. Merpati No.8, Tangkerang Tengah","type":"place_of_worship"},{"id":"xx04982_1014537","name":"Quba","lat":0.498212,"lng":101.45367,"addr":"Jalan Puyuh Mas","type":"place_of_worship"},{"id":"xx04994_1014525","name":"Nurul Falah 2","lat":0.499413,"lng":101.452459,"addr":"Jalan Cenderawasih","type":"place_of_worship"},{"id":"xx05014_1014508","name":"Nurul Yakin","lat":0.501357,"lng":101.450805,"addr":"Jalan Cenderawasih","type":"place_of_worship"},{"id":"xx05002_1014467","name":"Ibadah","lat":0.500151,"lng":101.446702,"addr":"Jalan Kereta Api","type":"place_of_worship"},{"id":"xx05046_1014514","name":"Mesjid Islammiyah","lat":0.504583,"lng":101.45141,"addr":"Jl. Sukajadi","type":"place_of_worship"},{"id":"xx05070_1014497","name":"Miftaul Jannah","lat":0.507024,"lng":101.449657,"addr":"Jl. Cempedak 1","type":"place_of_worship"},{"id":"xx04989_1014454","name":"Masjid Istiqomah","lat":0.498866,"lng":101.445358,"addr":"Jl. Garuda No.33","type":"place_of_worship"},{"id":"xx04951_1014452","name":"Al-Munawwarah","lat":0.4951,"lng":101.445205,"addr":"Jl. Garuda","type":"place_of_worship"},{"id":"xx04701_1014192","name":"Mesjid Arrosyidin","lat":0.470062,"lng":101.419216,"addr":"Jl. Soekarno Hatta","type":"place_of_worship"},{"id":"xx04441_1014230","name":"Mesjid Miftahul Hidayah","lat":0.444141,"lng":101.423038,"addr":"Jl. Handayani No.26","type":"place_of_worship"},{"id":"xx04427_1014284","name":"Mesjid Thariqah Jannah","lat":0.442746,"lng":101.428354,"addr":"Jl. Sidodadi RT 3 RW 10","type":"place_of_worship"},{"id":"xx04465_1014262","name":"Mesjid Nurul Ihsan","lat":0.446485,"lng":101.426191,"addr":"Jl. Impres","type":"place_of_worship"},{"id":"xx04418_1014312","name":"Mesjid Al iqra'","lat":0.441845,"lng":101.431198,"addr":"Jl. Provinsi","type":"place_of_worship"},{"id":"xx04367_1014389","name":"Masjid Aulia","lat":0.436729,"lng":101.438915,"addr":"Jl. Melati blok G","type":"place_of_worship"},{"id":"xx04455_1014389","name":"Mesjid Baiturrahman","lat":0.445499,"lng":101.438919,"addr":"Jl. Suhada No.197 RT 5 RW 6","type":"place_of_worship"},{"id":"xx04399_1014424","name":"Mesjid Ar-rahman","lat":0.439943,"lng":101.44236,"addr":"Jl. Kuansing","type":"place_of_worship"},{"id":"xx04427_1014485","name":"Mesjid ramatullah","lat":0.44267,"lng":101.448453,"addr":"Jl.Kartama","type":"place_of_worship"},{"id":"xx04919_1014321","name":"Masjid Nurul Yaqin Muhammadiyah","lat":0.491882,"lng":101.432134,"addr":"Jalan Duyung","type":"place_of_worship"},{"id":"xx04919_1014391","name":"Masjid Al-Ikhlas","lat":0.491903,"lng":101.439065,"addr":"Jalan Paus Indah II","type":"place_of_worship"},{"id":"xx04963_1014485","name":"Al-Muhajirin","lat":0.496273,"lng":101.448522,"addr":"Jl. Neraca No.1 Tangkerang Tengah","type":"place_of_worship"},{"id":"xx04893_1014360","name":"Masjid Al-Azhar","lat":0.489311,"lng":101.435975,"addr":"Jalan Paus Ujung Gg. Al-Azhar","type":"place_of_worship"},{"id":"xx04875_1014381","name":"Masjid Fatimah","lat":0.487524,"lng":101.438075,"addr":"Komplek Paus Flower Residence","type":"place_of_worship"},{"id":"xx04965_1014330","name":"Nurul Muhsinin","lat":0.496501,"lng":101.433019,"addr":"Jl. Ikan Mas","type":"place_of_worship"},{"id":"xx04981_1014270","name":"Tawakkal","lat":0.498147,"lng":101.427035,"addr":"Jl. Todak","type":"place_of_worship"},{"id":"xx05002_1014341","name":"Nurul Hasanah","lat":0.500195,"lng":101.434146,"addr":"Jl. Tiram","type":"place_of_worship"},{"id":"xx05007_1014393","name":"Al-Khairat","lat":0.500661,"lng":101.439287,"addr":"Jl. Paus No.155, Tengkerang Tengah","type":"place_of_worship"},{"id":"xx05029_1014410","name":"Baiturrahman","lat":0.502914,"lng":101.440999,"addr":"Jl. Bawal Kel. Wonorejo","type":"place_of_worship"},{"id":"xx04938_1014274","name":"Masjid Nuruzzakirin","lat":0.493835,"lng":101.427365,"addr":"Jl. Gulama","type":"place_of_worship"},{"id":"xx04642_1014250","name":"Masjid Lillah","lat":0.464242,"lng":101.425009,"addr":"Jl. Adi Sucipto No.15","type":"place_of_worship"},{"id":"xx04809_1014211","name":"Masjid Al'iman","lat":0.480939,"lng":101.421111,"addr":"Jl. Bakti","type":"place_of_worship"},{"id":"xx05055_1014377","name":"Al Mubin","lat":0.505547,"lng":101.437747,"addr":"Jl. Paus no. 2","type":"place_of_worship"},{"id":"xx04772_1014429","name":"Mesjid Al-ikhlas","lat":0.477221,"lng":101.442911,"addr":"Jl. Kaswari","type":"place_of_worship"},{"id":"xx05443_1014126","name":"MASJID SABILUL JANNAH","lat":0.544262,"lng":101.412626,"addr":"Gg. Damai, Tampan, Payung Sekaki","type":"place_of_worship"},{"id":"xx05172_1014022","name":"MASJID AL YUSRO","lat":0.51719,"lng":101.402199,"addr":"Jalan Dharma Bakti","type":"place_of_worship"},{"id":"xx05411_1014178","name":"Masjid Nurul Yaqin 2","lat":0.541101,"lng":101.417762,"addr":"Jalan hangtuah","type":"place_of_worship"},{"id":"xx05436_1014232","name":"MASJID NURUL AMAL","lat":0.543629,"lng":101.423165,"addr":"Jalan Nurul Amal","type":"place_of_worship"},{"id":"xx05313_1014262","name":"Darussalam","lat":0.531274,"lng":101.426189,"addr":"","type":"place_of_worship"},{"id":"xx05100_1014034","name":"MASJID DARUL FITRI","lat":0.51,"lng":101.403434,"addr":"","type":"place_of_worship"},{"id":"xx05081_1014004","name":"MASJID DARUL HIKMAH","lat":0.508139,"lng":101.400401,"addr":"","type":"place_of_worship"},{"id":"xx05366_1014109","name":"MASJID BAITUL MAQDIS","lat":0.536573,"lng":101.410942,"addr":"","type":"place_of_worship"},{"id":"xx05157_1014261","name":"Al Mukhlisin","lat":0.515748,"lng":101.426145,"addr":"","type":"place_of_worship"},{"id":"xx05046_1014237","name":"Amal Mulia","lat":0.504609,"lng":101.423742,"addr":"","type":"place_of_worship"},{"id":"xx05162_1014221","name":"Al Kautsar","lat":0.516236,"lng":101.422144,"addr":"","type":"place_of_worship"},{"id":"xx05389_1014332","name":"MASJID AL GHUFRON","lat":0.538851,"lng":101.433197,"addr":"","type":"place_of_worship"},{"id":"xx05392_1014073","name":"Masjid Al-Muthmainah","lat":0.53919,"lng":101.40725,"addr":"","type":"place_of_worship"},{"id":"xx05125_1013972","name":"MASJID AL HALIM FASTA BIQUL KHAIRAT","lat":0.512517,"lng":101.397234,"addr":"","type":"place_of_worship"},{"id":"xx05333_1014194","name":"MASJID AL IKHLAS","lat":0.533329,"lng":101.419367,"addr":"","type":"place_of_worship"},{"id":"xx05138_1014278","name":"Al Hidayah","lat":0.513777,"lng":101.427825,"addr":"","type":"place_of_worship"},{"id":"xx05212_1014260","name":"Al Furqaan","lat":0.521162,"lng":101.425962,"addr":"","type":"place_of_worship"},{"id":"xx05119_1014086","name":"MASJID ASY SYUHADA","lat":0.511855,"lng":101.408647,"addr":"","type":"place_of_worship"},{"id":"xx05322_1014145","name":"MASJID AL MAGHFIRAH","lat":0.532222,"lng":101.414529,"addr":"","type":"place_of_worship"},{"id":"xx05403_1014240","name":"Al Jamik","lat":0.540288,"lng":101.424036,"addr":"","type":"mosque"},{"id":"xx05139_1014059","name":"MUSHOLLA NURUL ISLAM","lat":0.513853,"lng":101.405895,"addr":"","type":"place_of_worship"},{"id":"xx05106_1014252","name":"Baitul Amaan","lat":0.510569,"lng":101.42522,"addr":"","type":"place_of_worship"},{"id":"xx05058_1014293","name":"Amal Ikhlas","lat":0.505827,"lng":101.429306,"addr":"","type":"place_of_worship"},{"id":"xx05104_1014146","name":"MUSHOLLA AL MUTASHIN","lat":0.510392,"lng":101.4146,"addr":"","type":"place_of_worship"},{"id":"xx05405_1014246","name":"Al Jamiatul Mahmudah","lat":0.540484,"lng":101.424637,"addr":"","type":"place_of_worship"},{"id":"xx05027_1013716","name":"MUSHOLLA ASSAKINAH","lat":0.502707,"lng":101.371615,"addr":"","type":"place_of_worship"},{"id":"xx05323_1014067","name":"MUSHOLLA NURUL IMAN","lat":0.532335,"lng":101.406694,"addr":"","type":"place_of_worship"},{"id":"xx04661_1013716","name":"Darul Jannah","lat":0.466113,"lng":101.371646,"addr":"Jalan Merpati Sakti","type":"place_of_worship"},{"id":"xx05068_1015151","name":"Jami'Atus Salam","lat":0.506797,"lng":101.515077,"addr":"","type":"place_of_worship"},{"id":"xx11320_1040252","name":"Musholla Dahrul Hidaya","lat":1.132032,"lng":104.025161,"addr":"","type":"place_of_worship"},{"id":"xx11079_1040507","name":"Taman Pendidikan al-Qur’an","lat":1.107876,"lng":104.050689,"addr":"","type":"place_of_worship"},{"id":"xx08559_1004470","name":"Masjid Darul Istiqomah","lat":0.855911,"lng":100.446997,"addr":"","type":"place_of_worship"},{"id":"xx08826_1002917","name":"Masjid Ar Rahman","lat":0.882599,"lng":100.291688,"addr":"","type":"place_of_worship"},{"id":"xx05076_1015121","name":"Al Manar","lat":0.507633,"lng":101.512083,"addr":"","type":"place_of_worship"},{"id":"xx05118_1015145","name":"Masjid Az-Zahidin","lat":0.511801,"lng":101.514503,"addr":"","type":"place_of_worship"},{"id":"xx05118_1015235","name":"Islamic place","lat":0.511828,"lng":101.523451,"addr":"","type":"place_of_worship"},{"id":"xx14747_1021258","name":"Islamic place","lat":1.474741,"lng":102.125758,"addr":"","type":"place_of_worship"},{"id":"xx14729_1021285","name":"Rumah Cerdas Al'Qur-an","lat":1.472854,"lng":102.128535,"addr":"Gg. Cahaya","type":"school"},{"id":"xx14753_1021163","name":"Mushola","lat":1.475315,"lng":102.116341,"addr":"Jl. Al Muslihin","type":"place_of_worship"},{"id":"xx14576_1021380","name":"Mushola","lat":1.457635,"lng":102.138012,"addr":"Jl. Panglima Minal","type":"place_of_worship"},{"id":"xx14559_1021512","name":"Mushola","lat":1.455869,"lng":102.151218,"addr":"","type":"place_of_worship"},{"id":"xx14716_1021280","name":"Mushola","lat":1.471608,"lng":102.128009,"addr":"Gg. Cahaya","type":"place_of_worship"},{"id":"xx14564_1021568","name":"Mushola","lat":1.456438,"lng":102.156762,"addr":"Jl. Bengkalis","type":"place_of_worship"},{"id":"xx14500_1021583","name":"Mushola","lat":1.450014,"lng":102.158327,"addr":"Jl. Bengkalis","type":"place_of_worship"},{"id":"xx14701_1021136","name":"Mushola","lat":1.470123,"lng":102.113609,"addr":"Jl. Hang Tuah","type":"place_of_worship"},{"id":"xx15029_1020928","name":"Islamic place","lat":1.502931,"lng":102.092781,"addr":"","type":"place_of_worship"},{"id":"xx14847_1021356","name":"TPU Senggoro","lat":1.484708,"lng":102.13559,"addr":"Jl. Bantan","type":"grave_yard"},{"id":"xx14883_1021186","name":"TPU","lat":1.488281,"lng":102.118583,"addr":"Jl. Wonosari Tengah","type":"grave_yard"},{"id":"xx05339_1014988","name":"Islamic place","lat":0.533908,"lng":101.498828,"addr":"","type":"place_of_worship"},{"id":"xx05091_1014650","name":"Islamic place","lat":0.509063,"lng":101.465,"addr":"","type":"place_of_worship"},{"id":"xx05158_1014614","name":"Mesjid Al Mukminin","lat":0.515778,"lng":101.46142,"addr":"","type":"place_of_worship"},{"id":"xx04551_1014648","name":"Masjid Al-kautsar","lat":0.455112,"lng":101.464846,"addr":"","type":"place_of_worship"},{"id":"xx04923_1014621","name":"Masjid Al ikhwan","lat":0.492264,"lng":101.462134,"addr":"","type":"place_of_worship"},{"id":"xx04897_1014618","name":"Mushalla Amaliyah","lat":0.489698,"lng":101.461751,"addr":"","type":"place_of_worship"},{"id":"xx04936_1014598","name":"Mushalla Rahmatu","lat":0.493605,"lng":101.459819,"addr":"","type":"place_of_worship"},{"id":"xx04721_1014817","name":"Masjid Nurul Jannah","lat":0.472071,"lng":101.481663,"addr":"","type":"place_of_worship"},{"id":"xx05008_1014712","name":"Masjid Ar-Raudhah","lat":0.50078,"lng":101.471179,"addr":"","type":"place_of_worship"},{"id":"xx04918_1014542","name":"Al-Furqan","lat":0.491834,"lng":101.45416,"addr":"","type":"place_of_worship"},{"id":"xx04529_1014529","name":"Masjid Al-Ikhlas","lat":0.452943,"lng":101.452884,"addr":"","type":"place_of_worship"},{"id":"xx04922_1014555","name":"Masjid Al Furqon","lat":0.492177,"lng":101.455456,"addr":"","type":"place_of_worship"},{"id":"xx05090_1014682","name":"MESJID JABAL RAHMAH","lat":0.509005,"lng":101.468157,"addr":"","type":"place_of_worship"},{"id":"xx05036_1014590","name":"MESJID NURUL IKHLAS","lat":0.503639,"lng":101.459007,"addr":"","type":"place_of_worship"},{"id":"xx04794_1014626","name":"Masjid Sidratul Muntaha","lat":0.47944,"lng":101.462642,"addr":"","type":"place_of_worship"},{"id":"xx04765_1014697","name":"Masjid Al-Amin","lat":0.476498,"lng":101.469713,"addr":"","type":"place_of_worship"},{"id":"xx04727_1014586","name":"Masjid Al-Fayyadh","lat":0.472701,"lng":101.458558,"addr":"","type":"place_of_worship"},{"id":"xx04825_1014684","name":"masjid As Salam","lat":0.482452,"lng":101.468424,"addr":"","type":"place_of_worship"},{"id":"xx05011_1014558","name":"MESJID NURUL JANNAH","lat":0.501145,"lng":101.455817,"addr":"","type":"place_of_worship"},{"id":"xx04979_1014649","name":"Masjid Al-Muhajirin","lat":0.497916,"lng":101.464871,"addr":"","type":"place_of_worship"},{"id":"xx04915_1014539","name":"masjid nurul jamaah","lat":0.49146,"lng":101.45391,"addr":"","type":"place_of_worship"},{"id":"xx04898_1014636","name":"MESJID HIDAYATULLAH","lat":0.489789,"lng":101.463575,"addr":"","type":"place_of_worship"},{"id":"xx04603_1014648","name":"Masjid subulussalam","lat":0.460261,"lng":101.464808,"addr":"","type":"place_of_worship"},{"id":"xx03603_1012364","name":"Surau Sarikatul Ubudiyah","lat":0.360251,"lng":101.236385,"addr":"","type":"place_of_worship"},{"id":"xx04520_1014757","name":"Masjid Baitul Ma’mur","lat":0.451964,"lng":101.475689,"addr":"","type":"place_of_worship"},{"id":"xx04530_1014559","name":"Masjid Baitul Hikmah","lat":0.453001,"lng":101.455869,"addr":"","type":"place_of_worship"},{"id":"xx04865_1014655","name":"MESJID NURUL IMAN","lat":0.486513,"lng":101.465491,"addr":"","type":"place_of_worship"},{"id":"xx05090_1014650","name":"Masjid Riyadhul jannah","lat":0.509048,"lng":101.46496,"addr":"","type":"place_of_worship"},{"id":"xx05006_1014629","name":"Masjid Raudhatul Amilin","lat":0.500594,"lng":101.462856,"addr":"","type":"place_of_worship"},{"id":"xx08873_1003037","name":"Masjid Daru Jannah","lat":0.887324,"lng":100.303674,"addr":"Jl. Keramat Apeh","type":"place_of_worship"},{"id":"xx09699_1002539","name":"Masjid Al Wustho","lat":0.969855,"lng":100.253884,"addr":"","type":"place_of_worship"},{"id":"xx04925_1014563","name":"Islamic place","lat":0.492489,"lng":101.45626,"addr":"","type":"place_of_worship"},{"id":"xx05077_1014857","name":"Islamic place","lat":0.507735,"lng":101.485737,"addr":"","type":"place_of_worship"},{"id":"xx10052_1027161","name":"Masjid Nurul Iman","lat":1.00523,"lng":102.716138,"addr":"Jl. Budaya","type":"place_of_worship"},{"id":"xx10341_1039960","name":"Masjid Dhiya'ul Jannah","lat":1.034073,"lng":103.995982,"addr":"Jl.Trans Barelang","type":"place_of_worship"},{"id":"xx03835_1018303","name":"MASJID ULUL AZMI PEMDA PELALAWAN","lat":0.383524,"lng":101.830315,"addr":"","type":"place_of_worship"},{"id":"xx10326_1041290","name":"MASJID AS-SHOLIHIN PUNGGUR","lat":1.032613,"lng":104.129031,"addr":"","type":"place_of_worship"},{"id":"xx10470_1039448","name":"Masjid Al Barokah","lat":1.046967,"lng":103.94483,"addr":"","type":"place_of_worship"},{"id":"xx09462_1037649","name":"Masjid Al-kautsar","lat":0.946243,"lng":103.764932,"addr":"","type":"place_of_worship"},{"id":"xx11359_1040302","name":"Mesjid Al Istiqomah","lat":1.135875,"lng":104.030177,"addr":"","type":"place_of_worship"},{"id":"xx09473_1037655","name":"SURAU AN-NUR","lat":0.947305,"lng":103.765484,"addr":"","type":"place_of_worship"},{"id":"xx10430_1039390","name":"Masjid Al Hidayah","lat":1.042972,"lng":103.939014,"addr":"","type":"place_of_worship"},{"id":"xx10366_1039726","name":"Masjid Al Muslimin","lat":1.03661,"lng":103.972554,"addr":"","type":"place_of_worship"},{"id":"xx10423_1040544","name":"Masjid Al Jatsiyah","lat":1.042268,"lng":104.054397,"addr":"Jl.S.Parman","type":"place_of_worship"},{"id":"xx10297_1040500","name":"Masjid Agung Lintas Mangsang","lat":1.029714,"lng":104.050035,"addr":"","type":"place_of_worship"},{"id":"xx11032_1039693","name":"baitul makmur","lat":1.103178,"lng":103.969259,"addr":"","type":"place_of_worship"},{"id":"xx11297_1040367","name":"Mushola Ar Rahman","lat":1.12965,"lng":104.036652,"addr":"","type":"place_of_worship"},{"id":"xx10379_1039420","name":"Musholla Al Jihad Muhajirin","lat":1.037932,"lng":103.941997,"addr":"","type":"place_of_worship"},{"id":"xx10410_1039412","name":"Al Mutma'inah","lat":1.040978,"lng":103.941187,"addr":"","type":"place_of_worship"},{"id":"xx10396_1039579","name":"Masjid Darul Maghfiroh","lat":1.039634,"lng":103.957914,"addr":"","type":"place_of_worship"},{"id":"xx10318_1039620","name":"Masjid Flamboyan","lat":1.031796,"lng":103.962003,"addr":"","type":"place_of_worship"},{"id":"xx10331_1039576","name":"Masjid Al - Muttaqin","lat":1.033136,"lng":103.957578,"addr":"","type":"place_of_worship"},{"id":"xx10557_1039795","name":"Masjid At-Taqwa","lat":1.055689,"lng":103.979494,"addr":"Jl.Soeprapto","type":"place_of_worship"},{"id":"xx10468_1039843","name":"Masjid Nurul Haq","lat":1.04676,"lng":103.984337,"addr":"","type":"place_of_worship"},{"id":"xx10471_1039845","name":"TK, SD, SMP Islam Nurul Haq","lat":1.047124,"lng":103.984473,"addr":"","type":"school"},{"id":"xx10490_1039815","name":"Integral School Hidayatullah Batam","lat":1.048989,"lng":103.981495,"addr":"","type":"school"},{"id":"xx10508_1039794","name":"SDIT DARUSSALAM 01 BATAM","lat":1.050834,"lng":103.979385,"addr":"batam","type":"school"},{"id":"xx10510_1039791","name":"Yayasan Darussalam Batam","lat":1.051022,"lng":103.979075,"addr":"jl ddd","type":"school"},{"id":"xx10354_1039619","name":"MASJID DARUL IKHSAN","lat":1.035388,"lng":103.96188,"addr":"KAV NATO BERSERI","type":"place_of_worship"},{"id":"xx10351_1039605","name":"INSANUL MADANI NAHDATUL WATHAN","lat":1.035133,"lng":103.960472,"addr":"KAV NATO NBERSERI","type":"place_of_worship"},{"id":"xx11398_1039940","name":"masjid el yassin","lat":1.139774,"lng":103.993975,"addr":"tanjung uma","type":"place_of_worship"},{"id":"xx10342_1039427","name":"Masjid Baitussalam","lat":1.034177,"lng":103.942666,"addr":"","type":"place_of_worship"},