[{"id":"xx04710_340931","name":"Bukhaar Islamic Nursery and Primary School Mawero","lat":0.47099,"lng":34.093148,"addr":"Agule Road","type":"school"},{"id":"xx00807_346389","name":"Esibuye Mosque","lat":0.080713,"lng":34.638944,"addr":"","type":"place_of_worship"},{"id":"xx03342_344895","name":"Jamia Mosque Mumias","lat":0.334162,"lng":34.489483,"addr":"Mumias-Bungoma Road","type":"place_of_worship"},{"id":"xx02827_347476","name":"Jamia Mosque Kakamega","lat":0.282673,"lng":34.747644,"addr":"Kakamega-Mumias Road","type":"place_of_worship"},{"id":"xx37494_348142","name":"Islamic place","lat":3.749441,"lng":34.814208,"addr":"","type":"place_of_worship"},{"id":"xx37473_348151","name":"Masjid Allah","lat":3.747337,"lng":34.815118,"addr":"","type":"place_of_worship"},{"id":"xx37090_348636","name":"Islamic place","lat":3.709002,"lng":34.86358,"addr":"","type":"place_of_worship"},{"id":"xx37516_348137","name":"Islamic place","lat":3.751631,"lng":34.813729,"addr":"","type":"place_of_worship"},{"id":"xx37491_348150","name":"Fatmulat Masjid","lat":3.749064,"lng":34.815047,"addr":"","type":"place_of_worship"},{"id":"xx37483_348170","name":"Masjid Rahman","lat":3.748319,"lng":34.816989,"addr":"","type":"place_of_worship"},{"id":"xx37483_348227","name":"Islamic place","lat":3.748288,"lng":34.822723,"addr":"","type":"place_of_worship"},{"id":"xx37682_348238","name":"Islamic place","lat":3.768203,"lng":34.823822,"addr":"","type":"place_of_worship"},{"id":"xx37656_348238","name":"Islamic place","lat":3.765559,"lng":34.823841,"addr":"","type":"place_of_worship"},{"id":"xx37664_348236","name":"Islamic place","lat":3.766386,"lng":34.823563,"addr":"","type":"place_of_worship"},{"id":"xx37634_348235","name":"Islamic place","lat":3.763396,"lng":34.82348,"addr":"","type":"place_of_worship"},{"id":"xx37594_348194","name":"Islamic place","lat":3.759358,"lng":34.819446,"addr":"","type":"place_of_worship"},{"id":"xx37670_348181","name":"Islamic place","lat":3.766971,"lng":34.81814,"addr":"","type":"place_of_worship"},{"id":"xx37582_348142","name":"Masjid Noor Emal","lat":3.758164,"lng":34.8142,"addr":"","type":"place_of_worship"},{"id":"xx37587_348129","name":"Islamic place","lat":3.758727,"lng":34.812928,"addr":"","type":"place_of_worship"},{"id":"xx37245_348491","name":"Masjid Abi Bakar Mosque","lat":3.724462,"lng":34.849126,"addr":"","type":"place_of_worship"},{"id":"xx37244_348490","name":"Bilal Mosque","lat":3.724373,"lng":34.84902,"addr":"","type":"place_of_worship"},{"id":"xx37243_348494","name":"Tofir Mosque","lat":3.724315,"lng":34.849377,"addr":"","type":"place_of_worship"},{"id":"xx37670_348198","name":"Islamic place","lat":3.767035,"lng":34.819839,"addr":"","type":"place_of_worship"},{"id":"xx37667_348220","name":"Mosque","lat":3.766658,"lng":34.821993,"addr":"","type":"place_of_worship"},{"id":"xx37657_348210","name":"Islamic place","lat":3.765747,"lng":34.82101,"addr":"","type":"place_of_worship"},{"id":"xx37657_348214","name":"Al- Madrasatu Binu Masuud","lat":3.765658,"lng":34.821419,"addr":"","type":"place_of_worship"},{"id":"xx37492_347585","name":"Mosque Islamic Religion","lat":3.749232,"lng":34.758527,"addr":"","type":"place_of_worship"},{"id":"xx37231_348501","name":"Masjid Abi Bakar","lat":3.723136,"lng":34.850133,"addr":"","type":"place_of_worship"},{"id":"xx37275_348448","name":"Islamic place","lat":3.727532,"lng":34.844798,"addr":"","type":"place_of_worship"},{"id":"xx37322_348415","name":"Al Hidaya Mosque","lat":3.732158,"lng":34.84152,"addr":"","type":"place_of_worship"},{"id":"xx37180_348498","name":"Oromo Mosque","lat":3.717978,"lng":34.849837,"addr":"","type":"place_of_worship"},{"id":"xx37181_348498","name":"Oromo Mosque","lat":3.718139,"lng":34.849751,"addr":"","type":"place_of_worship"},{"id":"xx37522_348423","name":"Mosque Hussain","lat":3.752154,"lng":34.842253,"addr":"","type":"place_of_worship"},{"id":"xx37178_348471","name":"Umul Quran Islamic Center","lat":3.717757,"lng":34.847059,"addr":"","type":"place_of_worship"},{"id":"xx00959_339760","name":"Port Victoria Mosque","lat":0.095857,"lng":33.975967,"addr":"","type":"place_of_worship"},{"id":"xx10269_349910","name":"Islamic place","lat":1.026893,"lng":34.99097,"addr":"","type":"place_of_worship"},{"id":"xx01834_342958","name":"Ugunja Mosque","lat":0.183396,"lng":34.295821,"addr":"","type":"place_of_worship"},{"id":"xx01835_342959","name":"Islamic place","lat":0.183452,"lng":34.295856,"addr":"","type":"place_of_worship"},{"id":"xx03347_345065","name":"Islamic place","lat":0.334691,"lng":34.506527,"addr":"","type":"yes"},{"id":"xx00161_343428","name":"Masjid Musa King Abdalla","lat":0.016083,"lng":34.342808,"addr":"","type":"yes"},{"id":"xx00618_342853","name":"Islamic place","lat":0.061816,"lng":34.285336,"addr":"","type":"mosque"},{"id":"xx10353_349749","name":"St. James Church Matisi","lat":1.035264,"lng":34.974943,"addr":"Kitale Suam Road","type":"yes"},{"id":"xx10238_349995","name":"Laini Moja Mosque","lat":1.023831,"lng":34.999543,"addr":"Mumia Highway","type":"place_of_worship"},{"id":"xx37479_348375","name":"Hong Kong Mosque","lat":3.747887,"lng":34.837532,"addr":"","type":"yes"},{"id":"xx37597_348235","name":"Al-muhajirin Mosque","lat":3.759702,"lng":34.823544,"addr":"","type":"yes"},{"id":"xx37612_348201","name":"Al Qusam","lat":3.761173,"lng":34.820115,"addr":"","type":"yes"},{"id":"xx37616_348226","name":"Islamic place","lat":3.761615,"lng":34.822646,"addr":"","type":"yes"},{"id":"xx37503_348177","name":"Masjid Arahuma","lat":3.750279,"lng":34.817713,"addr":"","type":"mosque"},{"id":"xx37571_348183","name":"Masjid Tawifiq","lat":3.757072,"lng":34.8183,"addr":"","type":"yes"},{"id":"xx37616_348214","name":"Islamic place","lat":3.76159,"lng":34.821395,"addr":"","type":"yes"},{"id":"xx37640_348192","name":"Baba Al Masjid Musa Ahmad Muingwa","lat":3.764018,"lng":34.819215,"addr":"","type":"yes"},{"id":"xx37593_348236","name":"Masjid Almihajiriin","lat":3.759325,"lng":34.823562,"addr":"","type":"yes"},{"id":"xx37539_348263","name":"Islamic place","lat":3.753902,"lng":34.826271,"addr":"","type":"yes"},{"id":"xx37550_348177","name":"Masjid Jamia","lat":3.755023,"lng":34.81767,"addr":"","type":"yes"},{"id":"xx37501_348213","name":"Islamic place","lat":3.750089,"lng":34.821314,"addr":"","type":"mosque"},{"id":"xx37648_348173","name":"Islamic place","lat":3.764801,"lng":34.817295,"addr":"","type":"yes"},{"id":"xx37639_348204","name":"Islamic place","lat":3.763934,"lng":34.820435,"addr":"","type":"yes"},{"id":"xx37090_348644","name":"Kakuma Mosque","lat":3.70898,"lng":34.864435,"addr":"Lodwar-Lokichogio Road","type":"mosque"},{"id":"xx37147_348523","name":"Libyan Mosque","lat":3.714728,"lng":34.852289,"addr":"","type":"yes"},{"id":"xx37570_348268","name":"Masjid Husein","lat":3.757043,"lng":34.826798,"addr":"","type":"mosque"},{"id":"xx37555_348270","name":"Masjid Al-rahma","lat":3.755537,"lng":34.826978,"addr":"","type":"yes"},{"id":"xx37645_348161","name":"Islamic place","lat":3.76451,"lng":34.816132,"addr":"","type":"yes"},{"id":"xx37523_348146","name":"Masjid Alnoor","lat":3.752332,"lng":34.814649,"addr":"","type":"yes"},{"id":"xx37634_348163","name":"Islamic place","lat":3.763417,"lng":34.816303,"addr":"","type":"yes"},{"id":"xx37625_348141","name":"Islamic place","lat":3.762477,"lng":34.814132,"addr":"","type":"chapel"},{"id":"xx37603_348123","name":"Masjid Hidaya","lat":3.760278,"lng":34.812349,"addr":"","type":"yes"},{"id":"xx37610_348130","name":"Islamic place","lat":3.760973,"lng":34.812992,"addr":"","type":"church"},{"id":"xx37605_348143","name":"Masjid Haqilam Al Haqilam","lat":3.760524,"lng":34.814337,"addr":"","type":"church"},{"id":"xx37598_348135","name":"Masjid Rahma","lat":3.75977,"lng":34.813532,"addr":"","type":"church"},{"id":"xx37564_348138","name":"Masjid Bilal","lat":3.756384,"lng":34.81378,"addr":"","type":"yes"},{"id":"xx37570_348134","name":"Masjidil Huseen","lat":3.756953,"lng":34.813404,"addr":"","type":"yes"},{"id":"xx37532_348097","name":"Masjid Taubh","lat":3.75323,"lng":34.809689,"addr":"","type":"church"},{"id":"xx04594_340882","name":"Mugungu Limbo","lat":0.459391,"lng":34.088225,"addr":"","type":"mosque"},{"id":"xx37155_348486","name":"Islamic place","lat":3.71552,"lng":34.848568,"addr":"","type":"yes"},{"id":"xx37626_348204","name":"Masjid Al-mohamed","lat":3.762644,"lng":34.820356,"addr":"","type":"yes"},{"id":"xx37091_348644","name":"Islamic place","lat":3.709119,"lng":34.864358,"addr":"Lodwar-Lokichogio Road","type":"place_of_worship"},{"id":"xx37542_348113","name":"Masjid Caf","lat":3.754203,"lng":34.81126,"addr":"","type":"yes"},{"id":"xx37162_348500","name":"Nurhud Mosque","lat":3.716222,"lng":34.84998,"addr":"","type":"yes"},{"id":"xx02346_345662","name":"Eshitoyi mosque","lat":0.234616,"lng":34.56619,"addr":"","type":"mosque"},{"id":"xx01834_342959","name":"Islamic place","lat":0.183438,"lng":34.295852,"addr":"","type":"place_of_worship"},{"id":"xx37583_348192","name":"Islamic place","lat":3.758289,"lng":34.819186,"addr":"","type":"yes"},{"id":"xx37593_348235","name":"Masjid Almihajiriin","lat":3.759323,"lng":34.823546,"addr":"","type":"yes"},{"id":"xx37524_348168","name":"Islamic place","lat":3.752384,"lng":34.816803,"addr":"","type":"yes"},{"id":"xx37600_348179","name":"Masjid Taqwah","lat":3.760034,"lng":34.817872,"addr":"","type":"yes"},{"id":"xx37576_348162","name":"Masjid Noor","lat":3.757598,"lng":34.816248,"addr":"","type":"yes"},{"id":"xx37573_348144","name":"Masjid Al Haqsa","lat":3.757255,"lng":34.814443,"addr":"","type":"yes"},{"id":"xx37557_348244","name":"Islamic place","lat":3.755741,"lng":34.824383,"addr":"","type":"yes"},{"id":"xx03550_326144","name":"Islamic place","lat":0.354969,"lng":32.614382,"addr":"","type":"place_of_worship"},{"id":"xx03097_326521","name":"St. James Catholic Parish Butabika","lat":0.309679,"lng":32.652059,"addr":"","type":"place_of_worship"},{"id":"xx03526_326263","name":"Kyambogo University Muslim Association","lat":0.352558,"lng":32.626295,"addr":"","type":"place_of_worship"},{"id":"xx03163_326324","name":"Kintale Mosque / Masjid Noor","lat":0.316266,"lng":32.632388,"addr":"","type":"place_of_worship"},{"id":"xx02457_325377","name":"Islamic place","lat":0.245698,"lng":32.537707,"addr":"","type":"place_of_worship"},{"id":"xx04632_332322","name":"Islamic place","lat":0.463247,"lng":33.232213,"addr":"","type":"place_of_worship"},{"id":"xx06243_334961","name":"Islamic place","lat":0.624317,"lng":33.496093,"addr":"","type":"place_of_worship"},{"id":"xx03991_326210","name":"Buwate Mosque","lat":0.399063,"lng":32.621047,"addr":"","type":"place_of_worship"},{"id":"xx03819_326289","name":"Najeera Mosque","lat":0.381886,"lng":32.628912,"addr":"","type":"mosque"},{"id":"xx02545_326359","name":"Islamic place","lat":0.254536,"lng":32.635936,"addr":"Kampala","type":"place_of_worship"},{"id":"xx03288_325524","name":"Islamic place","lat":0.3288,"lng":32.552368,"addr":"","type":"place_of_worship"},{"id":"xx03854_329672","name":"Islamic place","lat":0.385428,"lng":32.967237,"addr":"","type":"place_of_worship"},{"id":"xx04324_332142","name":"Islamic place","lat":0.432418,"lng":33.214184,"addr":"","type":"place_of_worship"},{"id":"xx03666_326047","name":"Kisaasi Mosque","lat":0.366562,"lng":32.604651,"addr":"","type":"place_of_worship"},{"id":"xx06938_341979","name":"Islamic place","lat":0.693803,"lng":34.197931,"addr":"","type":"place_of_worship"},{"id":"xx03040_326013","name":"Masjid Jamia Mosque","lat":0.303973,"lng":32.601258,"addr":"","type":"place_of_worship"},{"id":"xx30363_309139","name":"Islamic University in Uganda Office","lat":3.036279,"lng":30.91388,"addr":"","type":"university"},{"id":"xx02498_323903","name":"Wamatovu","lat":0.249821,"lng":32.390276,"addr":"","type":"place_of_worship"},{"id":"xx10747_341629","name":"Islamic place","lat":1.074721,"lng":34.162876,"addr":"","type":"mosque"},{"id":"xx10418_343343","name":"Shanzou Mosque","lat":1.04182,"lng":34.3343,"addr":"","type":"place_of_worship"},{"id":"xx32964_328800","name":"Islamic place","lat":3.29639,"lng":32.87996,"addr":"","type":"place_of_worship"},{"id":"xx03456_320010","name":"Butebi Islamic Primary School","lat":0.345565,"lng":32.001037,"addr":"Butebi A","type":"school"},{"id":"xx02947_321878","name":"Lukabazi Muslim Primary School","lat":0.294652,"lng":32.1878,"addr":"Kiwooya- Bweza","type":"school"},{"id":"xx06560_302769","name":"Kabarole Main Mosque","lat":0.655971,"lng":30.276944,"addr":"","type":"place_of_worship"},{"id":"xx04874_333892","name":"Islamic place","lat":0.487352,"lng":33.389211,"addr":"","type":"place_of_worship"},{"id":"xx02899_325630","name":"Islamic place","lat":0.28988,"lng":32.562952,"addr":"","type":"place_of_worship"},{"id":"xx36535_317217","name":"Main Mosque Moyo Town","lat":3.653477,"lng":31.721702,"addr":"","type":"place_of_worship"},{"id":"xx02350_325509","name":"Islamic place","lat":0.235031,"lng":32.550893,"addr":"","type":"place_of_worship"},{"id":"xx04759_332637","name":"Islamic place","lat":0.475928,"lng":33.263684,"addr":"Jinja - Mbale - Tororo Road","type":"place_of_worship"},{"id":"xx04639_332662","name":"Islamic place","lat":0.463945,"lng":33.266199,"addr":"","type":"place_of_worship"},{"id":"xx03092_321508","name":"Masjid Kakindu","lat":0.309215,"lng":32.150831,"addr":"","type":"mosque"},{"id":"xx03280_326188","name":"MUBS Mosque","lat":0.327953,"lng":32.618753,"addr":"","type":"mosque"},{"id":"xx02815_325641","name":"Islamic place","lat":0.281523,"lng":32.564053,"addr":"","type":"place_of_worship"},{"id":"xx03332_325568","name":"Kasubi Mosque","lat":0.33315,"lng":32.556753,"addr":"","type":"place_of_worship"},{"id":"xx08451_324899","name":"Islamic place","lat":0.845131,"lng":32.489928,"addr":"","type":"place_of_worship"},{"id":"xx08600_325249","name":"Islamic place","lat":0.859961,"lng":32.524866,"addr":"","type":"place_of_worship"},{"id":"xx03637_325695","name":"Islamic place","lat":0.363725,"lng":32.569512,"addr":"","type":"place_of_worship"},{"id":"xx08357_324982","name":"Saime Akdemir Câmii","lat":0.835651,"lng":32.498224,"addr":"","type":"place_of_worship"},{"id":"xx07110_325211","name":"Katuudde Muslim Secondary School","lat":0.711005,"lng":32.52113,"addr":"","type":"school"},{"id":"xx03410_325982","name":"Kololo Jamia Mosque","lat":0.341048,"lng":32.598246,"addr":"","type":"place_of_worship"},{"id":"xx06026_324766","name":"Ndejje Mosque","lat":0.602598,"lng":32.47656,"addr":"","type":"place_of_worship"},{"id":"xx10772_340939","name":"al hamudulai mosque","lat":1.077176,"lng":34.093935,"addr":"","type":"place_of_worship"},{"id":"xx08537_324716","name":"Islamic place","lat":0.853663,"lng":32.471599,"addr":"","type":"place_of_worship"},{"id":"xx08452_324927","name":"Luweero Islamic Primary School","lat":0.845158,"lng":32.492727,"addr":"","type":"school"},{"id":"xx08456_324925","name":"Islamic place","lat":0.845604,"lng":32.492522,"addr":"","type":"place_of_worship"},{"id":"xx08464_324533","name":"Islamic place","lat":0.84636,"lng":32.45329,"addr":"","type":"place_of_worship"},{"id":"xx05964_325325","name":"Islamic place","lat":0.596397,"lng":32.532543,"addr":"","type":"place_of_worship"},{"id":"xx16732_317404","name":"Kirasa Moslem Primary School","lat":1.673172,"lng":31.740414,"addr":"Kirasa II","type":"school"},{"id":"xx16498_317911","name":"Islamic place","lat":1.649769,"lng":31.791149,"addr":"","type":"place_of_worship"},{"id":"xx17756_317162","name":"Kilanyi Moslem Primary School","lat":1.775647,"lng":31.716228,"addr":"Kilanyi","type":"school"},{"id":"xx18182_317052","name":"Islamic place","lat":1.81824,"lng":31.70517,"addr":"","type":"place_of_worship"},{"id":"xx16748_317367","name":"Kirasa Central Mosque","lat":1.674848,"lng":31.736732,"addr":"","type":"place_of_worship"},{"id":"xx16776_317298","name":"Islamic place","lat":1.677606,"lng":31.729843,"addr":"","type":"place_of_worship"},{"id":"xx06678_326581","name":"Islamic place","lat":0.66783,"lng":32.658141,"addr":"","type":"place_of_worship"},{"id":"xx06886_326080","name":"Islamic place","lat":0.688574,"lng":32.608039,"addr":"","type":"place_of_worship"},{"id":"xx13557_323749","name":"Islamic place","lat":1.355679,"lng":32.374927,"addr":"","type":"place_of_worship"},{"id":"xx14190_321992","name":"Islamic place","lat":1.418967,"lng":32.199173,"addr":"","type":"place_of_worship"},{"id":"xx09443_324702","name":"Islamic place","lat":0.944314,"lng":32.47024,"addr":"","type":"place_of_worship"},{"id":"xx03065_325694","name":"Tawhid Islamic Primary School","lat":0.306542,"lng":32.569418,"addr":"","type":"school"},{"id":"xx07480_325156","name":"Islamic place","lat":0.747987,"lng":32.515605,"addr":"","type":"place_of_worship"},{"id":"xx03675_329356","name":"Luzira Mosque","lat":0.367518,"lng":32.935581,"addr":"","type":"place_of_worship"},{"id":"xx10457_337985","name":"Islamic place","lat":1.045662,"lng":33.798478,"addr":"","type":"place_of_worship"},{"id":"xx06550_302687","name":"Kisenyi Mien Mosque","lat":0.65502,"lng":30.268657,"addr":"","type":"place_of_worship"},{"id":"xx06526_302377","name":"Butebe Mosque","lat":0.652612,"lng":30.237727,"addr":"","type":"place_of_worship"},{"id":"xx10202_341774","name":"Noor Islamic Institute","lat":1.020194,"lng":34.177377,"addr":"Mbale","type":"school"},{"id":"xx10812_342703","name":"Imam Hussein Madressah Primary School","lat":1.081189,"lng":34.270274,"addr":"Mbale","type":"school"},{"id":"xx07026_329121","name":"Islamic place","lat":0.702638,"lng":32.91207,"addr":"","type":"place_of_worship"},{"id":"xx11009_341876","name":"Kasanvu Muslim Education Centre","lat":1.100915,"lng":34.187573,"addr":"Mbale","type":"school"},{"id":"xx11023_342048","name":"Kasanvu Muslim Education Centre","lat":1.102338,"lng":34.204803,"addr":"Budadiri Road","type":"school"},{"id":"xx10328_343706","name":"Bumwalye Primary School","lat":1.032771,"lng":34.370642,"addr":"Bumwalye TRC","type":"school"},{"id":"xx13188_342947","name":"Bungwanyi Muslim Primary School","lat":1.31882,"lng":34.2947,"addr":"Bulambuli Town Coucil","type":"school"},{"id":"xx13631_340295","name":"Tamula Moslem Primary School","lat":1.36311,"lng":34.029544,"addr":"","type":"school"},{"id":"xx08998_308833","name":"Isunga Islamic Primary School","lat":0.89979,"lng":30.883252,"addr":"Kinywataba","type":"school"},{"id":"xx09408_308088","name":"Kagadi Muslim Primary School","lat":0.940845,"lng":30.808816,"addr":"Namilyango","type":"school"},{"id":"xx22456_329009","name":"Lango Quran Primary School","lat":2.245613,"lng":32.900855,"addr":"Senior Quartes B","type":"school"},{"id":"xx22504_328797","name":"Life Care Nursery School","lat":2.250391,"lng":32.879712,"addr":"Kicope","type":"kindergarten"},{"id":"xx10549_334271","name":"Buluya Muslim Primary School","lat":1.054876,"lng":33.427124,"addr":"Nawaikoke","type":"school"},{"id":"xx11613_334104","name":"Buvulunguti Islamic Primary School","lat":1.161296,"lng":33.410368,"addr":"Nawaikoke","type":"school"},{"id":"xx10916_336959","name":"Nankodo Islamic Primary School","lat":1.091597,"lng":33.695937,"addr":"Kasasira West","type":"school"},{"id":"xx10409_339144","name":"Aniswari Islamic Institution Day and Boarding School Kenkebu","lat":1.040876,"lng":33.914351,"addr":"Kabweri","type":"school"},{"id":"xx10152_338794","name":"Umulu Quran Islamic Primary School","lat":1.015206,"lng":33.879401,"addr":"Kadama","type":"school"},{"id":"xx07033_320739","name":"Luti Islamic Primary School","lat":0.703329,"lng":32.073921,"addr":"Lutti","type":"school"},{"id":"xx06833_320525","name":"Mataagi Islamic Primary School","lat":0.683307,"lng":32.052473,"addr":"Mataagi","type":"school"},{"id":"xx02590_328150","name":"Islamic place","lat":0.258976,"lng":32.814987,"addr":"","type":"place_of_worship"},{"id":"xx00003_315121","name":"Kyamabogo Muslim Primary School","lat":0.000314,"lng":31.512136,"addr":"Kyamabogo B","type":"school"},{"id":"xx18993_314123","name":"Bugongo Moslem Primary School","lat":1.899273,"lng":31.412262,"addr":"Kigungu","type":"school"},{"id":"xx11556_340239","name":"Azama Islamic Primary School","lat":1.155644,"lng":34.023862,"addr":"Bugolya","type":"school"},{"id":"xx10899_339353","name":"Kaderuna Islamic Primary Schoool","lat":1.08992,"lng":33.935326,"addr":"Nansansa","type":"school"},{"id":"xx11435_339984","name":"Katido Islamic Primary School","lat":1.14351,"lng":33.998398,"addr":"Bulalaka","type":"school"},{"id":"xx11601_339782","name":"Lerya Islamic Primary School","lat":1.1601,"lng":33.97825,"addr":"Buchera","type":"school"},{"id":"xx11598_340062","name":"Zam Zam Progressive Islamic Nursery & Primary School","lat":1.159805,"lng":34.006185,"addr":"Nakaloke","type":"school"},{"id":"xx01748_300770","name":"Kasese Moslem Primary School","lat":0.174786,"lng":30.077001,"addr":"Town Centre Lci","type":"school"},{"id":"xx09590_310568","name":"Kasozi Muslim Primary School","lat":0.958983,"lng":31.056768,"addr":"Manyinya A","type":"school"},{"id":"xx12404_340607","name":"Ongaara Moslem Primary School","lat":1.240373,"lng":34.060735,"addr":"Omonyono","type":"school"},{"id":"xx02138_325440","name":"Mashid Shazir","lat":0.213817,"lng":32.544039,"addr":"","type":"place_of_worship"},{"id":"xx09682_340571","name":"Nabiganda Islamic Nursery and Primary School","lat":0.968207,"lng":34.057121,"addr":"Nabiganda C","type":"school"},{"id":"xx07650_336581","name":"Busoona Islamic Primary School","lat":0.76498,"lng":33.658126,"addr":"Namutumba","type":"school"},{"id":"xx10069_343066","name":"Bubikhulu Islamic Primary School","lat":1.006904,"lng":34.306649,"addr":"Bubikhulu A","type":"school"},{"id":"xx05214_338385","name":"Namasere Muslim Primary School","lat":0.521374,"lng":33.838548,"addr":"Nakigunju Road","type":"school"},{"id":"xx05884_338053","name":"Iwemba Islamic Primary School","lat":0.588432,"lng":33.805291,"addr":"Iwemba","type":"school"},{"id":"xx08744_336072","name":"Kibale Bawazir Muslim Primary School","lat":0.874412,"lng":33.607184,"addr":"Kibale","type":"school"},{"id":"xx08370_336898","name":"Namutumba Modern Islamic Primary School","lat":0.837045,"lng":33.689753,"addr":"Mbale Jinja Road","type":"school"},{"id":"xx04908_337843","name":"Bugoyozi Muslim Primary School","lat":0.490822,"lng":33.784282,"addr":"Bugoyozi A","type":"school"},{"id":"xx06064_336849","name":"Nakawa Muslim Primary School","lat":0.606435,"lng":33.684871,"addr":"Iganga Highway","type":"school"},{"id":"xx05130_338021","name":"Namayemba Muslim Primary School","lat":0.512957,"lng":33.802103,"addr":"Jinja-Malaba highway","type":"school"},{"id":"xx07593_337319","name":"Bubutya Islamic Primary School","lat":0.759317,"lng":33.731905,"addr":"Bulange","type":"school"},{"id":"xx09814_336032","name":"Huuda Islamic Primary School","lat":0.981384,"lng":33.603244,"addr":"Ivukula","type":"school"},{"id":"xx07555_331446","name":"Buwagi Muslim Primary School","lat":0.755528,"lng":33.144642,"addr":"Bugaga B","type":"school"},{"id":"xx08444_330895","name":"Nababirye Madarasat Moslem Primary School","lat":0.844435,"lng":33.089541,"addr":"Bugaga","type":"school"},{"id":"xx08708_331075","name":"Naibowa Muslim Primary School","lat":0.870829,"lng":33.107545,"addr":"Butimbo","type":"school"},{"id":"xx08681_331802","name":"Naminage Moslem Primary School","lat":0.8681,"lng":33.180226,"addr":"Mpanga","type":"school"},{"id":"xx11522_341731","name":"Kireka Islamic Nursery And Primary School","lat":1.152174,"lng":34.173124,"addr":"Mulindwa","type":"school"},{"id":"xx11446_341663","name":"Nakaloke Islamic Primary School","lat":1.144596,"lng":34.166317,"addr":"Nakaloke Central B","type":"school"},{"id":"xx11438_341659","name":"Nakaloke Islamic Secondary School","lat":1.143765,"lng":34.165887,"addr":"Nakaloke Central B","type":"school"},{"id":"xx11431_341682","name":"Nusura Islamic Institute Primary School","lat":1.14313,"lng":34.168169,"addr":"Nakaloke Central B","type":"school"},{"id":"xx11429_341705","name":"Nusura Islamic Institute Secondary School","lat":1.142928,"lng":34.170521,"addr":"Nakaloke Central B","type":"school"},{"id":"xx04859_340971","name":"Mawero Islamic Primary School","lat":0.485873,"lng":34.097062,"addr":"Tororo Road","type":"school"},{"id":"xx25996_308876","name":"Warr Muslim Primary School","lat":2.599559,"lng":30.887583,"addr":"Warr Trading Centre","type":"school"},{"id":"xx04500_301972","name":"Kabale Moslem Primary School","lat":0.450018,"lng":30.197192,"addr":"Kabale","type":"school"},{"id":"xx33960_312179","name":"Alaba Islamic Primary School","lat":3.396044,"lng":31.217903,"addr":"Alaba","type":"school"},{"id":"xx34181_312372","name":"Aliba Islamic Primary School","lat":3.418144,"lng":31.237179,"addr":"Waka","type":"school"},{"id":"xx31912_309325","name":"Iringa Islamic Primary School","lat":3.191206,"lng":30.932452,"addr":"Dodoronga","type":"school"},{"id":"xx33471_312501","name":"Kulikulinga Islamic Primary School","lat":3.347057,"lng":31.250075,"addr":"Kulikulinga","type":"school"},{"id":"xx33843_312660","name":"Kulinga Islamic Primary School","lat":3.384333,"lng":31.265988,"addr":"Kulinga","type":"school"},{"id":"xx01248_335805","name":"Jagusi Modern Muslim Primary School","lat":0.124774,"lng":33.580485,"addr":"Nabukalu","type":"school"},{"id":"xx03672_328171","name":"Islamic place","lat":0.367217,"lng":32.817134,"addr":"","type":"place_of_worship"},{"id":"xx36463_310856","name":"Banika Islamic Primary School","lat":3.646346,"lng":31.085552,"addr":"Banika","type":"school"},{"id":"xx04094_301755","name":"Kirabaho Muslim Primary School","lat":0.409432,"lng":30.175514,"addr":"Kisusuthu","type":"school"},{"id":"xx03767_301749","name":"Kitswamba Muslim Primary School","lat":0.376715,"lng":30.174888,"addr":"Kitswamba Tr.c","type":"school"},{"id":"xx07002_300691","name":"Bundibugyo Muslim Primary School","lat":0.700218,"lng":30.06913,"addr":"Kitui","type":"school"},{"id":"xx14736_325215","name":"Moslem Primary School","lat":1.473616,"lng":32.521469,"addr":"Zengebe","type":"school"},{"id":"xx04160_326860","name":"Miftaah Islamic School","lat":0.416007,"lng":32.685975,"addr":"Jinja-Nabusugwe","type":"school"},{"id":"xx35786_313783","name":"Manibe Islamic Primary School","lat":3.578639,"lng":31.378323,"addr":"Kogbo","type":"school"},{"id":"xx34100_309593","name":"Gbukutu Hayatil Islamic Primary School","lat":3.409968,"lng":30.959348,"addr":"Central","type":"school"},{"id":"xx34189_310825","name":"Komba Islamic Primary School","lat":3.418894,"lng":31.082499,"addr":"Komba","type":"school"},{"id":"xx34783_310176","name":"Lokiri Islamic Primary School","lat":3.478302,"lng":31.017586,"addr":"Lokiri","type":"school"},{"id":"xx32336_309775","name":"Alikua Islamic Primary School","lat":3.233608,"lng":30.977528,"addr":"Alikua","type":"school"},{"id":"xx32318_310516","name":"Hirai Islamic Primary School","lat":3.2318,"lng":31.051593,"addr":"Bibi","type":"school"},{"id":"xx03434_330280","name":"Buikwe Muslim Primary School","lat":0.343357,"lng":33.027986,"addr":"Buikwe Town","type":"school"},{"id":"xx02837_330063","name":"Buyinda Quran Primary School","lat":0.283734,"lng":33.006259,"addr":"Kikoma B","type":"school"},{"id":"xx02953_330390","name":"Kiyagi Quran Primary School","lat":0.295273,"lng":33.038982,"addr":"Kiyagi-kitula","type":"school"},{"id":"xx03165_329436","name":"Nsenya Moslem Primary School","lat":0.316464,"lng":32.943641,"addr":"Namaliga","type":"school"},{"id":"xx02009_332078","name":"Kembo Anoor Islamic Primary School","lat":0.200893,"lng":33.207759,"addr":"Kembo","type":"school"},{"id":"xx02805_331458","name":"Kiyindi Moslem Primary School","lat":0.280528,"lng":33.145798,"addr":"Kiyindi","type":"school"},{"id":"xx02457_333392","name":"Bukinalwa Muslim Primary School","lat":0.245711,"lng":33.339179,"addr":"Bukinalwa","type":"school"},{"id":"xx02569_334737","name":"Ali-Aniswari Islamic Nursery and Primary School","lat":0.256864,"lng":33.473667,"addr":"Namadhi Trc","type":"school"},{"id":"xx02206_335211","name":"Bwembe Muslim Nursery School","lat":0.220587,"lng":33.521116,"addr":"Bwembe B Camp","type":"kindergarten"},{"id":"xx02621_335252","name":"Hadiya Nabanfu Islam School","lat":0.262088,"lng":33.525242,"addr":"Bumwena A","type":"school"},{"id":"xx02480_335042","name":"Mariam Islamic Nursery School","lat":0.248035,"lng":33.504248,"addr":"Bulubudhe","type":"school"},{"id":"xx02609_335236","name":"Noor Islamic Nursery School","lat":0.26087,"lng":33.523614,"addr":"Bumwena B","type":"school"},{"id":"xx02179_334614","name":"Tarabya Islamic Primary School","lat":0.217936,"lng":33.461416,"addr":"Bukagabo A Beach","type":"school"},{"id":"xx05565_308570","name":"Hidaya Islamic Nursery and Primary School","lat":0.556479,"lng":30.857009,"addr":"Rwibaale","type":"school"},{"id":"xx06567_307720","name":"Kyakapece Islamic Nursery School","lat":0.656671,"lng":30.771958,"addr":"Kyakapece","type":"kindergarten"},{"id":"xx05795_311101","name":"Kijuma Islamic Primary School","lat":0.579536,"lng":31.110079,"addr":"Kijuma","type":"school"},{"id":"xx21139_333051","name":"Amugu Quran M Primary School","lat":2.113867,"lng":33.30515,"addr":"Odolokwon","type":"school"},{"id":"xx02456_324001","name":"Moslem School","lat":0.245605,"lng":32.400129,"addr":"Nantwala","type":"school"},{"id":"xx16258_313117","name":"Kigorobya Moslem Primary School","lat":1.625758,"lng":31.311737,"addr":"Kiryandongo","type":"school"},{"id":"xx14169_313762","name":"Bwiikya Islamic Institute","lat":1.416873,"lng":31.376217,"addr":"Bwikya Cell","type":"school"},{"id":"xx14180_313759","name":"Bwiikya Muslim Primary School","lat":1.417952,"lng":31.375861,"addr":"Hoima","type":"school"},{"id":"xx14183_313716","name":"Bwikya Muslim Secondary School","lat":1.418316,"lng":31.371611,"addr":"Hoima","type":"school"},{"id":"xx14591_314057","name":"Kasomoro Muslim Primary School","lat":1.459144,"lng":31.405687,"addr":"Kasomoro","type":"school"},{"id":"xx14429_314600","name":"Kibingo Muslim Model Nursery and Primary School","lat":1.442944,"lng":31.460002,"addr":"Kibingo","type":"school"},{"id":"xx14984_315065","name":"Kibaire Muslim Primary School","lat":1.498377,"lng":31.506497,"addr":"Kibaire","type":"school"},{"id":"xx30278_309128","name":"Arua Islamic Primary School","lat":3.027807,"lng":30.9128,"addr":"Obolokofuku East","type":"school"},{"id":"xx30270_309127","name":"Arua Islamic Secondary School","lat":3.026994,"lng":30.912693,"addr":"Obolokofuku East","type":"school"},{"id":"xx30197_309070","name":"Bilal Islamic","lat":3.019654,"lng":30.907042,"addr":"Prison","type":"school"},{"id":"xx05831_336376","name":"Islamic place","lat":0.583143,"lng":33.637604,"addr":"","type":"place_of_worship"},{"id":"xx04580_326821","name":"Nyanja Muslim Primary School","lat":0.458005,"lng":32.682113,"addr":"Kyesereka","type":"school"},{"id":"xx17343_336160","name":"Soroti Islamic Primary School","lat":1.734288,"lng":33.616049,"addr":"B2 & B3 Cell","type":"school"},{"id":"xx13629_329584","name":"Kasiira Moslem Primary School","lat":1.362937,"lng":32.958371,"addr":"Nakituba","type":"school"},{"id":"xx03341_336704","name":"Musubi Islamic Primary School","lat":0.33407,"lng":33.670364,"addr":"Lulanda","type":"school"},{"id":"xx13264_330657","name":"Nkondo Moslem Primary School","lat":1.326449,"lng":33.065658,"addr":"Kiwologoma","type":"school"},{"id":"xx09653_328223","name":"Jawadi Islamic School","lat":0.965303,"lng":32.822296,"addr":"Namanoga","type":"school"},{"id":"xx09201_328469","name":"Namatogonya Muslim Primary School","lat":0.920135,"lng":32.846863,"addr":"Namatogonya IV","type":"school"},{"id":"xx12097_333300","name":"Bright Star Moslem","lat":1.209682,"lng":33.330016,"addr":"Kibira-kyeza","type":"school"},{"id":"xx12177_333715","name":"Irundu Islamic Primary School","lat":1.217693,"lng":33.371533,"addr":"Irundu Trading Centre","type":"school"},{"id":"xx11315_333257","name":"Mpunde Muslim Primary School","lat":1.131485,"lng":33.32568,"addr":"Ngereka","type":"school"},{"id":"xx11641_338086","name":"Kagongo Muslim Primary School","lat":1.164073,"lng":33.808607,"addr":"Kagongo","type":"school"},{"id":"xx04873_310639","name":"Kyaka Islamic Primary School","lat":0.487315,"lng":31.063948,"addr":"Haisaza","type":"school"},{"id":"xx07782_312742","name":"Kibambura Islamic Primary School","lat":0.778196,"lng":31.27421,"addr":"Ndebwe","type":"school"},{"id":"xx06105_306456","name":"Kyengo Moslem Primary School","lat":0.610528,"lng":30.645601,"addr":"Kyenjojo Nyakabara","type":"school"},{"id":"xx05733_325478","name":"Kyeyune Moslem Junior Primary School","lat":0.573297,"lng":32.547836,"addr":"Nkokonjeru","type":"school"},{"id":"xx06581_325282","name":"Aisha Secondary School","lat":0.658099,"lng":32.528157,"addr":"","type":"school"},{"id":"xx08498_334565","name":"Abukraka Islamic Primary School","lat":0.849781,"lng":33.456462,"addr":"Igamba","type":"school"},{"id":"xx08097_334380","name":"Kimanyi Muslim Primary School","lat":0.809719,"lng":33.437982,"addr":"Madhiamasu","type":"school"},{"id":"xx02380_305750","name":"Isonosya Primary Islamic School","lat":0.237964,"lng":30.574996,"addr":"Nsonosya","type":"school"},{"id":"xx02574_305663","name":"Mabale II Islamic Primary School","lat":0.257406,"lng":30.566265,"addr":"Mabale II","type":"school"},{"id":"xx05624_313889","name":"Mubende Quran School","lat":0.562356,"lng":31.388937,"addr":"Katawa B","type":"school"},{"id":"xx03774_312254","name":"Kasambya Muslim Primary School","lat":0.377436,"lng":31.22543,"addr":"Nkuruma A","type":"school"},{"id":"xx03768_312249","name":"Kasambya Quran Secondary School","lat":0.376803,"lng":31.224909,"addr":"Nkuruma A","type":"school"},{"id":"xx09254_317680","name":"Islamic Primary School","lat":0.925379,"lng":31.767953,"addr":"Buzibweera B","type":"school"},{"id":"xx09014_318156","name":"Kyetume Muslim Primary School","lat":0.901361,"lng":31.815643,"addr":"Kyetume B","type":"school"},{"id":"xx09061_317687","name":"Quran Primary School","lat":0.906113,"lng":31.768697,"addr":"Kirulumba","type":"school"},{"id":"xx05559_316458","name":"Lwenzo Islamic Nursery and Primary School","lat":0.555894,"lng":31.645755,"addr":"Lwenzo","type":"school"},{"id":"xx05863_316600","name":"Mahad Islamic Primary School","lat":0.586315,"lng":31.660016,"addr":"Kigalula","type":"school"},{"id":"xx07493_337432","name":"Bubutya Islamic Primary School","lat":0.749346,"lng":33.743219,"addr":"Bubutya","type":"school"},{"id":"xx08310_336550","name":"Budaalo Islamic Primary School","lat":0.83098,"lng":33.65499,"addr":"Nawaikona A","type":"school"},{"id":"xx07877_336991","name":"Bulafa Islamic Primary School","lat":0.787727,"lng":33.699124,"addr":"Bulafa","type":"school"},{"id":"xx08279_336795","name":"Bunitamia Muslim Primary School","lat":0.827902,"lng":33.679521,"addr":"Budongo","type":"school"},{"id":"xx07065_336213","name":"Busesa Muslim Primary School","lat":0.70649,"lng":33.621266,"addr":"Busesa","type":"school"},{"id":"xx07198_335849","name":"Hudha Islamic Centre Primary School","lat":0.719779,"lng":33.584912,"addr":"Nawangisa B","type":"school"},{"id":"xx08554_337347","name":"Islamic Primary School","lat":0.8554,"lng":33.734747,"addr":"Mawungwe A","type":"school"},{"id":"xx07603_336105","name":"Naigombwa Muslim Primary School","lat":0.760316,"lng":33.610546,"addr":"Nalwegoloire","type":"school"},{"id":"xx02048_337584","name":"Lubango Islamic Primary School","lat":0.20476,"lng":33.758398,"addr":"Lubango B","type":"school"},{"id":"xx04697_338194","name":"Bulebi Muslim Primary School","lat":0.469681,"lng":33.819437,"addr":"Buwagama","type":"school"},{"id":"xx04353_337779","name":"Muterere Islamic Primary School","lat":0.435339,"lng":33.777937,"addr":"Muterere Central","type":"school"},{"id":"xx00488_303600","name":"Karubuguma Quran Nursery School","lat":0.048773,"lng":30.36004,"addr":"Mutema","type":"school"},{"id":"xx00334_303802","name":"Kicwamba Quran Primary School","lat":0.033422,"lng":30.380153,"addr":"Nshonda","type":"school"},{"id":"xx00666_304099","name":"Nyabbani Moslem Primary School","lat":0.066622,"lng":30.409944,"addr":"Kitooma","type":"school"},{"id":"xx00391_304172","name":"Rwesigire Moslem Nursery School","lat":0.039093,"lng":30.417203,"addr":"Rwesigire II","type":"school"},{"id":"xx04416_316312","name":"Kyakayanja Islam Primary School","lat":0.441574,"lng":31.631206,"addr":"Kyakayanja","type":"school"},{"id":"xx10995_341912","name":"Kasanvu Muslim Education Center Nursery and Primary School","lat":1.09948,"lng":34.191183,"addr":"Kasanvu","type":"school"},{"id":"xx01697_321779","name":"Gongoliro Quran School","lat":0.169726,"lng":32.177945,"addr":"Kasamba","type":"school"},{"id":"xx01318_322091","name":"Omar Islamic Primary School","lat":0.131811,"lng":32.209056,"addr":"Nabbuzi","type":"school"},{"id":"xx06833_318287","name":"Kamondo Islamic Primary School","lat":0.683299,"lng":31.82866,"addr":"Nkonkonjeru","type":"school"},{"id":"xx01620_311032","name":"Kiribedda Moslem Primary School","lat":0.161994,"lng":31.103163,"addr":"Kiribedda II","type":"school"},{"id":"xx01052_310825","name":"Lwessankala Muslim Primary School","lat":0.105195,"lng":31.082539,"addr":"Lwessankala","type":"school"},{"id":"xx03930_334664","name":"Bukasero A Islamic Primary School","lat":0.393016,"lng":33.466394,"addr":"Bukasero A","type":"school"},{"id":"xx04252_335672","name":"Bulyangada Moslem Primary School","lat":0.425165,"lng":33.567202,"addr":"Bulyangada","type":"school"},{"id":"xx04849_334666","name":"Buwolya Muslim Primary School","lat":0.484867,"lng":33.466554,"addr":"Buwolya","type":"school"},{"id":"xx03951_335133","name":"Imam Sajabi Kalwba Primary School","lat":0.395125,"lng":33.513316,"addr":"Kaluuba B","type":"school"},{"id":"xx04462_334378","name":"Lwanda Muslim Primary School","lat":0.446222,"lng":33.437774,"addr":"Lwanda","type":"school"},{"id":"xx04384_334955","name":"Ohud Islamic Mixed Day and Boarding Primary School","lat":0.438423,"lng":33.495523,"addr":"Igamba B","type":"school"},{"id":"xx04452_313531","name":"Mugungulu Moslem Primary School","lat":0.445217,"lng":31.353083,"addr":"Mugungulu B","type":"school"},{"id":"xx10456_334726","name":"Bright Islamic Primary School","lat":1.045597,"lng":33.472584,"addr":"Namukakala I","type":"school"},{"id":"xx08950_334955","name":"Kaliro Moslem Primary School","lat":0.895043,"lng":33.495477,"addr":"Kalitunsi","type":"school"},{"id":"xx08200_317858","name":"Kabale Islamic Primary School","lat":0.819973,"lng":31.785767,"addr":"Kalyango","type":"school"},{"id":"xx08657_317762","name":"Kajere Islamic Primary School","lat":0.86565,"lng":31.776181,"addr":"Kajjere","type":"school"},{"id":"xx07767_320018","name":"Kibisi Islamic Primary School","lat":0.776735,"lng":32.001759,"addr":"Kibisi","type":"school"},{"id":"xx07581_319953","name":"Kyanamuyonjo Madalasat Muslim Primary School","lat":0.758144,"lng":31.995305,"addr":"Kyanamuyonjo","type":"school"},{"id":"xx08125_333002","name":"Buyunze Muslim Primary School","lat":0.812502,"lng":33.300189,"addr":"Buyunze B","type":"school"},{"id":"xx07604_332707","name":"Moslem Kyanvuma Primary School","lat":0.760352,"lng":33.270654,"addr":"Kyanvuma T/c","type":"school"},{"id":"xx08348_333382","name":"Nairaka Muslim Primary School","lat":0.834825,"lng":33.338246,"addr":"Nairika West","type":"school"},{"id":"xx06267_302947","name":"Ahmed Islamic Education Centre","lat":0.626686,"lng":30.294662,"addr":"Katentebere","type":"school"},{"id":"xx06574_302961","name":"Kitumba Muslim Nursery School","lat":0.657416,"lng":30.296093,"addr":"Binanata A","type":"kindergarten"},{"id":"xx09446_336049","name":"Islamic Primary School","lat":0.944578,"lng":33.604866,"addr":"Ivukula","type":"school"},{"id":"xx10055_336395","name":"Nangonde Muslim Primary School","lat":1.00547,"lng":33.639548,"addr":"Nangonde","type":"school"},{"id":"xx04622_340828","name":"Madibira Primary School","lat":0.462172,"lng":34.082847,"addr":"","type":"school"},{"id":"xx01752_321632","name":"Kibugga Quran School","lat":0.175233,"lng":32.163219,"addr":"Kibugga II","type":"school"},{"id":"xx01549_321260","name":"Kyanajanja Quran Primary School","lat":0.154948,"lng":32.126009,"addr":"Kyanajjanja B","type":"school"},{"id":"xx00978_320760","name":"Lukeman Muslim Primary School","lat":0.097826,"lng":32.076045,"addr":"Jalamba","type":"school"},{"id":"xx00768_321199","name":"Mitala Maria Muslim Primary School","lat":0.076795,"lng":32.119851,"addr":"Mitala Maria-katikanyonyi","type":"school"},{"id":"xx01490_320301","name":"Mpongo Moslem Primary School","lat":0.149043,"lng":32.030118,"addr":"Mpogo","type":"school"},{"id":"xx00083_320145","name":"Nusurat Islamic Primary School","lat":0.008341,"lng":32.014496,"addr":"Nkozi A","type":"school"},{"id":"xx00131_320560","name":"Zahara Islamic Primary School","lat":0.013128,"lng":32.05599,"addr":"Nabusanke B","type":"school"},{"id":"xx08551_318669","name":"Center For Revival Islamic Heritage Primary School","lat":0.855121,"lng":31.866919,"addr":"Kabindo","type":"school"},{"id":"xx07695_319774","name":"Kanziira Islamic Primary School","lat":0.769536,"lng":31.977437,"addr":"Kanziira","type":"school"},{"id":"xx04162_317924","name":"Kabalagala Muslim Primary School","lat":0.416174,"lng":31.792387,"addr":"Kabalagala","type":"school"},{"id":"xx02980_324070","name":"Nsujjumpolwe Islamic Primary School","lat":0.297975,"lng":32.406978,"addr":"Nsujjumpolwe","type":"school"},{"id":"xx07104_327858","name":"Gimbi Islamic Primary School","lat":0.710449,"lng":32.785831,"addr":"Gimbi I","type":"school"},{"id":"xx07489_328137","name":"Nsagi Islamic Primary School","lat":0.748862,"lng":32.813731,"addr":"Nsagi","type":"school"},{"id":"xx02000_326943","name":"Kabanga Moslem Primary School","lat":0.20002,"lng":32.694288,"addr":"Kabanga","type":"school"},{"id":"xx03014_327762","name":"Sempabe Moslem Primary School","lat":0.30139,"lng":32.77623,"addr":"Namaiba","type":"school"},{"id":"xx06120_316205","name":"Kitagonerwa Muslim Primary School","lat":0.611974,"lng":31.62054,"addr":"Kitagonerwa","type":"school"},{"id":"xx05538_316094","name":"Shamusi Islamic Nursery and Primary School","lat":0.553763,"lng":31.60943,"addr":"Lwensambya","type":"school"},{"id":"xx06692_333263","name":"Busiiro Muslim Primary School","lat":0.669228,"lng":33.326289,"addr":"Busiiro road","type":"school"},{"id":"xx06384_333558","name":"Kiyaga Islamic Primary School","lat":0.638384,"lng":33.355784,"addr":"Kigaya","type":"school"},{"id":"xx06281_333834","name":"Waibuga Islamic Primary School","lat":0.628086,"lng":33.383423,"addr":"Waibuga A","type":"school"},{"id":"xx06263_333441","name":"Wantunda Muslim Primary School","lat":0.626303,"lng":33.34413,"addr":"Wantunda","type":"school"},{"id":"xx07125_330185","name":"Bukamba Muslim Primary School","lat":0.712502,"lng":33.018518,"addr":"Bukamba Town","type":"school"},{"id":"xx07080_329616","name":"Nakaziba Islamic School","lat":0.708001,"lng":32.961585,"addr":"Nakaziba","type":"school"},{"id":"xx07206_329135","name":"Sekaja Islamic Primary School","lat":0.720558,"lng":32.913514,"addr":"Kiteredde","type":"school"},{"id":"xx05943_331150","name":"Batagaya Islamic Primary School","lat":0.594301,"lng":33.114971,"addr":"Waibuga","type":"school"},{"id":"xx06893_331978","name":"Kitanaba Islamic Day and Boarding Primary School","lat":0.689332,"lng":33.197827,"addr":"Kitanaba","type":"school"},{"id":"xx05647_331962","name":"Lukolo Muslim Primary School","lat":0.564717,"lng":33.196163,"addr":"Lukolo East","type":"school"},{"id":"xx05433_331389","name":"Uhud Islamic Primary School","lat":0.543257,"lng":33.138941,"addr":"Kizinga","type":"school"},{"id":"xx02768_320638","name":"Kiggwa Islamic Primary School","lat":0.276803,"lng":32.063789,"addr":"Kiggwa","type":"school"},{"id":"xx03090_321509","name":"Aswan Islamic School","lat":0.308961,"lng":32.150858,"addr":"Kakindu Trc","type":"school"},{"id":"xx02199_321302","name":"Kwezi Islam Primary School","lat":0.219934,"lng":32.130188,"addr":"Kwezi","type":"school"},{"id":"xx02411_321613","name":"Simba Islam Primary School","lat":0.241079,"lng":32.161274,"addr":"Simba B","type":"school"},{"id":"xx02825_321809","name":"Bubanzi Muslim Nursery School","lat":0.282548,"lng":32.180891,"addr":"Bubanzi","type":"kindergarten"},{"id":"xx02641_322254","name":"Kabasanda Quran School","lat":0.264063,"lng":32.225403,"addr":"Kabasanda","type":"school"},{"id":"xx02624_321781","name":"Bufuma Muslim Primary School","lat":0.262356,"lng":32.178125,"addr":"Bufuuma","type":"school"},{"id":"xx02553_322519","name":"Hill Peak Islamic Vocational Training Centre","lat":0.255265,"lng":32.251944,"addr":"Seeta A","type":"school"},{"id":"xx02539_322028","name":"Jaa-Far Swaadiq Islamic Secondary School","lat":0.253853,"lng":32.202783,"addr":"","type":"school"},{"id":"xx02530_322037","name":"Jaa-Far Swaadiq Islamic Primary School","lat":0.253044,"lng":32.203726,"addr":"Kikunyu A","type":"school"},{"id":"xx02287_321741","name":"Kibibi Moslem Secondary School","lat":0.228685,"lng":32.174119,"addr":"Bamulanze","type":"school"},{"id":"xx01879_322199","name":"Kibisi Mirat Islamic Primary School","lat":0.187897,"lng":32.219932,"addr":"Ggunda","type":"school"},{"id":"xx02688_322946","name":"Quran School","lat":0.268754,"lng":32.294602,"addr":"Bumoozi A","type":"school"},{"id":"xx05178_331600","name":"Al-Swidiiq Islamic School","lat":0.517848,"lng":33.159968,"addr":"Namagera Road","type":"school"},{"id":"xx06790_334810","name":"Ruqayyah Islamic Education Centre Nursery and Primary School","lat":0.679024,"lng":33.480998,"addr":"Bubogo Road","type":"school"},{"id":"xx06767_334764","name":"Bunyiiro Muslim Day/Boarding Mixed Secondary School","lat":0.67674,"lng":33.476416,"addr":"Kaliro Road","type":"school"},{"id":"xx01817_300836","name":"Kasese Moslem School","lat":0.181687,"lng":30.083641,"addr":"Kisanga A","type":"school"},{"id":"xx01861_300907","name":"Zamzam Moslem Primary School","lat":0.186091,"lng":30.090664,"addr":"Umoja","type":"school"},{"id":"xx02557_322843","name":"Lukalu Kran Moslem School","lat":0.255727,"lng":32.284295,"addr":"Lukalu B","type":"school"},{"id":"xx01996_322990","name":"Umea Moslem School","lat":0.199582,"lng":32.29902,"addr":"Mpambire Tr Centre","type":"school"},{"id":"xx04981_327694","name":"Bunyiri Moslem Primary School","lat":0.498148,"lng":32.769387,"addr":"Bunyiri","type":"school"},{"id":"xx04705_327011","name":"Kalagala Quran Primary School","lat":0.470461,"lng":32.701127,"addr":"Kalagala","type":"school"},{"id":"xx04715_327518","name":"Kiyunga Islamic Primary School","lat":0.471458,"lng":32.751756,"addr":"Kiyunga","type":"school"},{"id":"xx04711_327483","name":"Kiyunga Muslim Secondary School","lat":0.471107,"lng":32.748285,"addr":"Nkonge","type":"school"},{"id":"xx04926_328404","name":"Wabusanke Moslem Primary School","lat":0.49263,"lng":32.840406,"addr":"Wabusanke","type":"school"},{"id":"xx03646_327261","name":"Umar Ba Islamic School","lat":0.364607,"lng":32.726114,"addr":"Kigunga","type":"school"},{"id":"xx03732_328396","name":"Bwefulumya Muslim Nursery School","lat":0.373192,"lng":32.839634,"addr":"Bwefulumya East","type":"kindergarten"},{"id":"xx03868_328410","name":"Namawojjolo Islamic Centre","lat":0.386774,"lng":32.841021,"addr":"Namawojjolo East","type":"school"},{"id":"xx04493_320805","name":"Nakaseeta Islamic Primary School","lat":0.449288,"lng":32.080538,"addr":"Nakaseeta","type":"school"},{"id":"xx05023_321404","name":"Ssekanyonyi Islamic Primary School","lat":0.502343,"lng":32.140441,"addr":"Ssekanyonyi A","type":"school"},{"id":"xx03792_321053","name":"Ttamu Islamic Primary School","lat":0.379208,"lng":32.105348,"addr":"Ttamu A","type":"school"},{"id":"xx04906_331337","name":"Malindi Islamic Secondary School","lat":0.490612,"lng":33.133717,"addr":"Malindi","type":"school"},{"id":"xx05008_331267","name":"Malindi Quran Primary School","lat":0.500781,"lng":33.126722,"addr":"Kikuba Mutwe","type":"school"},{"id":"xx05065_331148","name":"Wakisi Islam Primary School","lat":0.50648,"lng":33.11479,"addr":"Wakisi Central","type":"school"},{"id":"xx04970_331792","name":"Hudah Islamic Primary School","lat":0.497037,"lng":33.179157,"addr":"Kivubuka B","type":"school"},{"id":"xx04995_332182","name":"Namulesa Muslim Primary School","lat":0.499481,"lng":33.218242,"addr":"Namulesa","type":"school"},{"id":"xx04438_332041","name":"Ashraf Islamic School","lat":0.443846,"lng":33.204056,"addr":"Mvule","type":"school"},{"id":"xx04549_332187","name":"Nasru Islamic Nursery School","lat":0.454866,"lng":33.218706,"addr":"Rubaga","type":"kindergarten"},{"id":"xx04418_332199","name":"Umuh Quran Primary School","lat":0.441815,"lng":33.219857,"addr":"Babu/patel","type":"school"},{"id":"xx04315_331489","name":"Namwezi Moslem Primary School","lat":0.431516,"lng":33.148901,"addr":"Namwezi","type":"school"},{"id":"xx04373_332116","name":"Kaderboy Islamic School","lat":0.437276,"lng":33.211634,"addr":"Mvule","type":"school"},{"id":"xx03823_331410","name":"Nyenga Muslim Primary School","lat":0.382292,"lng":33.140984,"addr":"Bujuuta A","type":"school"},{"id":"xx05109_333666","name":"Katonte Muslim Primary School","lat":0.510861,"lng":33.366551,"addr":"Katonte","type":"school"},{"id":"xx04640_332333","name":"Hafizu Quran School","lat":0.464036,"lng":33.233336,"addr":"School Cell","type":"school"},{"id":"xx05032_332813","name":"Kakira Islamic Nursery","lat":0.503212,"lng":33.281264,"addr":"Polota B","type":"kindergarten"},{"id":"xx06467_328514","name":"Fatuma Islamic Primary School","lat":0.646734,"lng":32.851449,"addr":"Kabimbiri","type":"school"},{"id":"xx06848_328292","name":"Kasawo Islamic Senior Secondary School","lat":0.684765,"lng":32.829199,"addr":"Kitale -busia","type":"school"},{"id":"xx06267_327832","name":"Abubakar Swidiq Quran School","lat":0.626726,"lng":32.783184,"addr":"Kasana","type":"school"},{"id":"xx06156_327491","name":"Kabawala Islamic School","lat":0.615571,"lng":32.749127,"addr":"Kabawala","type":"school"},{"id":"xx06023_328443","name":"Al-Firdays Islamic Primary School","lat":0.602268,"lng":32.84429,"addr":"Kizanyirizi","type":"school"},{"id":"xx05465_328023","name":"Nekoyedde Moslem Primary School","lat":0.546523,"lng":32.802338,"addr":"Nekoyedde","type":"school"},{"id":"xx05905_327718","name":"Nabalanga Islamic Primary School","lat":0.59048,"lng":32.771763,"addr":"Nabalanga","type":"school"},{"id":"xx06610_329564","name":"Suuka Islamic Senior Secondary School","lat":0.660957,"lng":32.956444,"addr":"Sukka","type":"school"},{"id":"xx08192_326205","name":"Kirumandagi Islamic Primary School","lat":0.819242,"lng":32.620545,"addr":"Musanje","type":"school"},{"id":"xx06040_329336","name":"Bulyante Islamic Primary School","lat":0.603969,"lng":32.933611,"addr":"Bulyanti","type":"school"},{"id":"xx06272_329962","name":"Alhaad Muslim High Secondary School","lat":0.62717,"lng":32.99625,"addr":"Natteta","type":"school"},{"id":"xx06588_330150","name":"Kotwe Taowa Islamic Primary School","lat":0.658751,"lng":33.014951,"addr":"Kotwe","type":"school"},{"id":"xx06776_329654","name":"Mataba Muslim Quran Primary School","lat":0.677647,"lng":32.9654,"addr":"Kiwooza","type":"school"},{"id":"xx06506_329742","name":"Uthman Muslim Primary School","lat":0.650551,"lng":32.974169,"addr":"Gangama","type":"school"},{"id":"xx05555_330368","name":"Seeta Muslim Primary School","lat":0.555512,"lng":33.036848,"addr":"Seeta","type":"school"},{"id":"xx08819_338490","name":"Busaba Islamic Primary School","lat":0.881915,"lng":33.849006,"addr":"Nabwinyoha","type":"school"},{"id":"xx09757_337640","name":"Idaya Islamic Primary School","lat":0.975703,"lng":33.764037,"addr":"Bugobera","type":"school"},{"id":"xx10160_338819","name":"Kadama Moslem Primary School","lat":1.015952,"lng":33.881921,"addr":"Kadama Township","type":"school"},{"id":"xx10456_338201","name":"Kyakonye Islamic Primary School","lat":1.045607,"lng":33.820087,"addr":"Namusita","type":"school"},{"id":"xx06418_335125","name":"Bukyaye Muslim Primary School","lat":0.641781,"lng":33.51248,"addr":"Bukyaye B","type":"school"},{"id":"xx06324_335696","name":"Butende Muslims Primary School","lat":0.632431,"lng":33.569645,"addr":"Butende","type":"school"},{"id":"xx06863_335627","name":"East Corner Islamic Nursery and Primary School","lat":0.686251,"lng":33.562742,"addr":"Kakongoka B","type":"school"},{"id":"xx06358_334930","name":"Nampirika Muslim Primary School","lat":0.635808,"lng":33.493006,"addr":"Nampirika","type":"school"},{"id":"xx05914_335655","name":"Bubenge Islamic Primary School","lat":0.591434,"lng":33.56548,"addr":"Bubenge A","type":"school"},{"id":"xx05430_335669","name":"Bulyansime Moslem Primary School","lat":0.542964,"lng":33.56689,"addr":"Bulyansime","type":"school"},{"id":"xx06045_335258","name":"Nabuwat Islamic Primary School","lat":0.604531,"lng":33.525834,"addr":"Kiwerere","type":"school"},{"id":"xx05987_335098","name":"Nakigo Islamic Primary School","lat":0.59869,"lng":33.509805,"addr":"Nakigo II","type":"school"},{"id":"xx06132_334757","name":"Noor Islam Town Council Primary School","lat":0.613176,"lng":33.475686,"addr":"Kasokoso Central I","type":"school"},{"id":"xx06158_334379","name":"Bulamagi Muslim Primary School","lat":0.615845,"lng":33.437858,"addr":"Bwanalira","type":"school"},{"id":"xx11103_341715","name":"Madrasatul Huthe Islamic Primary School","lat":1.11029,"lng":34.171468,"addr":"Busajjabwankuba A","type":"school"},{"id":"xx10999_341471","name":"Namabasa Islamic Primary School","lat":1.099884,"lng":34.147133,"addr":"Namabasa IV","type":"school"},{"id":"xx06799_334741","name":"Bunyiiro Muslim Primary School","lat":0.67987,"lng":33.474076,"addr":"Lwabaga","type":"kindergarten"},{"id":"xx06839_334792","name":"Ruqayyah Islamic Centre Primary School","lat":0.683898,"lng":33.479186,"addr":"Bubogo A","type":"school"},{"id":"xx06313_334758","name":"Noor Islamic Primary School","lat":0.631338,"lng":33.475773,"addr":"Bugumba A","type":"school"},{"id":"xx05817_337378","name":"Muslim Primary School","lat":0.581708,"lng":33.737763,"addr":"Ndifakulya","type":"school"},{"id":"xx05378_338318","name":"Busolo Muslim Primary School","lat":0.537769,"lng":33.831806,"addr":"Busulo","type":"school"},{"id":"xx05021_325235","name":"Islamic place","lat":0.502067,"lng":32.523465,"addr":"","type":"place_of_worship"},{"id":"xx05448_325331","name":"Islamic place","lat":0.544777,"lng":32.533147,"addr":"","type":"place_of_worship"},{"id":"xx05766_325327","name":"Maajid Taqwa Mosque","lat":0.576578,"lng":32.532666,"addr":"","type":"place_of_worship"},{"id":"xx07228_325284","name":"Islamic place","lat":0.72285,"lng":32.528367,"addr":"","type":"place_of_worship"},{"id":"xx16487_317909","name":"Hidaya Islamic Nursery and Primary School","lat":1.648657,"lng":31.79094,"addr":"Bigando","type":"school"},{"id":"xx16805_317087","name":"Kihande Moslem Primary School","lat":1.680489,"lng":31.708744,"addr":"Kihande II","type":"school"},{"id":"xx10972_341798","name":"Usqaasha Muslim Nursery and Primary School","lat":1.097191,"lng":34.179756,"addr":"Senkulu Cell","type":"school"},{"id":"xx32833_328906","name":"Pandwong Muslim Primary School","lat":3.283319,"lng":32.890642,"addr":"Camcam","type":"school"},{"id":"xx03013_325819","name":"Mariam Quranic Primary School","lat":0.301294,"lng":32.581936,"addr":"","type":"school"},{"id":"xx03065_325691","name":"Tawhiid Primary School","lat":0.306514,"lng":32.569093,"addr":"","type":"school"},{"id":"xx02536_326322","name":"Islamic place","lat":0.253643,"lng":32.632242,"addr":"","type":"place_of_worship"},{"id":"xx10331_305749","name":"Islamic place","lat":1.033121,"lng":30.574892,"addr":"","type":"place_of_worship"},{"id":"xx17635_331568","name":"Islamic place","lat":1.763463,"lng":33.156807,"addr":"","type":"place_of_worship"},{"id":"xx17612_331580","name":"Kaberamaido mosque","lat":1.76115,"lng":33.158048,"addr":"","type":"place_of_worship"},{"id":"xx01775_300771","name":"Kasse Town Centre Mosque","lat":0.177509,"lng":30.077095,"addr":"","type":"place_of_worship"},{"id":"xx01748_300775","name":"Kasese Mosque","lat":0.174778,"lng":30.07754,"addr":"","type":"place_of_worship"},{"id":"xx34854_308766","name":"Islamic place","lat":3.485444,"lng":30.876621,"addr":"","type":"place_of_worship"},{"id":"xx02971_325488","name":"Islamic place","lat":0.29709,"lng":32.548812,"addr":"","type":"place_of_worship"},{"id":"xx11322_304729","name":"Islamic place","lat":1.13216,"lng":30.472921,"addr":"","type":"place_of_worship"},{"id":"xx08086_301474","name":"Islamic place","lat":0.808583,"lng":30.147428,"addr":"","type":"place_of_worship"},{"id":"xx08503_301949","name":"Islamic place","lat":0.850263,"lng":30.194948,"addr":"","type":"place_of_worship"},{"id":"xx11157_306634","name":"Islamic place","lat":1.115653,"lng":30.663397,"addr":"Nguse","type":"place_of_worship"},{"id":"xx31930_311698","name":"Islamic place","lat":3.193012,"lng":31.169802,"addr":"","type":"place_of_worship"},{"id":"xx34786_313695","name":"Islamic place","lat":3.478602,"lng":31.369532,"addr":"","type":"place_of_worship"},{"id":"xx33971_313269","name":"Islamic place","lat":3.397088,"lng":31.326937,"addr":"","type":"place_of_worship"},{"id":"xx34052_313407","name":"Islamic place","lat":3.405203,"lng":31.340742,"addr":"","type":"place_of_worship"},{"id":"xx33746_313108","name":"Islamic place","lat":3.374593,"lng":31.310827,"addr":"","type":"place_of_worship"},{"id":"xx32513_313667","name":"Ayivu","lat":3.251277,"lng":31.3667,"addr":"","type":"place_of_worship"},{"id":"xx35307_313541","name":"Islamic place","lat":3.530665,"lng":31.354123,"addr":"","type":"place_of_worship"},{"id":"xx35267_313330","name":"Islamic place","lat":3.526732,"lng":31.332977,"addr":"","type":"place_of_worship"},{"id":"xx01177_321813","name":"Kyabadaza Mosque","lat":0.117666,"lng":32.181336,"addr":"","type":"mosque"},{"id":"xx30552_308416","name":"Islamic place","lat":3.055196,"lng":30.841558,"addr":"","type":"place_of_worship"},{"id":"xx30252_309040","name":"Abdini","lat":3.025218,"lng":30.903951,"addr":"","type":"place_of_worship"},{"id":"xx30307_309093","name":"Safina Mosque","lat":3.030737,"lng":30.909349,"addr":"","type":"place_of_worship"},{"id":"xx30272_309127","name":"Safi Mosque","lat":3.02719,"lng":30.912745,"addr":"","type":"place_of_worship"},{"id":"xx29513_309316","name":"Arafat Etoleni Mosque","lat":2.951298,"lng":30.931567,"addr":"","type":"place_of_worship"},{"id":"xx03676_326248","name":"Islamic place","lat":0.367609,"lng":32.6248,"addr":"","type":"place_of_worship"},{"id":"xx27394_310606","name":"Ocebu iriri mosque","lat":2.73943,"lng":31.060613,"addr":"","type":"place_of_worship"},{"id":"xx34758_320700","name":"Taqua Mosque","lat":3.475821,"lng":32.069996,"addr":"","type":"place_of_worship"},{"id":"xx32596_321210","name":"Kal West Mosque","lat":3.259562,"lng":32.120989,"addr":"","type":"place_of_worship"},{"id":"xx04805_325723","name":"Islamic place","lat":0.480549,"lng":32.572288,"addr":"","type":"place_of_worship"},{"id":"xx26997_308548","name":"Adraka Mosque","lat":2.699665,"lng":30.854792,"addr":"","type":"place_of_worship"},{"id":"xx27953_308854","name":"Pelele Mosque","lat":2.795313,"lng":30.885374,"addr":"","type":"place_of_worship"},{"id":"xx02103_325425","name":"Islamic place","lat":0.210269,"lng":32.542529,"addr":"","type":"place_of_worship"},{"id":"xx34499_311203","name":"Muniri Mosque","lat":3.449872,"lng":31.120337,"addr":"","type":"place_of_worship"},{"id":"xx34468_311003","name":"Munawara Mosque","lat":3.446849,"lng":31.100304,"addr":"","type":"place_of_worship"},{"id":"xx34596_310941","name":"Ajagoro Mosques","lat":3.45959,"lng":31.094131,"addr":"","type":"place_of_worship"},{"id":"xx35278_311487","name":"Akia Mosque","lat":3.527761,"lng":31.148672,"addr":"","type":"place_of_worship"},{"id":"xx35086_311142","name":"Adruariku Mosque","lat":3.508639,"lng":31.114176,"addr":"","type":"place_of_worship"},{"id":"xx35680_311340","name":"Jama Mosque","lat":3.568013,"lng":31.133976,"addr":"","type":"place_of_worship"},{"id":"xx33927_311307","name":"Odokibu Muhajirina Mosque","lat":3.392657,"lng":31.13069,"addr":"","type":"place_of_worship"},{"id":"xx34162_311523","name":"Ajujinga Mosque","lat":3.416247,"lng":31.152315,"addr":"","type":"place_of_worship"},{"id":"xx33977_311694","name":"Rahma Lomorojo Mosque","lat":3.397744,"lng":31.169353,"addr":"","type":"place_of_worship"},{"id":"xx34281_312101","name":"Huda Mosque","lat":3.428117,"lng":31.210112,"addr":"","type":"place_of_worship"},{"id":"xx34313_311970","name":"Arafa","lat":3.431252,"lng":31.19698,"addr":"","type":"place_of_worship"},{"id":"xx34362_312164","name":"Rawuda Inia Mosque","lat":3.436218,"lng":31.216413,"addr":"","type":"place_of_worship"},{"id":"xx34301_311865","name":"Swalihina Gboloba Mosque","lat":3.430052,"lng":31.186459,"addr":"","type":"place_of_worship"},{"id":"xx34242_312173","name":"Huda Ijigo Mosque","lat":3.424236,"lng":31.217275,"addr":"","type":"place_of_worship"},{"id":"xx34104_311703","name":"Muharram Mosque","lat":3.410382,"lng":31.170343,"addr":"","type":"place_of_worship"},{"id":"xx34219_311686","name":"Arajago Mosque","lat":3.421877,"lng":31.168578,"addr":"","type":"place_of_worship"},{"id":"xx34292_312193","name":"Jihad Alelinga Mosque","lat":3.429168,"lng":31.219345,"addr":"","type":"place_of_worship"},{"id":"xx34237_311325","name":"Ilekile Mubarak Mosque","lat":3.423703,"lng":31.13252,"addr":"","type":"place_of_worship"},{"id":"xx34171_311347","name":"Galaba Mosque","lat":3.417123,"lng":31.134727,"addr":"","type":"place_of_worship"},{"id":"xx34242_311538","name":"Nyori Malik Mosque","lat":3.424235,"lng":31.153765,"addr":"","type":"place_of_worship"},{"id":"xx34128_311127","name":"Arafa Mosque","lat":3.41284,"lng":31.112652,"addr":"","type":"place_of_worship"},{"id":"xx34157_311920","name":"Orogbo Usisa Mosque","lat":3.415719,"lng":31.192032,"addr":"","type":"place_of_worship"},{"id":"xx33532_311241","name":"Mongoyo Mosque","lat":3.353177,"lng":31.124145,"addr":"","type":"place_of_worship"},{"id":"xx33622_311573","name":"Naku Mosque","lat":3.362198,"lng":31.157263,"addr":"","type":"place_of_worship"},{"id":"xx34291_311147","name":"Kasambia Mosque","lat":3.429083,"lng":31.114746,"addr":"","type":"place_of_worship"},{"id":"xx34433_311197","name":"Bidibidi Mosque","lat":3.443318,"lng":31.119672,"addr":"","type":"place_of_worship"},{"id":"xx34349_310989","name":"Malik Rembeta Mosque","lat":3.434906,"lng":31.098851,"addr":"","type":"place_of_worship"},{"id":"xx34281_311057","name":"Lumuru Mosque","lat":3.428127,"lng":31.10565,"addr":"","type":"place_of_worship"},{"id":"xx34186_311185","name":"St John Bosco Ptc Mosque","lat":3.418582,"lng":31.118458,"addr":"","type":"place_of_worship"},{"id":"xx34077_310920","name":"Hilali Mosque","lat":3.407697,"lng":31.092033,"addr":"","type":"place_of_worship"},{"id":"xx33307_310583","name":"Adume Hidia Mosque","lat":3.330662,"lng":31.05829,"addr":"","type":"place_of_worship"},{"id":"xx33226_310744","name":"Iqira Anivu Mosque","lat":3.322615,"lng":31.074448,"addr":"","type":"place_of_worship"},{"id":"xx33201_310878","name":"Jihad Oboji Mosque","lat":3.320087,"lng":31.087783,"addr":"","type":"place_of_worship"},{"id":"xx33040_310904","name":"Imani Mosque Bondo","lat":3.30404,"lng":31.090448,"addr":"","type":"place_of_worship"},{"id":"xx33391_312194","name":"Lui Jihad Mosque","lat":3.339052,"lng":31.219355,"addr":"","type":"place_of_worship"},{"id":"xx33692_310895","name":"Nuru Burugo Mosque","lat":3.369212,"lng":31.08952,"addr":"","type":"place_of_worship"},{"id":"xx33916_311039","name":"Oli Shufa Mosque","lat":3.391563,"lng":31.103887,"addr":"","type":"place_of_worship"},{"id":"xx33896_312170","name":"Moju Osisa Mosque","lat":3.389588,"lng":31.21702,"addr":"","type":"place_of_worship"},{"id":"xx33792_311857","name":"Lodonga Islamic","lat":3.379208,"lng":31.18571,"addr":"","type":"place_of_worship"},{"id":"xx33713_312161","name":"Nuru Pakayo Mosque","lat":3.371295,"lng":31.21608,"addr":"","type":"place_of_worship"},{"id":"xx33967_311950","name":"Swalhina Mosque","lat":3.396734,"lng":31.194974,"addr":"","type":"place_of_worship"},{"id":"xx33972_312200","name":"Jihad Nyai Mosque","lat":3.39721,"lng":31.21995,"addr":"","type":"place_of_worship"},{"id":"xx33532_311012","name":"Jihad Mosque","lat":3.353227,"lng":31.10122,"addr":"","type":"place_of_worship"},{"id":"xx33586_312065","name":"Kakira Mosque","lat":3.358567,"lng":31.206528,"addr":"","type":"place_of_worship"},{"id":"xx34048_312359","name":"Huda Moli Mosque","lat":3.404756,"lng":31.235893,"addr":"","type":"place_of_worship"},{"id":"xx33839_312534","name":"Norim Painga Mosque","lat":3.383948,"lng":31.253447,"addr":"","type":"place_of_worship"},{"id":"xx33674_312241","name":"Safi Mosque Nyoko","lat":3.367432,"lng":31.2241,"addr":"","type":"place_of_worship"},{"id":"xx33472_312715","name":"Sabirina Mosque","lat":3.347186,"lng":31.271475,"addr":"","type":"place_of_worship"},{"id":"xx33701_312280","name":"Munawara Mugoju Mosque","lat":3.370135,"lng":31.228002,"addr":"","type":"place_of_worship"},{"id":"xx32515_313668","name":"Riada Ayivu","lat":3.251454,"lng":31.366788,"addr":"","type":"place_of_worship"},{"id":"xx32692_313809","name":"Guba Mosque","lat":3.269241,"lng":31.380892,"addr":"","type":"place_of_worship"},{"id":"xx33768_312659","name":"Fauzu Mosque","lat":3.376781,"lng":31.265928,"addr":"","type":"place_of_worship"},{"id":"xx33930_312652","name":"Rehadi Kulinga Mosque","lat":3.393018,"lng":31.265231,"addr":"","type":"place_of_worship"},{"id":"xx33704_312620","name":"Huda Mosque","lat":3.370365,"lng":31.261982,"addr":"","type":"place_of_worship"},{"id":"xx33639_312663","name":"Riadi Mosque","lat":3.363871,"lng":31.266271,"addr":"","type":"place_of_worship"},{"id":"xx33935_312837","name":"Anyumben Mosque","lat":3.393531,"lng":31.283747,"addr":"","type":"place_of_worship"},{"id":"xx33865_312833","name":"Ibabiri Mosque","lat":3.386474,"lng":31.283304,"addr":"","type":"place_of_worship"},{"id":"xx32240_314163","name":"Okubani Zahiri Mosque","lat":3.224015,"lng":31.416293,"addr":"","type":"place_of_worship"},{"id":"xx33256_313633","name":"Ayago Mosque","lat":3.325625,"lng":31.363263,"addr":"","type":"place_of_worship"},{"id":"xx33091_313333","name":"Okuyo Akisa Mosque","lat":3.309088,"lng":31.333302,"addr":"","type":"place_of_worship"},{"id":"xx32964_313710","name":"Jahadi Barifa Mosque","lat":3.296385,"lng":31.37097,"addr":"","type":"place_of_worship"},{"id":"xx33105_313848","name":"Tachycardia Mosque","lat":3.310453,"lng":31.384843,"addr":"","type":"place_of_worship"},{"id":"xx33862_312945","name":"Kitole Mosque","lat":3.386163,"lng":31.29452,"addr":"","type":"place_of_worship"},{"id":"xx33956_312957","name":"Kitole Mosque","lat":3.395575,"lng":31.2957,"addr":"","type":"place_of_worship"},{"id":"xx33086_312551","name":"Igamara Mosque","lat":3.308605,"lng":31.255095,"addr":"","type":"place_of_worship"},{"id":"xx32420_313955","name":"Taqua Ariwa Mosque","lat":3.24198,"lng":31.3955,"addr":"","type":"place_of_worship"},{"id":"xx33471_312502","name":"Salaam Kulikulinga","lat":3.347081,"lng":31.250244,"addr":"","type":"place_of_worship"},{"id":"xx32037_314404","name":"Awinga Hijira Mosque","lat":3.203733,"lng":31.440395,"addr":"","type":"place_of_worship"},{"id":"xx32875_313524","name":"Ombechi Jida Mosque","lat":3.287462,"lng":31.352395,"addr":"","type":"place_of_worship"},{"id":"xx34930_311560","name":"Eriisad Mosque","lat":3.493004,"lng":31.156046,"addr":"","type":"place_of_worship"},{"id":"xx36286_312440","name":"Arafa Bugo Mosque","lat":3.628646,"lng":31.24401,"addr":"","type":"place_of_worship"},{"id":"xx35257_311968","name":"Tawheed Tuliki Mosque","lat":3.525652,"lng":31.196792,"addr":"","type":"place_of_worship"},{"id":"xx34804_311184","name":"Nuru Mosque","lat":3.480412,"lng":31.118432,"addr":"","type":"place_of_worship"},{"id":"xx34795_311051","name":"Gichara Mosque","lat":3.47948,"lng":31.10513,"addr":"","type":"place_of_worship"},{"id":"xx35883_311279","name":"Hijira Adu","lat":3.588343,"lng":31.127866,"addr":"","type":"place_of_worship"},{"id":"xx35144_311415","name":"Still Joke","lat":3.514428,"lng":31.141539,"addr":"","type":"place_of_worship"},{"id":"xx36569_312679","name":"Islamic place","lat":3.65687,"lng":31.267888,"addr":"","type":"place_of_worship"},{"id":"xx35164_312620","name":"Malik Kobo","lat":3.516408,"lng":31.262017,"addr":"","type":"place_of_worship"},{"id":"xx35223_312504","name":"Al Kawf Mosque","lat":3.522293,"lng":31.25039,"addr":"","type":"place_of_worship"},{"id":"xx35052_312511","name":"Noor Olugofe Mosque","lat":3.505215,"lng":31.251062,"addr":"","type":"place_of_worship"},{"id":"xx34895_312867","name":"Nabawi Mosque Kowonga","lat":3.489516,"lng":31.286716,"addr":"","type":"place_of_worship"},{"id":"xx34945_313078","name":"Salama Mosque","lat":3.494502,"lng":31.307771,"addr":"","type":"place_of_worship"},{"id":"xx34964_312714","name":"Guba Kerila Mosque","lat":3.496409,"lng":31.271384,"addr":"","type":"place_of_worship"},{"id":"xx35089_312378","name":"Fataha Mosque","lat":3.508892,"lng":31.237818,"addr":"","type":"place_of_worship"},{"id":"xx35036_312309","name":"Arafa Mosque","lat":3.503611,"lng":31.230868,"addr":"","type":"place_of_worship"},{"id":"xx34878_312164","name":"Huda Mosque","lat":3.487826,"lng":31.216424,"addr":"","type":"place_of_worship"},{"id":"xx34801_313249","name":"Fawuzi Agonga Mosque","lat":3.48015,"lng":31.324861,"addr":"","type":"place_of_worship"},{"id":"xx34434_312395","name":"Tawhed Mosque","lat":3.443358,"lng":31.239528,"addr":"","type":"place_of_worship"},{"id":"xx34505_312288","name":"Hosna Mosque","lat":3.45049,"lng":31.22879,"addr":"","type":"place_of_worship"},{"id":"xx33504_310826","name":"Chupiri Mosque","lat":3.350445,"lng":31.082595,"addr":"","type":"place_of_worship"},{"id":"xx34211_312754","name":"Nuru Bura Mosque","lat":3.421137,"lng":31.275383,"addr":"","type":"place_of_worship"},{"id":"xx34971_312228","name":"Robu Mosque","lat":3.497127,"lng":31.222823,"addr":"","type":"place_of_worship"},{"id":"xx34708_312152","name":"Muzidalifa Mosque","lat":3.470793,"lng":31.215168,"addr":"","type":"place_of_worship"},{"id":"xx34911_312274","name":"Logoa Mosque","lat":3.4911,"lng":31.227395,"addr":"","type":"place_of_worship"},{"id":"xx34026_312531","name":"Amir Mosque","lat":3.402587,"lng":31.253063,"addr":"","type":"place_of_worship"},{"id":"xx34059_312661","name":"Hidaya Mosque","lat":3.40588,"lng":31.266124,"addr":"","type":"place_of_worship"},{"id":"xx34341_312856","name":"Tauba Ojinga Mosque","lat":3.434093,"lng":31.285558,"addr":"","type":"place_of_worship"},{"id":"xx34296_312698","name":"Swalihina Mosque","lat":3.429583,"lng":31.269826,"addr":"","type":"place_of_worship"},{"id":"xx34400_312557","name":"Munira Ujji Mosque","lat":3.439992,"lng":31.255708,"addr":"","type":"place_of_worship"},{"id":"xx34759_311964","name":"Nuru Ambayo Mosque","lat":3.475891,"lng":31.196396,"addr":"","type":"place_of_worship"},{"id":"xx34555_311896","name":"Langi West Community Mosque","lat":3.455452,"lng":31.189605,"addr":"","type":"place_of_worship"},{"id":"xx34768_311839","name":"Ambayo Mosque","lat":3.476796,"lng":31.183872,"addr":"","type":"place_of_worship"},{"id":"xx34660_311818","name":"Imvenga Mosque","lat":3.465981,"lng":31.181817,"addr":"","type":"place_of_worship"},{"id":"xx34357_311770","name":"Fatah Mosque","lat":3.435713,"lng":31.176965,"addr":"","type":"place_of_worship"},{"id":"xx34168_312362","name":"Sabrina Aliba Mosque","lat":3.416784,"lng":31.236158,"addr":"","type":"place_of_worship"},{"id":"xx34514_311354","name":"Adina Mosque","lat":3.451409,"lng":31.135418,"addr":"","type":"place_of_worship"},{"id":"xx34062_312427","name":"Mujumu Fauzu","lat":3.406215,"lng":31.242677,"addr":"","type":"place_of_worship"},{"id":"xx34548_311712","name":"Mila Mosque","lat":3.454777,"lng":31.171242,"addr":"","type":"place_of_worship"},{"id":"xx34344_312470","name":"Jihad Govule Mosque","lat":3.434405,"lng":31.246978,"addr":"","type":"place_of_worship"},{"id":"xx34493_312115","name":"Mubarak Mosque","lat":3.44926,"lng":31.211468,"addr":"","type":"place_of_worship"},{"id":"xx34584_312209","name":"Mukadasi Mosque","lat":3.458435,"lng":31.220918,"addr":"","type":"place_of_worship"},{"id":"xx34445_311958","name":"Kuru Mosque","lat":3.444519,"lng":31.195804,"addr":"","type":"place_of_worship"},{"id":"xx34170_311347","name":"Khuba Galaba","lat":3.41695,"lng":31.134678,"addr":"","type":"place_of_worship"},{"id":"xx34411_311860","name":"Nisan Mosque","lat":3.441133,"lng":31.186022,"addr":"","type":"place_of_worship"},{"id":"xx34311_311257","name":"Bilalli Aringachaku Mosque","lat":3.431143,"lng":31.125683,"addr":"","type":"place_of_worship"},{"id":"xx34774_312929","name":"Kisimua Mosque","lat":3.477383,"lng":31.292947,"addr":"","type":"place_of_worship"},{"id":"xx34950_312485","name":"Drakachi Mosque","lat":3.495015,"lng":31.248535,"addr":"","type":"place_of_worship"},{"id":"xx34824_312537","name":"Hamim Mosque","lat":3.482418,"lng":31.253713,"addr":"","type":"place_of_worship"},{"id":"xx34765_313145","name":"Woroworo Mosque","lat":3.47652,"lng":31.314507,"addr":"","type":"place_of_worship"},{"id":"xx34903_312656","name":"Jida Mosque","lat":3.490293,"lng":31.265599,"addr":"","type":"place_of_worship"},{"id":"xx35042_312907","name":"Sabirina Ogujebe Mosque","lat":3.504226,"lng":31.290653,"addr":"","type":"place_of_worship"},{"id":"xx34879_313216","name":"Kozzinga Mosque","lat":3.487922,"lng":31.321623,"addr":"","type":"place_of_worship"},{"id":"xx34621_312514","name":"Hababu Mosque","lat":3.46215,"lng":31.251403,"addr":"","type":"place_of_worship"},{"id":"xx34817_312374","name":"Sofa Mosque","lat":3.481727,"lng":31.237397,"addr":"","type":"place_of_worship"},{"id":"xx34772_312616","name":"Osisa Mosque","lat":3.477158,"lng":31.261595,"addr":"","type":"place_of_worship"},{"id":"xx34659_312978","name":"Huda Salamia Kondiba","lat":3.465878,"lng":31.297797,"addr":"","type":"place_of_worship"},{"id":"xx34673_312907","name":"Kondiba Mosque","lat":3.467255,"lng":31.290732,"addr":"","type":"place_of_worship"},{"id":"xx34625_312600","name":"Anisuri Mosque","lat":3.46252,"lng":31.260017,"addr":"","type":"place_of_worship"},{"id":"xx34567_312508","name":"Fawuzi Mosque","lat":3.456652,"lng":31.250777,"addr":"","type":"place_of_worship"},{"id":"xx34484_312553","name":"Madina Mosque","lat":3.448434,"lng":31.255262,"addr":"","type":"place_of_worship"},{"id":"xx34482_312628","name":"Muzidalifa Mosque","lat":3.448182,"lng":31.262808,"addr":"","type":"place_of_worship"},{"id":"xx34633_312464","name":"Taqua Mosque","lat":3.463292,"lng":31.246365,"addr":"","type":"place_of_worship"},{"id":"xx34620_312702","name":"Nahimu Ibile","lat":3.462048,"lng":31.270181,"addr":"","type":"place_of_worship"},{"id":"xx34505_312816","name":"Kawsara Mosque","lat":3.450534,"lng":31.281575,"addr":"","type":"place_of_worship"},{"id":"xx34598_312725","name":"Kawsara Mosque","lat":3.459766,"lng":31.272455,"addr":"","type":"place_of_worship"},{"id":"xx34486_312941","name":"Nurle Islamia Aranga","lat":3.448638,"lng":31.294059,"addr":"","type":"place_of_worship"},{"id":"xx36518_313578","name":"Muhajirina Kendra Mosque","lat":3.651798,"lng":31.35779,"addr":"","type":"place_of_worship"},{"id":"xx34623_312293","name":"Hunain Mosque","lat":3.4623,"lng":31.229285,"addr":"","type":"place_of_worship"},{"id":"xx34669_312435","name":"School Mosque","lat":3.466865,"lng":31.243518,"addr":"","type":"place_of_worship"},{"id":"xx36450_312463","name":"Infaq Oluga Mosque","lat":3.644993,"lng":31.246303,"addr":"","type":"place_of_worship"},{"id":"xx34664_312507","name":"Munir Mosque","lat":3.466425,"lng":31.250685,"addr":"","type":"place_of_worship"},{"id":"xx35802_312001","name":"Fauzu Gumbiri Mosque","lat":3.580185,"lng":31.2001,"addr":"","type":"place_of_worship"},{"id":"xx36104_312336","name":"Midigo Mosque","lat":3.610399,"lng":31.233559,"addr":"","type":"place_of_worship"},{"id":"xx36495_313020","name":"Idaya Adibu Mosque","lat":3.649507,"lng":31.302047,"addr":"","type":"place_of_worship"},{"id":"xx35794_312717","name":"Aliji Jihad Mosque","lat":3.57945,"lng":31.271653,"addr":"","type":"place_of_worship"},{"id":"xx35673_312154","name":"Muzidalfa Ebu Mosque","lat":3.56731,"lng":31.215388,"addr":"","type":"place_of_worship"},{"id":"xx36723_312014","name":"Nasira Ajubele Mosque","lat":3.672268,"lng":31.201438,"addr":"","type":"place_of_worship"},{"id":"xx35880_312483","name":"Guba Hilali Mosque","lat":3.587983,"lng":31.248282,"addr":"","type":"place_of_worship"},{"id":"xx35686_312417","name":"Ali-fatha Mosque Achilaka","lat":3.568629,"lng":31.241724,"addr":"","type":"place_of_worship"},{"id":"xx35552_315429","name":"Akswa","lat":3.555211,"lng":31.542921,"addr":"","type":"place_of_worship"},{"id":"xx36134_312014","name":"Nuru Olobio Mosque","lat":3.613393,"lng":31.201355,"addr":"","type":"place_of_worship"},{"id":"xx35794_315152","name":"Huda Aliodraanusi","lat":3.5794,"lng":31.515168,"addr":"","type":"place_of_worship"},{"id":"xx35374_312555","name":"Jazia Mosque","lat":3.537437,"lng":31.255535,"addr":"","type":"place_of_worship"},{"id":"xx36303_312746","name":"Akswa Dera","lat":3.630349,"lng":31.274609,"addr":"","type":"place_of_worship"},{"id":"xx36308_313242","name":"Adubu Mosque","lat":3.630782,"lng":31.324155,"addr":"","type":"place_of_worship"},{"id":"xx36083_313259","name":"Swabirina Kela","lat":3.608347,"lng":31.32592,"addr":"","type":"place_of_worship"},{"id":"xx36038_312331","name":"Huda Midigo Mosque","lat":3.603813,"lng":31.233068,"addr":"","type":"place_of_worship"},{"id":"xx37446_311722","name":"Kimu Mosque","lat":3.744638,"lng":31.172238,"addr":"","type":"place_of_worship"},{"id":"xx37031_311742","name":"Kadio Mosque","lat":3.703072,"lng":31.174237,"addr":"","type":"place_of_worship"},{"id":"xx35752_315069","name":"St James Church","lat":3.575222,"lng":31.506933,"addr":"","type":"place_of_worship"},{"id":"xx35172_312967","name":"Uche Mosque","lat":3.517158,"lng":31.296692,"addr":"","type":"place_of_worship"},{"id":"xx35060_313020","name":"Manibe Elhad Mosque","lat":3.506018,"lng":31.302008,"addr":"","type":"place_of_worship"},{"id":"xx35758_314770","name":"Kegburu Mosque","lat":3.575803,"lng":31.476993,"addr":"","type":"place_of_worship"},{"id":"xx35406_314806","name":"Hidaya Mosque","lat":3.540568,"lng":31.480573,"addr":"","type":"place_of_worship"},{"id":"xx35619_314442","name":"Kochi Mosque","lat":3.561927,"lng":31.44418,"addr":"","type":"place_of_worship"},{"id":"xx35493_313403","name":"Salam Mosque","lat":3.549312,"lng":31.340273,"addr":"","type":"place_of_worship"},{"id":"xx35210_315276","name":"Hijira Mosque","lat":3.521045,"lng":31.527638,"addr":"","type":"place_of_worship"},{"id":"xx35437_314263","name":"Takwa Akande Mosque","lat":3.543722,"lng":31.426261,"addr":"","type":"place_of_worship"},{"id":"xx35565_313596","name":"Karim Koka Mosque","lat":3.556545,"lng":31.359597,"addr":"","type":"place_of_worship"},{"id":"xx11882_307819","name":"Kasonga Mosque","lat":1.188247,"lng":30.781873,"addr":"","type":"place_of_worship"},{"id":"xx34167_309618","name":"kauthar mosque","lat":3.416669,"lng":30.961811,"addr":"","type":"place_of_worship"},{"id":"xx02532_326321","name":"Katongo Mosque","lat":0.253237,"lng":32.632082,"addr":"","type":"place_of_worship"},{"id":"xx02569_326367","name":"Islamic place","lat":0.256935,"lng":32.63666,"addr":"Ggaba Market Street","type":"place_of_worship"},{"id":"xx03710_325721","name":"Islamic place","lat":0.371024,"lng":32.572097,"addr":"","type":"place_of_worship"},{"id":"xx33384_313038","name":"Arafa Katanga Mosque","lat":3.338438,"lng":31.303775,"addr":"","type":"place_of_worship"},{"id":"xx33745_313107","name":"Heja Mosque","lat":3.374493,"lng":31.310735,"addr":"","type":"place_of_worship"},{"id":"xx32965_312931","name":"Village 7 Mosque","lat":3.296538,"lng":31.293122,"addr":"","type":"place_of_worship"},{"id":"xx32873_313104","name":"Islamic place","lat":3.287255,"lng":31.310355,"addr":"","type":"place_of_worship"},{"id":"xx33828_313750","name":"Arafat Mosque","lat":3.38284,"lng":31.374953,"addr":"","type":"place_of_worship"},{"id":"xx33762_313571","name":"Riad","lat":3.376243,"lng":31.35707,"addr":"","type":"place_of_worship"},{"id":"xx33970_313269","name":"Naja Mosque","lat":3.39701,"lng":31.326937,"addr":"","type":"place_of_worship"},{"id":"xx11350_307327","name":"Ikram","lat":1.135043,"lng":30.732687,"addr":"","type":"place_of_worship"},{"id":"xx11661_307494","name":"Musisa A Mosque","lat":1.166138,"lng":30.749383,"addr":"","type":"place_of_worship"},{"id":"xx02567_326368","name":"Islamic place","lat":0.256699,"lng":32.636824,"addr":"Gabuda Street","type":"place_of_worship"},{"id":"xx06764_302639","name":"Islamic place","lat":0.676407,"lng":30.263894,"addr":"","type":"place_of_worship"},{"id":"xx36959_314038","name":"Komorofe Mosque","lat":3.695878,"lng":31.403833,"addr":"","type":"place_of_worship"},{"id":"xx36643_314930","name":"Alema Mosque","lat":3.664308,"lng":31.49301,"addr":"","type":"place_of_worship"},{"id":"xx36387_314505","name":"Usisa Goboro Mosque","lat":3.638705,"lng":31.450523,"addr":"","type":"place_of_worship"},{"id":"xx34913_313369","name":"Baraka Allahu Mosque","lat":3.491252,"lng":31.336898,"addr":"","type":"place_of_worship"},{"id":"xx34972_313183","name":"Munawara Alipi Mosque","lat":3.497235,"lng":31.318308,"addr":"","type":"place_of_worship"},{"id":"xx04175_325696","name":"Islamic place","lat":0.417536,"lng":32.569584,"addr":"","type":"place_of_worship"},{"id":"xx02865_324390","name":"Madiinah islamic secondary school","lat":0.286519,"lng":32.439049,"addr":"","type":"school"},{"id":"xx03575_325475","name":"Zam Zam Islamic","lat":0.357477,"lng":32.547519,"addr":"","type":"school"},{"id":"xx03661_325566","name":"Islamic place","lat":0.366138,"lng":32.556566,"addr":"","type":"place_of_worship"},{"id":"xx03685_325546","name":"Islamic place","lat":0.368514,"lng":32.554608,"addr":"","type":"place_of_worship"},{"id":"xx03645_325589","name":"Islamic place","lat":0.364496,"lng":32.558944,"addr":"","type":"place_of_worship"},{"id":"xx03646_325564","name":"Islamic place","lat":0.364585,"lng":32.556386,"addr":"","type":"place_of_worship"},{"id":"xx03670_325575","name":"Islamic place","lat":0.36703,"lng":32.557497,"addr":"","type":"place_of_worship"},{"id":"xx03523_326567","name":"Islamic place","lat":0.352321,"lng":32.656725,"addr":"","type":"place_of_worship"},{"id":"xx18465_313818","name":"Karuka mosque","lat":1.846542,"lng":31.381815,"addr":"","type":"place_of_worship"},{"id":"xx03094_325280","name":"King Fahad Islamic Primary School","lat":0.309405,"lng":32.52796,"addr":"","type":"school"},{"id":"xx00910_324965","name":"Islamic place","lat":0.091027,"lng":32.496456,"addr":"","type":"place_of_worship"},{"id":"xx00387_324678","name":"Bugonga Landing Site Mosque","lat":0.038669,"lng":32.467799,"addr":"","type":"place_of_worship"},{"id":"xx18089_320093","name":"Kigumba mosque","lat":1.808859,"lng":32.009289,"addr":"","type":"place_of_worship"},{"id":"xx10545_341654","name":"Nujum Mosque Marale","lat":1.054473,"lng":34.165391,"addr":"","type":"place_of_worship"},{"id":"xx10588_341560","name":"Masjid Salama (Mbale, Musoto)","lat":1.058845,"lng":34.156008,"addr":"","type":"place_of_worship"},{"id":"xx03800_325555","name":"Islamic place","lat":0.380003,"lng":32.555535,"addr":"","type":"place_of_worship"},{"id":"xx09486_342747","name":"Bubulo Mosque","lat":0.94863,"lng":34.27468,"addr":"","type":"place_of_worship"},{"id":"xx03506_326625","name":"Masjid Shuurah - Bweyogerere","lat":0.350602,"lng":32.662489,"addr":"Namboole Road","type":"place_of_worship"},{"id":"xx18303_319415","name":"Katamarwa mosque","lat":1.830339,"lng":31.941528,"addr":"","type":"place_of_worship"},{"id":"xx18064_320051","name":"St James COU church","lat":1.80645,"lng":32.005081,"addr":"","type":"place_of_worship"},{"id":"xx05239_333965","name":"Arqam Mosque","lat":0.523861,"lng":33.396541,"addr":"","type":"place_of_worship"},{"id":"xx04619_332167","name":"Islamic place","lat":0.461901,"lng":33.216674,"addr":"","type":"place_of_worship"},{"id":"xx16830_317200","name":"Islamic place","lat":1.68298,"lng":31.720046,"addr":"","type":"place_of_worship"},{"id":"xx34173_310785","name":"Islamic place","lat":3.417308,"lng":31.078535,"addr":"Moyo Road","type":"place_of_worship"},{"id":"xx34391_310078","name":"Islamic place","lat":3.439136,"lng":31.007797,"addr":"Moyo Road","type":"place_of_worship"},{"id":"xx34425_310252","name":"Islamic place","lat":3.442536,"lng":31.02515,"addr":"Moyo Road","type":"place_of_worship"},{"id":"xx04541_337244","name":"Imjan Mosque","lat":0.45409,"lng":33.724406,"addr":"","type":"place_of_worship"},{"id":"xx04490_336814","name":"Swadik Mosque","lat":0.449015,"lng":33.681403,"addr":"","type":"place_of_worship"},{"id":"xx04555_335971","name":"Islamic place","lat":0.455513,"lng":33.597086,"addr":"","type":"place_of_worship"},{"id":"xx34319_309812","name":"Islamic place","lat":3.431918,"lng":30.981164,"addr":"Moyo Road","type":"place_of_worship"},{"id":"xx34052_313012","name":"kululu mosque","lat":3.405211,"lng":31.301212,"addr":"","type":"place_of_worship"},{"id":"xx30251_309127","name":"Islamic place","lat":3.025109,"lng":30.912729,"addr":"Hospital Road","type":"place_of_worship"},{"id":"xx34359_310494","name":"Islamic place","lat":3.435919,"lng":31.049404,"addr":"Moyo Road","type":"place_of_worship"},{"id":"xx32850_309450","name":"Islamic place","lat":3.285047,"lng":30.944999,"addr":"Koboko - Arua Road","type":"place_of_worship"},{"id":"xx06194_325338","name":"Islamic place","lat":0.619433,"lng":32.533824,"addr":"Gulu - Kampala Road","type":"place_of_worship"},{"id":"xx03693_326410","name":"Islamic place","lat":0.369264,"lng":32.641012,"addr":"Kyaliwajjala - Naalya Road","type":"place_of_worship"},{"id":"xx04092_325943","name":"Masjid Taqua","lat":0.409232,"lng":32.594255,"addr":"","type":"place_of_worship"},{"id":"xx02959_325778","name":"Islamic place","lat":0.295949,"lng":32.577774,"addr":"","type":"place_of_worship"},{"id":"xx17913_319592","name":"Islamic place","lat":1.791306,"lng":31.959232,"addr":"","type":"place_of_worship"},{"id":"xx18408_320294","name":"Islamic place","lat":1.840761,"lng":32.029363,"addr":"","type":"place_of_worship"},{"id":"xx18069_319453","name":"Islamic place","lat":1.806933,"lng":31.945264,"addr":"","type":"place_of_worship"},{"id":"xx21180_322034","name":"Islamic place","lat":2.118027,"lng":32.203448,"addr":"Gulu - Kampala Road","type":"place_of_worship"},{"id":"xx03945_326655","name":"Janda.Mosque","lat":0.394524,"lng":32.66553,"addr":"","type":"place_of_worship"},{"id":"xx07140_331576","name":"Islamic place","lat":0.713977,"lng":33.157626,"addr":"","type":"place_of_worship"},{"id":"xx05216_330818","name":"Islamic place","lat":0.521601,"lng":33.081843,"addr":"","type":"place_of_worship"},{"id":"xx05351_330632","name":"Islamic place","lat":0.53514,"lng":33.063186,"addr":"","type":"place_of_worship"},{"id":"xx06049_330065","name":"St James COU","lat":0.604896,"lng":33.006532,"addr":"","type":"place_of_worship"},{"id":"xx06162_330016","name":"Islamic place","lat":0.616157,"lng":33.001618,"addr":"","type":"place_of_worship"},{"id":"xx06254_329979","name":"Islamic place","lat":0.625425,"lng":32.997946,"addr":"","type":"place_of_worship"},{"id":"xx06802_328879","name":"Islamic place","lat":0.680191,"lng":32.887942,"addr":"","type":"place_of_worship"},{"id":"xx06298_328275","name":"Islamic place","lat":0.629803,"lng":32.827515,"addr":"","type":"place_of_worship"},{"id":"xx03837_325679","name":"Islamic place","lat":0.383687,"lng":32.567928,"addr":"","type":"place_of_worship"},{"id":"xx24221_309752","name":"Swalihill","lat":2.422138,"lng":30.975215,"addr":"","type":"place_of_worship"},{"id":"xx25440_308759","name":"Nuru Mosque Pakia","lat":2.543988,"lng":30.87589,"addr":"","type":"place_of_worship"},{"id":"xx24883_310314","name":"Arafad","lat":2.48828,"lng":31.031433,"addr":"","type":"place_of_worship"},{"id":"xx24073_310014","name":"Karhati Mosque","lat":2.407257,"lng":31.001352,"addr":"","type":"place_of_worship"},{"id":"xx26003_308876","name":"Warr Mosque 2","lat":2.600278,"lng":30.887632,"addr":"","type":"place_of_worship"},{"id":"xx26000_308851","name":"Hajji Hamis","lat":2.599993,"lng":30.885114,"addr":"","type":"place_of_worship"},{"id":"xx24189_309963","name":"Salama","lat":2.418879,"lng":30.996253,"addr":"","type":"place_of_worship"},{"id":"xx25998_308896","name":"Masjid Fauz","lat":2.599839,"lng":30.889569,"addr":"","type":"place_of_worship"},{"id":"xx25982_308860","name":"Zaharaa Mosque","lat":2.598155,"lng":30.886017,"addr":"","type":"place_of_worship"},{"id":"xx25983_308890","name":"Sena Foundation","lat":2.598255,"lng":30.889041,"addr":"","type":"place_of_worship"},{"id":"xx24156_309889","name":"Nuru Mosque Ovuruyindi","lat":2.415608,"lng":30.988872,"addr":"","type":"place_of_worship"},{"id":"xx24241_309901","name":"Abdin","lat":2.424138,"lng":30.990072,"addr":"","type":"place_of_worship"},{"id":"xx25248_309626","name":"Takes Mosque","lat":2.524847,"lng":30.962562,"addr":"","type":"place_of_worship"},{"id":"xx24587_309570","name":"Rola Mosque","lat":2.458723,"lng":30.956995,"addr":"","type":"place_of_worship"},{"id":"xx24361_309698","name":"Ngia Mosque","lat":2.436112,"lng":30.96981,"addr":"","type":"place_of_worship"},{"id":"xx25197_309092","name":"Cana Mosque","lat":2.519727,"lng":30.909173,"addr":"","type":"place_of_worship"},{"id":"xx24924_308722","name":"Atyenda Mosque","lat":2.492374,"lng":30.872172,"addr":"","type":"place_of_worship"},{"id":"xx26466_308377","name":"Aligu Mosque","lat":2.646565,"lng":30.837737,"addr":"","type":"place_of_worship"},{"id":"xx25719_309318","name":"Anyola Mosque","lat":2.571887,"lng":30.93182,"addr":"","type":"place_of_worship"},{"id":"xx26220_309238","name":"Ukuru Munawara Mosque","lat":2.621953,"lng":30.923847,"addr":"","type":"place_of_worship"},{"id":"xx26733_309246","name":"Masjid Sultan's","lat":2.673292,"lng":30.92464,"addr":"","type":"place_of_worship"},{"id":"xx25356_308235","name":"Menses Mosque","lat":2.535633,"lng":30.823487,"addr":"","type":"place_of_worship"},{"id":"xx25803_308178","name":"Masjid Fazal Dad Khan","lat":2.580313,"lng":30.81783,"addr":"","type":"place_of_worship"},{"id":"xx24879_310314","name":"Arafat","lat":2.487885,"lng":31.031417,"addr":"","type":"place_of_worship"},{"id":"xx24383_310145","name":"Pagisi Mosque","lat":2.438258,"lng":31.014463,"addr":"","type":"place_of_worship"},{"id":"xx24065_308415","name":"Taqure","lat":2.406511,"lng":30.841506,"addr":"","type":"place_of_worship"},{"id":"xx23740_309206","name":"Pakadha Mosque","lat":2.373955,"lng":30.920594,"addr":"","type":"place_of_worship"},{"id":"xx24130_309014","name":"Konga Mosque","lat":2.41304,"lng":30.901407,"addr":"","type":"place_of_worship"},{"id":"xx25647_309992","name":"Yil Mosque","lat":2.564652,"lng":30.99917,"addr":"","type":"place_of_worship"},{"id":"xx25269_308477","name":"Kigezi","lat":2.526913,"lng":30.847666,"addr":"","type":"place_of_worship"},{"id":"xx03835_325596","name":"Islamic place","lat":0.38349,"lng":32.55963,"addr":"","type":"place_of_worship"},{"id":"xx04647_324567","name":"Islamic place","lat":0.464696,"lng":32.45667,"addr":"","type":"place_of_worship"},{"id":"xx10733_341977","name":"Islamic place","lat":1.073334,"lng":34.197698,"addr":"","type":"place_of_worship"},{"id":"xx03503_338712","name":"Islamic place","lat":0.35032,"lng":33.87122,"addr":"","type":"place_of_worship"},{"id":"xx03404_338735","name":"Islamic place","lat":0.340352,"lng":33.87351,"addr":"","type":"place_of_worship"},{"id":"xx03434_338793","name":"Mosque Namayingo East","lat":0.343388,"lng":33.879294,"addr":"","type":"place_of_worship"},{"id":"xx03080_326516","name":"Bbiina Mosque","lat":0.308001,"lng":32.651589,"addr":"","type":"place_of_worship"},{"id":"xx04153_325348","name":"St James church of Uganda kawanda","lat":0.4153,"lng":32.534833,"addr":"kilinyabingo","type":"place_of_worship"},{"id":"xx00525_324641","name":"Islm mosque","lat":0.052506,"lng":32.464086,"addr":"","type":"mosque"},{"id":"xx07165_341294","name":"Achilet mosque","lat":0.716487,"lng":34.129437,"addr":"","type":"place_of_worship"},{"id":"xx11335_341661","name":"Islamic place","lat":1.133507,"lng":34.166079,"addr":"","type":"place_of_worship"},{"id":"xx11072_341781","name":"Masjid Ruqayya Namanyonyi","lat":1.107218,"lng":34.178108,"addr":"","type":"place_of_worship"},{"id":"xx02609_331092","name":"Bufumbe Mosque","lat":0.26093,"lng":33.109226,"addr":"","type":"place_of_worship"},{"id":"xx06378_300308","name":"Kaleyaleya II","lat":0.637802,"lng":30.030793,"addr":"","type":"place_of_worship"},{"id":"xx08652_301733","name":"Burondo mosque","lat":0.865221,"lng":30.173324,"addr":"","type":"place_of_worship"},{"id":"xx06825_300661","name":"Izahura mosque","lat":0.682492,"lng":30.066068,"addr":"","type":"place_of_worship"},{"id":"xx08479_301740","name":"Kyakatimba Muslem","lat":0.84792,"lng":30.173968,"addr":"","type":"place_of_worship"},{"id":"xx08014_301414","name":"Ntandi Moslem","lat":0.801399,"lng":30.141424,"addr":"","type":"place_of_worship"},{"id":"xx14330_313524","name":"Hoima Town Mosque","lat":1.432965,"lng":31.352415,"addr":"","type":"place_of_worship"},{"id":"xx14316_313666","name":"Islamic place","lat":1.431551,"lng":31.366634,"addr":"","type":"place_of_worship"},{"id":"xx14185_313371","name":"Islamic place","lat":1.418507,"lng":31.337105,"addr":"","type":"place_of_worship"},{"id":"xx14184_313524","name":"Makkah Education Centre","lat":1.418393,"lng":31.352419,"addr":"","type":"school"},{"id":"xx14753_313037","name":"Karongo mosque","lat":1.47528,"lng":31.30366,"addr":"","type":"place_of_worship"},{"id":"xx01888_324087","name":"Islamic place","lat":0.188771,"lng":32.408728,"addr":"","type":"mosque"},{"id":"xx13586_314029","name":"Kayera mosque","lat":1.358556,"lng":31.402894,"addr":"","type":"place_of_worship"},{"id":"xx04553_325656","name":"Mosque","lat":0.455319,"lng":32.56559,"addr":"","type":"place_of_worship"},{"id":"xx04635_325554","name":"Kiti Mosque","lat":0.463491,"lng":32.555389,"addr":"","type":"place_of_worship"},{"id":"xx04297_325575","name":"Islamic place","lat":0.429707,"lng":32.557496,"addr":"","type":"mosque"},{"id":"xx06384_325308","name":"Kalule UMEA P/S","lat":0.638416,"lng":32.530845,"addr":"","type":"school"},{"id":"xx06383_325306","name":"Islamic place","lat":0.638327,"lng":32.530552,"addr":"","type":"place_of_worship"},{"id":"xx24624_315023","name":"Islamic place","lat":2.462398,"lng":31.502287,"addr":"","type":"place_of_worship"},{"id":"xx03546_325709","name":"Islamic place","lat":0.354625,"lng":32.570905,"addr":"","type":"place_of_worship"},{"id":"xx02525_325363","name":"MASJID JAMIA LUNYA","lat":0.252548,"lng":32.536288,"addr":"Eng. Hussein L. Road","type":"place_of_worship"},{"id":"xx00647_324736","name":"Islamic place","lat":0.064741,"lng":32.473631,"addr":"","type":"place_of_worship"},{"id":"xx03761_324547","name":"mustafa mosque","lat":0.376094,"lng":32.454704,"addr":"","type":"place_of_worship"},{"id":"xx03154_325685","name":"Islamic place","lat":0.315442,"lng":32.568522,"addr":"","type":"mosque"},{"id":"xx02979_326029","name":"Kassam Mosque - Kabalagala Islamic Center","lat":0.297858,"lng":32.602891,"addr":"","type":"mosque"},{"id":"xx03109_325954","name":"Kibuli Mosque","lat":0.310897,"lng":32.595413,"addr":"","type":"mosque"},{"id":"xx03076_326079","name":"Masjid Shuurah Mosque","lat":0.307551,"lng":32.607942,"addr":"","type":"place_of_worship"},{"id":"xx03063_326013","name":"Islamic place","lat":0.306255,"lng":32.601314,"addr":"","type":"place_of_worship"},{"id":"xx17144_336181","name":"Islamic place","lat":1.714401,"lng":33.618086,"addr":"","type":"place_of_worship"},{"id":"xx03299_325712","name":"University Mosque","lat":0.329867,"lng":32.571236,"addr":"","type":"mosque"},{"id":"xx09246_340443","name":"Akuwo Namazima Church","lat":0.924621,"lng":34.044257,"addr":"","type":"church"},{"id":"xx09115_340449","name":"Magaga Mosque","lat":0.911547,"lng":34.044862,"addr":"","type":"mosque"},{"id":"xx09597_340782","name":"Budiba Mosque","lat":0.959732,"lng":34.078225,"addr":"","type":"mosque"},{"id":"xx09652_340869","name":"Bugalo Mosque","lat":0.965194,"lng":34.086912,"addr":"","type":"mosque"},{"id":"xx09619_340551","name":"Kapisa Mosque","lat":0.96187,"lng":34.055106,"addr":"","type":"mosque"},{"id":"xx09514_340654","name":"Manafa Mosque","lat":0.951428,"lng":34.065433,"addr":"","type":"mosque"},{"id":"xx09706_341086","name":"Islamic place","lat":0.970596,"lng":34.108646,"addr":"","type":"mosque"},{"id":"xx09599_341196","name":"Islamic place","lat":0.959921,"lng":34.119589,"addr":"","type":"mosque"},{"id":"xx09266_340503","name":"Naderema Mosque","lat":0.926591,"lng":34.0503,"addr":"","type":"mosque"},{"id":"xx09514_340647","name":"Nahiliga Mosque","lat":0.951426,"lng":34.06468,"addr":"","type":"mosque"},{"id":"xx09662_340683","name":"Nakabi Moque","lat":0.966207,"lng":34.068325,"addr":"","type":"yes"},{"id":"xx09270_340122","name":"Tacua Mosque","lat":0.927001,"lng":34.012213,"addr":"","type":"mosque"},{"id":"xx03511_325613","name":"St James Church","lat":0.351124,"lng":32.561333,"addr":"Kampala","type":"church"},{"id":"xx03898_325469","name":"Islamic place","lat":0.389751,"lng":32.54687,"addr":"","type":"yes"},{"id":"xx10146_343299","name":"Manjiya Mosque","lat":1.014641,"lng":34.329947,"addr":"","type":"mosque"},{"id":"xx10690_341740","name":"Islamic place","lat":1.069048,"lng":34.173984,"addr":"","type":"yes"},{"id":"xx02749_326158","name":"Islamic place","lat":0.27486,"lng":32.615834,"addr":"","type":"yes"},{"id":"xx35869_320623","name":"Islamic place","lat":3.586872,"lng":32.062264,"addr":"","type":"yes"},{"id":"xx09194_332637","name":"Islamic place","lat":0.919391,"lng":33.263673,"addr":"","type":"mosque"},{"id":"xx11689_337110","name":"Islamic place","lat":1.168877,"lng":33.710962,"addr":"","type":"place_of_worship"},{"id":"xx10853_341811","name":"Jalilu Islamic Primary School","lat":1.085342,"lng":34.181149,"addr":"","type":"school"},{"id":"xx04333_332085","name":"St James Church of Uganda","lat":0.433276,"lng":33.208538,"addr":"Nile Avenue","type":"yes"},{"id":"xx04335_332112","name":"Jinja Mosque","lat":0.433497,"lng":33.211182,"addr":"","type":"mosque"},{"id":"xx04264_332094","name":"Bilal Mosque","lat":0.426363,"lng":33.209411,"addr":"","type":"mosque"},{"id":"xx14728_338659","name":"Nyero Mosque","lat":1.472834,"lng":33.865939,"addr":"","type":"mosque"},{"id":"xx03434_326335","name":"Nabisunsa Girls' School Mosque","lat":0.343434,"lng":32.633463,"addr":"","type":"mosque"},{"id":"xx10142_339475","name":"Bugwere Islamic Institute Primary School","lat":1.014204,"lng":33.947512,"addr":"Budaka Township","type":"school"},{"id":"xx09462_331253","name":"Kamuli Mosque","lat":0.946172,"lng":33.125262,"addr":"","type":"place_of_worship"},{"id":"xx08356_324982","name":"Islamic place","lat":0.83565,"lng":32.498191,"addr":"","type":"mosque"},{"id":"xx10774_341732","name":"Islamic place","lat":1.077401,"lng":34.173238,"addr":"","type":"mosque"},{"id":"xx14887_339319","name":"Islamic place","lat":1.488679,"lng":33.931905,"addr":"Market Street","type":"mosque"},{"id":"xx30009_309117","name":"Islamic place","lat":3.000937,"lng":30.911674,"addr":"","type":"yes"},{"id":"xx10987_341747","name":"University mosque","lat":1.098694,"lng":34.174691,"addr":"","type":"mosque"},{"id":"xx06559_302780","name":"Islamic place","lat":0.655869,"lng":30.278017,"addr":"","type":"yes"},{"id":"xx06829_302787","name":"Islamic place","lat":0.682938,"lng":30.278692,"addr":"","type":"yes"},{"id":"xx06550_302686","name":"Islamic place","lat":0.655021,"lng":30.268628,"addr":"","type":"yes"},{"id":"xx03617_325750","name":"Kyebando Mosque","lat":0.36174,"lng":32.574954,"addr":"","type":"mosque"},{"id":"xx02850_324506","name":"Islamic place","lat":0.28504,"lng":32.450557,"addr":"","type":"yes"},{"id":"xx03139_325711","name":"Aga Khan Jamathkahna","lat":0.313907,"lng":32.571071,"addr":"","type":"yes"},{"id":"xx11741_343345","name":"Islamic place","lat":1.174094,"lng":34.334466,"addr":"","type":"yes"},{"id":"xx00921_325016","name":"Islamic place","lat":0.092143,"lng":32.501608,"addr":"","type":"yes"},