[{"id":"xx40843_735122","name":"Islamic place","lat":4.084322,"lng":73.512209,"addr":"","type":"place_of_worship"},{"id":"xx43498_736188","name":"Mosque","lat":4.349768,"lng":73.618791,"addr":"","type":"place_of_worship"},{"id":"xx41851_727743","name":"Islamic place","lat":4.185055,"lng":72.774255,"addr":"","type":"place_of_worship"},{"id":"xx41845_727732","name":"Islamic place","lat":4.184482,"lng":72.773231,"addr":"","type":"place_of_worship"},{"id":"xx29367_729899","name":"Kuda Miskiy","lat":2.936725,"lng":72.989909,"addr":"Kolethere Magu","type":"mosque"},{"id":"xx29375_729911","name":"Masjid A'Rahumath","lat":2.937453,"lng":72.991087,"addr":"Ameenee Magu","type":"mosque"},{"id":"xx23113_732995","name":"Islamic place","lat":2.311345,"lng":73.29948,"addr":"","type":"place_of_worship"},{"id":"xx06201_734619","name":"Masjidhul-Abraari","lat":0.62007,"lng":73.461943,"addr":"","type":"place_of_worship"},{"id":"xx41922_727444","name":"Aasaaree Miskiy","lat":4.192224,"lng":72.744365,"addr":"Saharaa Magu","type":"place_of_worship"},{"id":"xx41917_727462","name":"Masjidul Nasri","lat":4.191717,"lng":72.746181,"addr":"Roashanee Magu","type":"place_of_worship"},{"id":"xx41926_727463","name":"Masjidul Ihsaan","lat":4.192573,"lng":72.746256,"addr":"Roashanee Magu","type":"place_of_worship"},{"id":"xx41730_735082","name":"Islamic place","lat":4.173015,"lng":73.508201,"addr":"","type":"place_of_worship"},{"id":"xx42639_729915","name":"Hudha mosque","lat":4.263876,"lng":72.991456,"addr":"","type":"place_of_worship"},{"id":"xx41711_735109","name":"Imaduddin School","lat":4.17112,"lng":73.510931,"addr":"Ameenee Magu","type":"school"},{"id":"xx49601_734619","name":"Islamic place","lat":4.960122,"lng":73.461942,"addr":"","type":"place_of_worship"},{"id":"xx49600_734636","name":"Islamic place","lat":4.960004,"lng":73.463596,"addr":"","type":"place_of_worship"},{"id":"xx49595_734641","name":"Islamic place","lat":4.959493,"lng":73.464105,"addr":"","type":"place_of_worship"},{"id":"xx41752_735086","name":"Masjidhul Zikra","lat":4.175164,"lng":73.508592,"addr":"","type":"place_of_worship"},{"id":"xx21688_730645","name":"Masjidh Aisha","lat":2.168845,"lng":73.064494,"addr":"","type":"place_of_worship"},{"id":"xx41781_735071","name":"Faifuhey Miskiy","lat":4.178139,"lng":73.507127,"addr":"","type":"place_of_worship"},{"id":"xx41748_735043","name":"Eedhu Miskiy","lat":4.174817,"lng":73.504295,"addr":"","type":"place_of_worship"},{"id":"xx41878_735357","name":"Islamic place","lat":4.187786,"lng":73.535668,"addr":"","type":"place_of_worship"},{"id":"xx26701_728963","name":"Masjid Al Furqaan","lat":2.670062,"lng":72.896286,"addr":"","type":"place_of_worship"},{"id":"xx26701_728936","name":"Baahukuru Miskiyy mosque","lat":2.670106,"lng":72.893618,"addr":"","type":"place_of_worship"},{"id":"xx44430_737140","name":"Mosque","lat":4.44301,"lng":73.713969,"addr":"","type":"place_of_worship"},{"id":"xx34717_735462","name":"Mosque","lat":3.47166,"lng":73.546229,"addr":"","type":"place_of_worship"},{"id":"xx02280_732718","name":"Islamic place","lat":0.227969,"lng":73.271766,"addr":"","type":"place_of_worship"},{"id":"xx02261_732723","name":"Hukuru Miskiy","lat":0.226093,"lng":73.272306,"addr":"","type":"place_of_worship"},{"id":"xx02259_732723","name":"Islamic place","lat":0.225899,"lng":73.272291,"addr":"","type":"grave_yard"},{"id":"xx27324_730121","name":"Islamic place","lat":2.732369,"lng":73.012076,"addr":"","type":"place_of_worship"},{"id":"xx39014_734673","name":"Masjid Al-Noor","lat":3.901448,"lng":73.467276,"addr":"","type":"place_of_worship"},{"id":"xx32699_730014","name":"Islamic place","lat":3.269938,"lng":73.001367,"addr":"","type":"place_of_worship"},{"id":"xx43100_735716","name":"Islamic place","lat":4.310049,"lng":73.571555,"addr":"","type":"place_of_worship"},{"id":"xx41248_734633","name":"Crossroads Mosque","lat":4.124838,"lng":73.463274,"addr":"","type":"place_of_worship"},{"id":"xx42261_735200","name":"Islamic place","lat":4.226071,"lng":73.520028,"addr":"","type":"place_of_worship"},{"id":"xx41884_735271","name":"Muslim Prayer Room","lat":4.188409,"lng":73.527148,"addr":"","type":"place_of_worship"},{"id":"xx02220_731382","name":"Fiyoaree School","lat":0.221973,"lng":73.138217,"addr":"Baraasil Magu","type":"school"},{"id":"xx21666_730671","name":"Kinbidhoo School","lat":2.166613,"lng":73.067068,"addr":"Ghaazee Magu","type":"school"},{"id":"xx41878_735268","name":"Islamic place","lat":4.187806,"lng":73.526778,"addr":"","type":"place_of_worship"},{"id":"xx40510_727258","name":"Mosque","lat":4.051015,"lng":72.725805,"addr":"","type":"place_of_worship"},{"id":"xx30778_729629","name":"Islamic place","lat":3.077759,"lng":72.962922,"addr":"","type":"place_of_worship"},{"id":"xx30798_729662","name":"Islamic place","lat":3.079763,"lng":72.966197,"addr":"","type":"place_of_worship"},{"id":"xx42280_735478","name":"މަސްޖިދު ހަސަން އާދަމް","lat":4.227989,"lng":73.547753,"addr":"","type":"place_of_worship"},{"id":"xx34893_727835","name":"Fenfushi Friday Mosque","lat":3.489322,"lng":72.78353,"addr":"","type":"place_of_worship"},{"id":"xx21270_735799","name":"Isdhoo Old Mosque","lat":2.126982,"lng":73.579943,"addr":"","type":"place_of_worship"},{"id":"xx49628_734652","name":"Masjidhul Thauheedh","lat":4.962751,"lng":73.465163,"addr":"","type":"place_of_worship"},{"id":"xx26745_728942","name":"Masjid Al-Adhaalath","lat":2.674523,"lng":72.894236,"addr":"","type":"place_of_worship"},{"id":"xx26720_728934","name":"Masjid Al-Siddiq","lat":2.67199,"lng":72.893386,"addr":"","type":"place_of_worship"},{"id":"xx26706_728912","name":"Masjid Muhammad","lat":2.670592,"lng":72.891209,"addr":"","type":"place_of_worship"},{"id":"xx26723_728947","name":"Masjid Umar Bin Khattab (RA)","lat":2.672305,"lng":72.894671,"addr":"","type":"place_of_worship"},{"id":"xx26718_728962","name":"Masjidhul Sa'adhath","lat":2.671841,"lng":72.896243,"addr":"izzudheenmagu","type":"place_of_worship"},{"id":"xx45901_734143","name":"Islamic place","lat":4.59011,"lng":73.41429,"addr":"","type":"yes"},{"id":"xx41729_735076","name":"Machangoalhi Cemetry","lat":4.172867,"lng":73.507644,"addr":"","type":"mosque"},{"id":"xx41705_735081","name":"Aa Sahara","lat":4.170451,"lng":73.508108,"addr":"","type":"mosque"},{"id":"xx38496_729552","name":"Islamic place","lat":3.849629,"lng":72.955156,"addr":"","type":"yes"},{"id":"xx37925_729622","name":"Islamic place","lat":3.792534,"lng":72.9622,"addr":"","type":"yes"},{"id":"xx37913_729621","name":"Islamic place","lat":3.791252,"lng":72.962139,"addr":"","type":"yes"},{"id":"xx41784_735106","name":"Masjid-al-Sultan Muhammad Thakurufaanu Al Auzam","lat":4.17842,"lng":73.510594,"addr":"","type":"yes"},{"id":"xx41724_735026","name":"މަސްޖިދުއް ސުލްޠާނު މުޙައްމަދު ބިން އަބްދުއްﷲ","lat":4.172428,"lng":73.502636,"addr":"","type":"yes"},{"id":"xx41739_735064","name":"Masjid Ali Hussain","lat":4.173875,"lng":73.50641,"addr":"","type":"yes"},{"id":"xx42687_734913","name":"Islamic place","lat":4.268731,"lng":73.491316,"addr":"","type":"yes"},{"id":"xx39430_734906","name":"Islamic place","lat":3.943003,"lng":73.490622,"addr":"","type":"place_of_worship"},{"id":"xx39437_734918","name":"Islamic place","lat":3.943679,"lng":73.491849,"addr":"","type":"mosque"},{"id":"xx42180_735438","name":"Masjid al Sheikh Qasim bin Al-Thani","lat":4.217985,"lng":73.543787,"addr":"","type":"mosque"},{"id":"xx41761_735067","name":"Fandiyaaru Mosque","lat":4.176076,"lng":73.506669,"addr":"Male'","type":"yes"},{"id":"xx26719_728933","name":"Islamic place","lat":2.671904,"lng":72.893327,"addr":"","type":"mosque"},{"id":"xx44527_737170","name":"Islamic place","lat":4.452663,"lng":73.717042,"addr":"","type":"mosque"},{"id":"xx44355_729594","name":"Old Mosque","lat":4.435519,"lng":72.959373,"addr":"","type":"yes"},{"id":"xx44385_729613","name":"Islamic place","lat":4.438472,"lng":72.961288,"addr":"Main Road","type":"mosque"},{"id":"xx44388_729640","name":"Islamic place","lat":4.438818,"lng":72.963958,"addr":"","type":"yes"},{"id":"xx41744_734840","name":"Islamic place","lat":4.174397,"lng":73.484025,"addr":"","type":"yes"},{"id":"xx18333_735018","name":"Masjidul Ulaa","lat":1.83328,"lng":73.50182,"addr":"","type":"yes"},{"id":"xx19001_735363","name":"Mukurimagu Mosque","lat":1.900125,"lng":73.536339,"addr":"","type":"yes"},{"id":"xx18330_735016","name":"Fonadhoo Cemetery","lat":1.832968,"lng":73.501613,"addr":"","type":"mosque"},{"id":"xx18565_735183","name":"KDO Mosque","lat":1.85652,"lng":73.518283,"addr":"","type":"yes"},{"id":"xx18264_734947","name":"Masjidul Furuqan","lat":1.826389,"lng":73.494667,"addr":"","type":"yes"},{"id":"xx18361_735038","name":"Masjidul Shaheed Ali","lat":1.836104,"lng":73.503798,"addr":"","type":"yes"},{"id":"xx19243_735491","name":"Mathimaradhoo Miskih","lat":1.924279,"lng":73.549113,"addr":"","type":"yes"},{"id":"xx19320_735403","name":"Masjidhl Ihlas","lat":1.932046,"lng":73.540336,"addr":"","type":"yes"},{"id":"xx19345_735423","name":"Masjidul Falaah","lat":1.934515,"lng":73.542327,"addr":"","type":"yes"},{"id":"xx19361_735403","name":"Masjidul Niuma","lat":1.936091,"lng":73.540307,"addr":"","type":"yes"},{"id":"xx39892_735087","name":"cementary","lat":3.989208,"lng":73.508732,"addr":"","type":"grave_yard"},{"id":"xx39904_735091","name":"Islamic place","lat":3.990383,"lng":73.509106,"addr":"","type":"yes"},{"id":"xx41709_735079","name":"Aa Sahara Mosque","lat":4.170866,"lng":73.507863,"addr":"Thabureyzee Higun","type":"yes"},{"id":"xx41727_735030","name":"Islamic place","lat":4.172708,"lng":73.503021,"addr":"","type":"yes"},{"id":"xx42106_735417","name":"Miskiy","lat":4.210648,"lng":73.541652,"addr":"","type":"mosque"},{"id":"xx42211_735446","name":"އުމަރު މިސްކަތް","lat":4.221076,"lng":73.544606,"addr":"","type":"mosque"},{"id":"xx42075_735390","name":"Saharaa Miskiy","lat":4.207496,"lng":73.538998,"addr":"","type":"mosque"},{"id":"xx41743_735156","name":"Masjid Al Afeefudhdhdeen","lat":4.17428,"lng":73.515638,"addr":"","type":"yes"},{"id":"xx41762_735097","name":"Iskandhar School","lat":4.176193,"lng":73.509674,"addr":"Chandhanee Magu","type":"school"},{"id":"xx41711_735115","name":"Masjidhul Furugaan","lat":4.171102,"lng":73.511511,"addr":"","type":"mosque"},{"id":"xx41766_735037","name":"Masjid Al Sultan Hassan Izzudhdhdeen","lat":4.176643,"lng":73.503739,"addr":"","type":"yes"},{"id":"xx41728_735081","name":"Masjidhul Jalaaluhdheen","lat":4.17277,"lng":73.508063,"addr":"","type":"mosque"},{"id":"xx49572_734610","name":"Islamic place","lat":4.957224,"lng":73.461006,"addr":"","type":"yes"},{"id":"xx43750_736518","name":"Islamic place","lat":4.374974,"lng":73.651772,"addr":"","type":"mosque"},{"id":"xx42835_735543","name":"Islamic place","lat":4.283506,"lng":73.55434,"addr":"","type":"yes"},{"id":"xx21685_730662","name":"ކުޑަ މިސްކިތް","lat":2.168512,"lng":73.066156,"addr":"","type":"yes"},{"id":"xx21689_730645","name":"މަސްޖިދު އައިޝާ","lat":2.16887,"lng":73.064504,"addr":"","type":"mosque"},{"id":"xx41746_735116","name":"Masjidhul Salaahuhdheen","lat":4.174645,"lng":73.51162,"addr":"","type":"mosque"},{"id":"xx21700_730671","name":"މަސްޖިލުލް ސިޔާދާ","lat":2.170041,"lng":73.067082,"addr":"","type":"yes"},{"id":"xx41732_735150","name":"Henveiru Saharaa","lat":4.173191,"lng":73.514968,"addr":"","type":"mosque"},{"id":"xx39005_734678","name":"Masjid Al-Sidheeq","lat":3.900475,"lng":73.467805,"addr":"","type":"mosque"},{"id":"xx39026_734683","name":"Masjid Al-Iha","lat":3.902573,"lng":73.468268,"addr":"","type":"yes"},{"id":"xx43327_736010","name":"Islamic place","lat":4.332719,"lng":73.600962,"addr":"","type":"yes"},{"id":"xx43319_736004","name":"Dhonbandaraa Misky","lat":4.331867,"lng":73.60036,"addr":"","type":"mosque"},{"id":"xx43097_735701","name":"Islamic place","lat":4.309745,"lng":73.570066,"addr":"","type":"mosque"},{"id":"xx43092_735700","name":"Islamic place","lat":4.309187,"lng":73.569984,"addr":"","type":"mosque"},{"id":"xx36802_734171","name":"Islamic place","lat":3.680158,"lng":73.417061,"addr":"","type":"mosque"},{"id":"xx42124_735423","name":"Masjid Azeeza Miskiy","lat":4.212447,"lng":73.542323,"addr":"Chanbeylee Magu","type":"mosque"},{"id":"xx42132_735414","name":"Ghaazee School","lat":4.213236,"lng":73.541439,"addr":"ބޯގަންވިލާ މަގު","type":"school"},{"id":"xx41745_735145","name":"އިބްރާހީމް މިސްކިތް","lat":4.174538,"lng":73.51449,"addr":"","type":"mosque"},{"id":"xx21880_730956","name":"Masjidul-Hidaayah","lat":2.187991,"lng":73.095635,"addr":"","type":"yes"},{"id":"xx21865_730935","name":"Islamic place","lat":2.186468,"lng":73.093533,"addr":"","type":"mosque"},{"id":"xx36067_729567","name":"Islamic place","lat":3.606704,"lng":72.95672,"addr":"","type":"yes"},{"id":"xx36089_729562","name":"Islamic place","lat":3.608908,"lng":72.956238,"addr":"","type":"yes"},{"id":"xx36077_729542","name":"Islamic place","lat":3.607688,"lng":72.954224,"addr":"","type":"yes"},{"id":"xx48768_729971","name":"Friday mosque","lat":4.876839,"lng":72.997093,"addr":"","type":"yes"},{"id":"xx48799_729743","name":"Masjid","lat":4.879916,"lng":72.974304,"addr":"","type":"yes"},{"id":"xx48851_729361","name":"Islamic place","lat":4.88506,"lng":72.936132,"addr":"","type":"yes"},{"id":"xx04583_729992","name":"Masjid al-Barakat","lat":0.4583,"lng":72.999234,"addr":"Riverside Magu","type":"mosque"},{"id":"xx04589_729996","name":"Masjid al-Ikhlaas","lat":0.458858,"lng":72.999611,"addr":"GDh. Madaveli","type":"yes"},{"id":"xx41774_735117","name":"Islamic place","lat":4.17743,"lng":73.511732,"addr":"","type":"yes"},{"id":"xx42165_728631","name":"Islamic place","lat":4.21654,"lng":72.863077,"addr":"","type":"yes"},{"id":"xx42162_728646","name":"Masijdul Furuqan","lat":4.216183,"lng":72.864601,"addr":"","type":"yes"},{"id":"xx22060_731431","name":"Mosque","lat":2.206009,"lng":73.143053,"addr":"","type":"mosque"},{"id":"xx33150_734699","name":"Islamic place","lat":3.315019,"lng":73.469929,"addr":"","type":"mosque"},{"id":"xx04570_729990","name":"Islamic place","lat":0.457032,"lng":72.998976,"addr":"Miskiy Magu","type":"grave_yard"},{"id":"xx41757_735185","name":"ސަލްމާން ރަސްގެފާނުގެ މިސްކިތް","lat":4.175743,"lng":73.518499,"addr":"","type":"mosque"},{"id":"xx07170_734380","name":"Cemetery","lat":0.71703,"lng":73.438,"addr":"","type":"mosque"},{"id":"xx07154_734378","name":"Ga. Maamendhoo School","lat":0.715375,"lng":73.437801,"addr":"","type":"school"},{"id":"xx07167_734381","name":"Masjid Al Wahda","lat":0.71669,"lng":73.43808,"addr":"","type":"mosque"},{"id":"xx07140_734379","name":"Masjid Khalid Bin Walid","lat":0.713963,"lng":73.437883,"addr":"","type":"mosque"},{"id":"xx42245_735464","name":"Masjid Amyl Jalyl","lat":4.224542,"lng":73.546399,"addr":"Dhunburigas Magu","type":"mosque"},{"id":"xx21889_730936","name":"Islamic place","lat":2.188898,"lng":73.09356,"addr":"","type":"yes"},{"id":"xx35362_729297","name":"Islamic place","lat":3.536241,"lng":72.929692,"addr":"","type":"yes"},{"id":"xx35353_729296","name":"Islamic place","lat":3.535311,"lng":72.929583,"addr":"","type":"grave_yard"},{"id":"xx35355_729293","name":"Islamic place","lat":3.535489,"lng":72.929293,"addr":"","type":"yes"},{"id":"xx21865_730937","name":"Masjid Ta'aawun","lat":2.186464,"lng":73.093669,"addr":"","type":"place_of_worship"},{"id":"xx21887_730947","name":"Islamic place","lat":2.188669,"lng":73.094741,"addr":"","type":"mosque"},{"id":"xx35380_729304","name":"Main Mosque","lat":3.538013,"lng":72.930394,"addr":"","type":"yes"},{"id":"xx41249_734633","name":"Islamic place","lat":4.124856,"lng":73.463254,"addr":"","type":"mosque"},{"id":"xx41759_735106","name":"ބިހުރޯޒު ކަމަނާ މިސްކިތް","lat":4.175913,"lng":73.510616,"addr":"","type":"yes"},{"id":"xx21862_730978","name":"Islamic place","lat":2.186245,"lng":73.097776,"addr":"","type":"grave_yard"},{"id":"xx21886_730947","name":"Islamic place","lat":2.188636,"lng":73.094747,"addr":"","type":"grave_yard"},{"id":"xx42146_728639","name":"Islamic place","lat":4.214645,"lng":72.863854,"addr":"","type":"mosque"},{"id":"xx42148_728640","name":"Kudamiski'y","lat":4.214776,"lng":72.863992,"addr":"","type":"yes"},{"id":"xx42147_728642","name":"Islamic place","lat":4.214733,"lng":72.864166,"addr":"","type":"yes"},{"id":"xx40526_727245","name":"Mosque","lat":4.052579,"lng":72.724525,"addr":"","type":"yes"},{"id":"xx41857_727727","name":"Islamic place","lat":4.185687,"lng":72.772674,"addr":"","type":"yes"},{"id":"xx43753_736517","name":"Islamic place","lat":4.375324,"lng":73.651709,"addr":"","type":"yes"},{"id":"xx43748_736535","name":"Islamic place","lat":4.374765,"lng":73.653498,"addr":"","type":"mosque"},{"id":"xx02285_732679","name":"Thundey Ziyaarai","lat":0.228468,"lng":73.267898,"addr":"","type":"mosque"},{"id":"xx17996_733873","name":"Laamu Hithadhoo School","lat":1.799573,"lng":73.387305,"addr":"Sosun Magu","type":"school"},{"id":"xx42077_735410","name":"Masjid","lat":4.207732,"lng":73.540954,"addr":"","type":"yes"},{"id":"xx41918_727477","name":"Mathiveri School","lat":4.191833,"lng":72.747735,"addr":"Mathiveri","type":"school"},{"id":"xx42150_735417","name":"Masjid Rasheed","lat":4.214994,"lng":73.541705,"addr":"","type":"mosque"},{"id":"xx42216_735401","name":"Islamic place","lat":4.221587,"lng":73.540081,"addr":"","type":"yes"},{"id":"xx42125_735370","name":"Masjid Al Asdiqaa","lat":4.212496,"lng":73.537002,"addr":"","type":"yes"},{"id":"xx42335_735493","name":"Masjid Al-Iman","lat":4.233538,"lng":73.549332,"addr":"","type":"yes"},{"id":"xx05570_732424","name":"Masjid Al Hafiz Adam Saeed","lat":0.557045,"lng":73.242358,"addr":"","type":"yes"},{"id":"xx41791_735091","name":"Bandaara Miskiy","lat":4.179066,"lng":73.509137,"addr":"","type":"yes"},{"id":"xx41778_735154","name":"Masjid Al-Iskandar","lat":4.177752,"lng":73.51544,"addr":"","type":"yes"},{"id":"xx41761_735142","name":"Masjid Al Taqwa","lat":4.176133,"lng":73.51416,"addr":"","type":"yes"},{"id":"xx41751_735102","name":"Masjid Yusuf Al Barbaree","lat":4.175054,"lng":73.51022,"addr":"Majedhee Magu","type":"yes"},{"id":"xx41777_735102","name":"ކަޅުވަކަރު މިސްކިތް","lat":4.177699,"lng":73.510219,"addr":"","type":"mosque"},{"id":"xx41780_735124","name":"ހުކުރު މިސްކިތް","lat":4.178033,"lng":73.51239,"addr":"","type":"mosque"},{"id":"xx41780_735122","name":"Islamic place","lat":4.177978,"lng":73.512169,"addr":"","type":"mosque"},{"id":"xx41733_735127","name":"ގަލޮޅު ސަހަރާ","lat":4.173286,"lng":73.512705,"addr":"","type":"mosque"},{"id":"xx41767_735133","name":"މަސްޖިދް ސުލްޠާނު މުޙައްމަދު އިމާދުއްދީން","lat":4.176727,"lng":73.513279,"addr":"","type":"yes"},{"id":"xx42315_735478","name":"Islamic place","lat":4.231527,"lng":73.547766,"addr":"","type":"mosque"},{"id":"xx02253_731368","name":"Islamic place","lat":0.225301,"lng":73.136776,"addr":"","type":"yes"},{"id":"xx02221_731362","name":"Islamic place","lat":0.222094,"lng":73.136234,"addr":"","type":"yes"},{"id":"xx43116_734877","name":"Mosque of the Thulhagiri Island Resort","lat":4.311639,"lng":73.487677,"addr":"","type":"mosque"},{"id":"xx26711_728945","name":"Dhaalu Atoll Education Centre","lat":2.67111,"lng":72.894549,"addr":"","type":"school"},{"id":"xx26729_728931","name":"Islamic place","lat":2.672913,"lng":72.893115,"addr":"","type":"mosque"},{"id":"xx26724_728933","name":"Islamic place","lat":2.672421,"lng":72.893282,"addr":"","type":"yes"},{"id":"xx41728_735076","name":"Machangoalhi Cemetry","lat":4.172804,"lng":73.507618,"addr":"","type":"mosque"},{"id":"xx41703_735081","name":"Aa Sahara","lat":4.170277,"lng":73.508089,"addr":"","type":"mosque"},{"id":"xx44384_729613","name":"Islamic place","lat":4.438429,"lng":72.961262,"addr":"Main Road","type":"mosque"},{"id":"xx44388_729639","name":"Islamic place","lat":4.43878,"lng":72.963948,"addr":"","type":"yes"},{"id":"xx18332_735018","name":"Masjidul Ulaa","lat":1.833233,"lng":73.501777,"addr":"","type":"yes"},{"id":"xx18330_735015","name":"Fonadhoo Cemetery","lat":1.832957,"lng":73.501515,"addr":"","type":"mosque"},{"id":"xx18264_734946","name":"Masjidul Furuqan","lat":1.826367,"lng":73.494647,"addr":"","type":"yes"},{"id":"xx19344_735423","name":"Masjidul Falaah","lat":1.934431,"lng":73.542306,"addr":"","type":"yes"},{"id":"xx41922_727443","name":"Saharaa","lat":4.192164,"lng":72.744305,"addr":"","type":"mosque"},{"id":"xx42107_735416","name":"Miskiy","lat":4.210653,"lng":73.541613,"addr":"","type":"mosque"},{"id":"xx41762_735096","name":"Iskandhar School","lat":4.176202,"lng":73.50964,"addr":"Chandhanee Magu","type":"school"},{"id":"xx41761_735176","name":"Noor Mosque","lat":4.176077,"lng":73.517554,"addr":"Roashanee Magu","type":"yes"},{"id":"xx41731_735149","name":"Henveiru Saharaa","lat":4.173083,"lng":73.514919,"addr":"","type":"mosque"},{"id":"xx39004_734678","name":"Masjid Al-Sidheeq","lat":3.90044,"lng":73.467787,"addr":"","type":"mosque"},{"id":"xx43327_736009","name":"Islamic place","lat":4.332686,"lng":73.600945,"addr":"","type":"yes"},{"id":"xx43318_736003","name":"Islamic place","lat":4.331829,"lng":73.600331,"addr":"","type":"mosque"},{"id":"xx43097_735700","name":"Islamic place","lat":4.309669,"lng":73.570032,"addr":"","type":"mosque"},{"id":"xx36801_734170","name":"Islamic place","lat":3.680135,"lng":73.417047,"addr":"","type":"mosque"},{"id":"xx42161_728646","name":"Masijdul Furuqan","lat":4.216143,"lng":72.864579,"addr":"","type":"yes"},{"id":"xx04570_729989","name":"Islamic place","lat":0.456951,"lng":72.998949,"addr":"Miskiy Magu","type":"grave_yard"},{"id":"xx41758_735185","name":"ސަލްމާން ރަސްގެފާނުގެ މިސްކިތް","lat":4.175752,"lng":73.518492,"addr":"","type":"mosque"},{"id":"xx07154_734377","name":"Ga. Maamendhoo School","lat":0.715377,"lng":73.43773,"addr":"","type":"school"},{"id":"xx07166_734380","name":"Masjid Al Wahda","lat":0.716649,"lng":73.438041,"addr":"","type":"mosque"},{"id":"xx42246_735463","name":"Masjid Amyl Jalyl","lat":4.224554,"lng":73.546334,"addr":"Dhunburigas Magu","type":"mosque"},{"id":"xx21864_730937","name":"Masjid Ta'aawun","lat":2.186431,"lng":73.093663,"addr":"","type":"place_of_worship"},{"id":"xx41248_734632","name":"Islamic place","lat":4.12484,"lng":73.463243,"addr":"","type":"mosque"},{"id":"xx41857_727726","name":"Islamic place","lat":4.185668,"lng":72.77264,"addr":"","type":"yes"},{"id":"xx17994_733872","name":"Laamu Hithadhoo School","lat":1.799449,"lng":73.387154,"addr":"Sosun Magu","type":"school"},{"id":"xx42077_735409","name":"Masjid","lat":4.207718,"lng":73.540947,"addr":"","type":"yes"},{"id":"xx41917_727477","name":"Mathiveri School","lat":4.191749,"lng":72.747657,"addr":"Mathiveri","type":"school"},{"id":"xx05570_732423","name":"Masjid Al Hafiz Adam Saeed","lat":0.557002,"lng":73.242331,"addr":"","type":"yes"},{"id":"xx41790_735091","name":"Bandaara Miskiy","lat":4.179022,"lng":73.509117,"addr":"","type":"yes"},{"id":"xx41777_735154","name":"Masjid Al-Iskandar","lat":4.177745,"lng":73.515436,"addr":"","type":"yes"},{"id":"xx41761_735141","name":"Masjid Al Taqwa","lat":4.176108,"lng":73.514148,"addr":"","type":"yes"},{"id":"xx41750_735102","name":"Masjid Yusuf Al Barbaree","lat":4.175021,"lng":73.510206,"addr":"Majedhee Magu","type":"yes"},{"id":"xx41720_735153","name":"Masjid Shaheed Ali","lat":4.171964,"lng":73.515325,"addr":"","type":"mosque"},{"id":"xx41732_735127","name":"ގަލޮޅު ސަހަރާ","lat":4.173199,"lng":73.512692,"addr":"","type":"mosque"},{"id":"xx26709_728944","name":"Dhaalu Atoll Education Centre","lat":2.670908,"lng":72.894445,"addr":"","type":"school"}]