[{"id":"xx120041_84924","name":"Islamic place","lat":12.004104,"lng":8.492384,"addr":"","type":"place_of_worship"},{"id":"xx105508_74455","name":"Sultan Bello Mosque","lat":10.550812,"lng":7.445513,"addr":"","type":"place_of_worship"},{"id":"xx105160_74298","name":"Kano Road Central Mosque","lat":10.515973,"lng":7.429818,"addr":"","type":"place_of_worship"},{"id":"xx106667_74837","name":"Travellers Mosque","lat":10.666653,"lng":7.483706,"addr":"","type":"place_of_worship"},{"id":"xx105106_74331","name":"Mosque (Audu Kwangila)","lat":10.510566,"lng":7.433116,"addr":"","type":"place_of_worship"},{"id":"xx105057_74249","name":"Salamatu Kabir Mosque","lat":10.505661,"lng":7.424859,"addr":"Sardauna Crescent","type":"place_of_worship"},{"id":"xx119795_85686","name":"Islamic place","lat":11.97951,"lng":8.568617,"addr":"","type":"place_of_worship"},{"id":"xx129932_76082","name":"Masallacin Kerau","lat":12.993248,"lng":7.60819,"addr":"","type":"place_of_worship"},{"id":"xx120273_85510","name":"Madarasatu Amina Islamiyya Primary School","lat":12.027281,"lng":8.551032,"addr":"Sani Bello Street","type":"school"},{"id":"xx124767_85090","name":"Islamic place","lat":12.476748,"lng":8.508969,"addr":"","type":"mosque"},{"id":"xx107399_87414","name":"Islamic place","lat":10.73994,"lng":8.741361,"addr":"","type":"place_of_worship"},{"id":"xx111751_85562","name":"Islamic place","lat":11.175078,"lng":8.556185,"addr":"","type":"place_of_worship"},{"id":"xx112461_84051","name":"Islamic place","lat":11.246133,"lng":8.405064,"addr":"","type":"place_of_worship"},{"id":"xx130206_52182","name":"Islamic place","lat":13.020609,"lng":5.218176,"addr":"","type":"place_of_worship"},{"id":"xx119704_84333","name":"BUK CENTRAL MOSQUE","lat":11.970351,"lng":8.433302,"addr":"","type":"place_of_worship"},{"id":"xx130001_76291","name":"Kumassi Mosque","lat":13.000072,"lng":7.629145,"addr":"Katsina","type":"place_of_worship"},{"id":"xx130101_76423","name":"Modoji Central Mosque","lat":13.010083,"lng":7.642343,"addr":"Katsina","type":"place_of_worship"},{"id":"xx119716_85328","name":"SKY Masjid","lat":11.971645,"lng":8.532768,"addr":"Zoo Road","type":"place_of_worship"},{"id":"xx119694_85314","name":"Masjid","lat":11.969389,"lng":8.53143,"addr":"Zoo Road","type":"place_of_worship"},{"id":"xx119803_85399","name":"Umar Bin Khattab","lat":11.980341,"lng":8.53986,"addr":"Zaria Road","type":"place_of_worship"},{"id":"xx119715_85316","name":"ZHERA Masjid","lat":11.971459,"lng":8.531624,"addr":"Liman Muhammad Street","type":"place_of_worship"},{"id":"xx121892_66907","name":"Islamic place","lat":12.189152,"lng":6.690718,"addr":"","type":"place_of_worship"},{"id":"xx119887_85212","name":"Massalacin wudilawa","lat":11.988738,"lng":8.521249,"addr":"Emir Palace Road","type":"place_of_worship"},{"id":"xx120016_85191","name":"Yolawa, masallacin madaki","lat":12.001612,"lng":8.519089,"addr":"Municipal","type":"place_of_worship"},{"id":"xx130703_52005","name":"Masallacin Nana Aisha","lat":13.070289,"lng":5.200479,"addr":"Opp Girabshi Road","type":"place_of_worship"},{"id":"xx111091_77326","name":"Masjid Ansarudeen Islamiyya","lat":11.109131,"lng":7.732566,"addr":"","type":"place_of_worship"},{"id":"xx111537_76568","name":"Central Mosque","lat":11.153691,"lng":7.656759,"addr":"Ahmadu Bello Campus","type":"place_of_worship"},{"id":"xx105462_74569","name":"Muslim Graveyard","lat":10.546204,"lng":7.456866,"addr":"","type":"grave_yard"},{"id":"xx105304_74404","name":"Waff Road Mosque","lat":10.530428,"lng":7.440403,"addr":"","type":"place_of_worship"},{"id":"xx105411_74641","name":"Yahaya Road Mosque","lat":10.541099,"lng":7.464081,"addr":"","type":"place_of_worship"},{"id":"xx119577_85621","name":"SCIENCE PROJECT PRI and SEC SCHOOL, UNGUWA UKU","lat":11.957721,"lng":8.562055,"addr":"Kano-Zaria Highway","type":"school"},{"id":"xx138118_53309","name":"Mosquée tabanni","lat":13.811815,"lng":5.33089,"addr":"","type":"place_of_worship"},{"id":"xx105279_74105","name":"Danfodio Mosque","lat":10.527908,"lng":7.410483,"addr":"","type":"place_of_worship"},{"id":"xx108237_75664","name":"Islamic place","lat":10.823743,"lng":7.566352,"addr":"","type":"place_of_worship"},{"id":"xx110688_76948","name":"Islamic place","lat":11.068841,"lng":7.694846,"addr":"","type":"place_of_worship"},{"id":"xx106341_74680","name":"Islamic place","lat":10.634067,"lng":7.467966,"addr":"","type":"place_of_worship"},{"id":"xx109956_81010","name":"Jumma'at Mosque","lat":10.995634,"lng":8.101007,"addr":"","type":"place_of_worship"},{"id":"xx111678_79577","name":"Islamic place","lat":11.167823,"lng":7.957708,"addr":"","type":"place_of_worship"},{"id":"xx135625_63257","name":"Magagindoke Mosque","lat":13.562451,"lng":6.325729,"addr":"","type":"place_of_worship"},{"id":"xx135507_63194","name":"Abdulfatah Juma'at mosque","lat":13.550659,"lng":6.319397,"addr":"","type":"place_of_worship"},{"id":"xx119834_85133","name":"Kofar Naisa Qadiriyya Mosque","lat":11.983409,"lng":8.513327,"addr":"Titin Baba Dan Baffa","type":"place_of_worship"},{"id":"xx102915_97845","name":"Sabon Kaura Juma'at Mosque;Masallacin Sarki","lat":10.291518,"lng":9.784547,"addr":"Sabon Kaura","type":"place_of_worship"},{"id":"xx128088_93012","name":"Islamic place","lat":12.808773,"lng":9.301192,"addr":"","type":"school"},{"id":"xx102915_97884","name":"Masallacin Rimi","lat":10.291505,"lng":9.788447,"addr":"Sabon Kaura","type":"place_of_worship"},{"id":"xx102908_97865","name":"Masallacin Bababa","lat":10.290806,"lng":9.786544,"addr":"Sabon Kaura","type":"place_of_worship"},{"id":"xx102886_97875","name":"Imam Malik Masjiddu","lat":10.288569,"lng":9.787513,"addr":"Sabon Kaura","type":"place_of_worship"},{"id":"xx127467_91811","name":"Islamic place","lat":12.746724,"lng":9.181147,"addr":"","type":"school"},{"id":"xx102764_97950","name":"A.T.B.U Juma'at","lat":10.276432,"lng":9.794958,"addr":"","type":"place_of_worship"},{"id":"xx103081_98315","name":"Masallacin Izala","lat":10.308102,"lng":9.831454,"addr":"","type":"place_of_worship"},{"id":"xx102837_97968","name":"masjid","lat":10.283653,"lng":9.796813,"addr":"","type":"place_of_worship"},{"id":"xx102858_97935","name":"masjid","lat":10.285804,"lng":9.793539,"addr":"","type":"place_of_worship"},{"id":"xx102681_97945","name":"Islamic place","lat":10.268105,"lng":9.794483,"addr":"","type":"place_of_worship"},{"id":"xx102891_97870","name":"masjid","lat":10.289078,"lng":9.78701,"addr":"","type":"place_of_worship"},{"id":"xx102870_97882","name":"Islamic place","lat":10.286992,"lng":9.788229,"addr":"","type":"place_of_worship"},{"id":"xx102840_97888","name":"Islamic place","lat":10.28399,"lng":9.788837,"addr":"","type":"place_of_worship"},{"id":"xx102845_97862","name":"Islamic place","lat":10.284492,"lng":9.786214,"addr":"","type":"place_of_worship"},{"id":"xx102921_98023","name":"Islamic place","lat":10.292074,"lng":9.802314,"addr":"","type":"place_of_worship"},{"id":"xx102938_97809","name":"Islamic place","lat":10.293806,"lng":9.780913,"addr":"","type":"place_of_worship"},{"id":"xx102960_98034","name":"Islamic place","lat":10.295965,"lng":9.803414,"addr":"","type":"place_of_worship"},{"id":"xx102736_97969","name":"Islamic place","lat":10.273573,"lng":9.79692,"addr":"","type":"place_of_worship"},{"id":"xx102745_97955","name":"Islamic place","lat":10.274545,"lng":9.795518,"addr":"","type":"place_of_worship"},{"id":"xx102802_98005","name":"Islamic place","lat":10.280246,"lng":9.800518,"addr":"","type":"place_of_worship"},{"id":"xx102823_98001","name":"Islamic place","lat":10.282265,"lng":9.800119,"addr":"","type":"place_of_worship"},{"id":"xx103174_98324","name":"Islamic place","lat":10.317358,"lng":9.832357,"addr":"","type":"place_of_worship"},{"id":"xx103174_98328","name":"Islamic place","lat":10.317371,"lng":9.832799,"addr":"","type":"place_of_worship"},{"id":"xx119802_84818","name":"B.U.K Central mosque","lat":11.98018,"lng":8.481826,"addr":"Buk Old Site","type":"place_of_worship"},{"id":"xx120505_85712","name":"masjid_zunnurain","lat":12.050464,"lng":8.571249,"addr":"","type":"place_of_worship"},{"id":"xx120477_85712","name":"mosque","lat":12.047678,"lng":8.571194,"addr":"","type":"place_of_worship"},{"id":"xx120450_85646","name":"mal_auwal_mosque","lat":12.044989,"lng":8.564588,"addr":"","type":"place_of_worship"},{"id":"xx120415_85728","name":"mosque","lat":12.041531,"lng":8.572833,"addr":"","type":"place_of_worship"},{"id":"xx120435_85713","name":"anas_bin_malik_mosque","lat":12.043518,"lng":8.571272,"addr":"","type":"place_of_worship"},{"id":"xx120434_85695","name":"malan_shitu_dan_kargo_mosque","lat":12.043356,"lng":8.569489,"addr":"","type":"place_of_worship"},{"id":"xx120428_85687","name":"aminu_hashimu_mosque","lat":12.042835,"lng":8.56869,"addr":"","type":"place_of_worship"},{"id":"xx120445_85659","name":"masjid_maidaula","lat":12.044466,"lng":8.565884,"addr":"","type":"place_of_worship"},{"id":"xx120404_85695","name":"malan_awaisu_mosque","lat":12.040419,"lng":8.569473,"addr":"","type":"place_of_worship"},{"id":"xx120432_85673","name":"alhaji_dan_yaya_mosque","lat":12.043249,"lng":8.567274,"addr":"","type":"place_of_worship"},{"id":"xx120357_85652","name":"usman_dan_fodiyo_jumaa_mosque","lat":12.035679,"lng":8.565169,"addr":"","type":"place_of_worship"},{"id":"xx120471_85659","name":"masjid_nur","lat":12.047102,"lng":8.565895,"addr":"","type":"place_of_worship"},{"id":"xx120468_85665","name":"maidara_mosque","lat":12.04683,"lng":8.56649,"addr":"","type":"place_of_worship"},{"id":"xx120474_85679","name":"adam_mai_gari_mosque","lat":12.047375,"lng":8.567886,"addr":"","type":"place_of_worship"},{"id":"xx120561_85785","name":"masjid_usman_bin_fodiyo","lat":12.056107,"lng":8.578502,"addr":"","type":"place_of_worship"},{"id":"xx120575_85831","name":"gaza_mosque_'yar_aduwa","lat":12.057529,"lng":8.583113,"addr":"","type":"place_of_worship"},{"id":"xx120433_85678","name":"dan_azumi_mosque","lat":12.043278,"lng":8.56779,"addr":"","type":"place_of_worship"},{"id":"xx120448_85668","name":"alh_kabiru_mosque","lat":12.044834,"lng":8.566818,"addr":"","type":"place_of_worship"},{"id":"xx120354_85649","name":"abdurahman_bin_auf_mosque","lat":12.035438,"lng":8.564917,"addr":"","type":"place_of_worship"},{"id":"xx120427_85722","name":"mosque","lat":12.04275,"lng":8.57217,"addr":"","type":"place_of_worship"},{"id":"xx120567_85831","name":"malam_hassan_mosque","lat":12.056733,"lng":8.583053,"addr":"","type":"place_of_worship"},{"id":"xx120549_85816","name":"kwara_mosque","lat":12.054913,"lng":8.58161,"addr":"","type":"place_of_worship"},{"id":"xx120563_85815","name":"malam_isa_mosque","lat":12.056252,"lng":8.581454,"addr":"","type":"place_of_worship"},{"id":"xx120529_85746","name":"juma'at_mosque","lat":12.052853,"lng":8.574603,"addr":"","type":"place_of_worship"},{"id":"xx119556_84690","name":"ASHABUL KHAFI MASJID","lat":11.955609,"lng":8.469045,"addr":"","type":"place_of_worship"},{"id":"xx115945_72260","name":"Central Mosque Mairua","lat":11.594463,"lng":7.225958,"addr":"","type":"place_of_worship"},{"id":"xx102921_97861","name":"Islamic place","lat":10.292068,"lng":9.78606,"addr":"","type":"place_of_worship"},{"id":"xx102931_97851","name":"Islamic place","lat":10.293079,"lng":9.785056,"addr":"","type":"place_of_worship"},{"id":"xx102933_97820","name":"Islamic place","lat":10.293305,"lng":9.782033,"addr":"","type":"place_of_worship"},{"id":"xx102924_97834","name":"Madarasatul Nurul Islam","lat":10.292397,"lng":9.783363,"addr":"","type":"school"},{"id":"xx106096_74415","name":"AFIT Mosque(Masjid)","lat":10.609572,"lng":7.441524,"addr":"","type":"place_of_worship"},{"id":"xx103167_98349","name":"Islamic place","lat":10.316721,"lng":9.834863,"addr":"","type":"place_of_worship"},{"id":"xx103133_98345","name":"Islamic place","lat":10.313285,"lng":9.834534,"addr":"","type":"place_of_worship"},{"id":"xx103153_98334","name":"Islamic place","lat":10.315346,"lng":9.833439,"addr":"","type":"place_of_worship"},{"id":"xx120435_57439","name":"Nasarawa Burkullu Central Mosque III","lat":12.04354,"lng":5.74386,"addr":"","type":"place_of_worship"},{"id":"xx120485_57423","name":"Nasarawa Burkullu Central Mosque II","lat":12.04845,"lng":5.74228,"addr":"","type":"place_of_worship"},{"id":"xx120497_57379","name":"Nasarawa Burkullu Central Mosque I","lat":12.04967,"lng":5.73786,"addr":"","type":"place_of_worship"},{"id":"xx105250_74079","name":"Maimuna Gwarzo","lat":10.524997,"lng":7.407857,"addr":"Chanchangi Road Rigasa","type":"school"},{"id":"xx119944_85537","name":"Al'Furqan Masjid","lat":11.994369,"lng":8.553747,"addr":"","type":"place_of_worship"},{"id":"xx110613_77070","name":"Islamic place","lat":11.061251,"lng":7.707004,"addr":"","type":"yes"},{"id":"xx113914_87258","name":"Islamic place","lat":11.391351,"lng":8.725843,"addr":"","type":"mosque"},{"id":"xx120087_85557","name":"Tiga Road mosque","lat":12.008682,"lng":8.555685,"addr":"","type":"mosque"},{"id":"xx119747_84242","name":"CIT Mosque","lat":11.97465,"lng":8.424157,"addr":"","type":"yes"},{"id":"xx119725_84234","name":"Mosque","lat":11.972529,"lng":8.423398,"addr":"","type":"yes"},{"id":"xx119949_85177","name":"Babban Masallacin Juma'a (Kano Central Mosque)","lat":11.994871,"lng":8.517669,"addr":"","type":"mosque"},{"id":"xx120132_85505","name":"Islamic place","lat":12.013201,"lng":8.550492,"addr":"","type":"mosque"},{"id":"xx120116_85377","name":"Islamic place","lat":12.011595,"lng":8.537743,"addr":"","type":"mosque"},{"id":"xx120441_85212","name":"Airport Mosque","lat":12.044081,"lng":8.521215,"addr":"","type":"mosque"},{"id":"xx119859_85669","name":"Islamic place","lat":11.985942,"lng":8.566912,"addr":"","type":"mosque"},{"id":"xx120193_85630","name":"St Louis Mosque","lat":12.019254,"lng":8.563006,"addr":"","type":"mosque"},{"id":"xx120080_84955","name":"Islamic place","lat":12.007982,"lng":8.495459,"addr":"","type":"mosque"},{"id":"xx112852_83719","name":"Islamic place","lat":11.285204,"lng":8.371873,"addr":"","type":"mosque"},{"id":"xx119379_85586","name":"Islamic place","lat":11.937872,"lng":8.558622,"addr":"","type":"mosque"},{"id":"xx119326_85593","name":"Islamic place","lat":11.932645,"lng":8.559278,"addr":"","type":"mosque"},{"id":"xx119491_86121","name":"Islamic place","lat":11.949083,"lng":8.612068,"addr":"","type":"mosque"},{"id":"xx119492_86123","name":"Islamic place","lat":11.949195,"lng":8.612346,"addr":"","type":"mosque"},{"id":"xx105249_74070","name":"Massalacin Isah Garo","lat":10.524863,"lng":7.407026,"addr":"","type":"yes"},{"id":"xx119804_85400","name":"Umar Bin Khattab Juma'at Masjid","lat":11.98045,"lng":8.540011,"addr":"Zaria Road","type":"place_of_worship"},{"id":"xx119715_85317","name":"ZHERA Masjid","lat":11.971466,"lng":8.531688,"addr":"Liman Muhammad Street","type":"yes"},{"id":"xx129927_75990","name":"Central Mosque","lat":12.992656,"lng":7.599038,"addr":"","type":"mosque"},{"id":"xx114513_94797","name":"Islamic place","lat":11.451258,"lng":9.479715,"addr":"","type":"yes"},{"id":"xx116639_97267","name":"Islamic place","lat":11.663949,"lng":9.726721,"addr":"","type":"yes"},{"id":"xx126534_84150","name":"Mosque","lat":12.653365,"lng":8.414968,"addr":"","type":"mosque"},{"id":"xx120040_85263","name":"Masallacin Idi","lat":12.004013,"lng":8.526282,"addr":"Kofar Mata Road","type":"no"},{"id":"xx120158_85210","name":"Makabatar Fagge - Kofar Mazugal","lat":12.0158,"lng":8.520981,"addr":"Fagge D2","type":"mosque"},{"id":"xx103102_98453","name":"Masallacin Kofar Fada","lat":10.310158,"lng":9.845334,"addr":"","type":"yes"},{"id":"xx111501_76540","name":"Geography Department Mosque","lat":11.150142,"lng":7.653971,"addr":"","type":"mosque"},{"id":"xx111550_76529","name":"Suleiman Masjid","lat":11.154954,"lng":7.652885,"addr":"","type":"yes"},{"id":"xx105087_74330","name":"Islamic place","lat":10.508742,"lng":7.432994,"addr":"","type":"mosque"},{"id":"xx105085_74328","name":"Central Mosque, Maiduguri Road","lat":10.508491,"lng":7.43276,"addr":"","type":"place_of_worship"},{"id":"xx105565_74453","name":"Eid Prayer Ground","lat":10.556459,"lng":7.445317,"addr":"","type":"yes"},{"id":"xx101365_60201","name":"CENTRAL MOSQUE","lat":10.136531,"lng":6.020137,"addr":"KANTUDU","type":"yes"},{"id":"xx129829_76042","name":"Masallacin Kandahar","lat":12.982855,"lng":7.604194,"addr":"IBB Way","type":"yes"},{"id":"xx111614_76467","name":"Samaru Mosque","lat":11.161362,"lng":7.646663,"addr":"","type":"residential"},{"id":"xx119663_84305","name":"Mosque","lat":11.966309,"lng":8.430538,"addr":"","type":"place_of_worship"},{"id":"xx105158_74520","name":"KASU Main Mosque","lat":10.515793,"lng":7.452041,"addr":"","type":"mosque"},{"id":"xx112650_76482","name":"Islamic place","lat":11.264997,"lng":7.648202,"addr":"","type":"yes"},{"id":"xx112646_76480","name":"Islamic place","lat":11.264589,"lng":7.648031,"addr":"","type":"yes"},{"id":"xx106336_74646","name":"Islamic place","lat":10.633588,"lng":7.464603,"addr":"","type":"mosque"},{"id":"xx107415_81282","name":"Islamic place","lat":10.741456,"lng":8.128163,"addr":"","type":"mosque"},{"id":"xx128908_75864","name":"Islamic place","lat":12.890763,"lng":7.586352,"addr":"","type":"yes"},{"id":"xx129851_75778","name":"Mosque","lat":12.985128,"lng":7.577792,"addr":"","type":"yes"},{"id":"xx127743_90179","name":"Babura Central Mosque","lat":12.774299,"lng":9.017887,"addr":"Kofar Fada Road","type":"yes"},{"id":"xx102554_97702","name":"Rector Masjid","lat":10.255428,"lng":9.770229,"addr":"","type":"yes"},{"id":"xx102578_97701","name":"Masjid","lat":10.25779,"lng":9.770067,"addr":"","type":"yes"},{"id":"xx102589_97738","name":"Old Masjid","lat":10.258908,"lng":9.773763,"addr":"","type":"yes"},{"id":"xx102584_97754","name":"New Masjid","lat":10.258418,"lng":9.775432,"addr":"","type":"yes"},{"id":"xx119366_85031","name":"BECHI MASALLACIN YAYO","lat":11.936642,"lng":8.503106,"addr":"","type":"yes"},{"id":"xx130645_51735","name":"Islamic place","lat":13.064462,"lng":5.173537,"addr":"","type":"mosque"},{"id":"xx105111_74257","name":"Nawairudeen Central Mosque","lat":10.511077,"lng":7.425702,"addr":"","type":"place_of_worship"},{"id":"xx119807_85400","name":"Islamic place","lat":11.980706,"lng":8.53998,"addr":"","type":"yes"},{"id":"xx103164_98495","name":"Islamic place","lat":10.316417,"lng":9.849469,"addr":"","type":"mosque"},{"id":"xx130169_85661","name":"Islamic place","lat":13.016899,"lng":8.566069,"addr":"","type":"yes"},{"id":"xx121696_66765","name":"Islamic place","lat":12.1696,"lng":6.676498,"addr":"","type":"mosque"},{"id":"xx129764_75941","name":"Islamic place","lat":12.976373,"lng":7.59407,"addr":"","type":"yes"},{"id":"xx104919_73852","name":"Islamic place","lat":10.491938,"lng":7.385206,"addr":"","type":"mosque"},{"id":"xx106095_74415","name":"Masjid","lat":10.609543,"lng":7.441513,"addr":"","type":"mosque"},{"id":"xx112876_59390","name":"Danrimi Juma'at mosque","lat":11.28755,"lng":5.938963,"addr":"Garke RD danrimi Bena","type":"yes"},{"id":"xx128177_93550","name":"Islamic place","lat":12.817736,"lng":9.354951,"addr":"","type":"yes"},{"id":"xx128357_92577","name":"Islamic place","lat":12.835664,"lng":9.257673,"addr":"","type":"yes"},{"id":"xx130637_52380","name":"Shehu Mosque","lat":13.063663,"lng":5.238038,"addr":"","type":"mosque"},{"id":"xx130637_52383","name":"Shehsu Mosque","lat":13.063655,"lng":5.238277,"addr":"","type":"yes"},{"id":"xx119746_84242","name":"CIT Mosque","lat":11.974648,"lng":8.424155,"addr":"","type":"yes"},{"id":"xx105248_74070","name":"Massalacin Isah Garo","lat":10.524819,"lng":7.407026,"addr":"","type":"yes"},{"id":"xx129926_75990","name":"Central Mosque","lat":12.992649,"lng":7.599013,"addr":"","type":"mosque"},{"id":"xx120038_85261","name":"Masallacin Idi","lat":12.003753,"lng":8.526082,"addr":"Kofar Mata Road","type":"no"},{"id":"xx105087_74329","name":"Islamic place","lat":10.508732,"lng":7.432913,"addr":"","type":"mosque"},{"id":"xx105086_74326","name":"Central Mosque, Maiduguri Road","lat":10.508625,"lng":7.432639,"addr":"","type":"place_of_worship"},{"id":"xx129828_76042","name":"Masallacin Kandahar","lat":12.982804,"lng":7.604155,"addr":"IBB Way","type":"yes"},{"id":"xx129765_75941","name":"Islamic place","lat":12.97646,"lng":7.594066,"addr":"","type":"yes"},{"id":"xx112875_59389","name":"Danrimi Juma'at mosque","lat":11.287489,"lng":5.938941,"addr":"Garke RD danrimi Bena","type":"yes"},{"id":"xx134728_71196","name":"Dan Issa Road Mosk","lat":13.472811,"lng":7.119597,"addr":"Maradi","type":"place_of_worship"},{"id":"xx134984_71137","name":"Islamic place","lat":13.498365,"lng":7.113749,"addr":"","type":"place_of_worship"},{"id":"xx148840_52689","name":"Grande Mosquée - Priere de Vendredi","lat":14.884024,"lng":5.268894,"addr":"","type":"place_of_worship"},{"id":"xx140702_59635","name":"Mosquée vendredi Elh. Oudou de Madaoua","lat":14.070182,"lng":5.963482,"addr":"","type":"place_of_worship"},{"id":"xx140756_59623","name":"Mosquée vendredi Tsakaoua de Madaoua","lat":14.075613,"lng":5.962307,"addr":"","type":"place_of_worship"},{"id":"xx140772_59477","name":"Islamic place","lat":14.077205,"lng":5.947682,"addr":"","type":"place_of_worship"},{"id":"xx141362_59012","name":"Massalacin Jouma Azérori Resi","lat":14.136204,"lng":5.901227,"addr":"","type":"place_of_worship"},{"id":"xx141365_59034","name":"Islamic place","lat":14.136489,"lng":5.903438,"addr":"","type":"place_of_worship"},{"id":"xx138123_89940","name":"Ecole Coranique Dinil Islam","lat":13.812338,"lng":8.994003,"addr":"","type":"school"},{"id":"xx137995_89535","name":"Mosquée Kanya","lat":13.799505,"lng":8.953489,"addr":"","type":"place_of_worship"},{"id":"xx138047_89746","name":"Mosquée Lawali Bala","lat":13.804652,"lng":8.974586,"addr":"","type":"place_of_worship"},{"id":"xx138071_89873","name":"Islamic place","lat":13.807061,"lng":8.987312,"addr":"","type":"place_of_worship"},{"id":"xx146944_55153","name":"Centre Islamique Mouhamaddiya de Samo","lat":14.694361,"lng":5.515289,"addr":"","type":"school"},{"id":"xx146972_55155","name":"Massalatchin Gabass","lat":14.697208,"lng":5.515464,"addr":"","type":"place_of_worship"},{"id":"xx146959_55146","name":"Massalatchin Latifawa","lat":14.695946,"lng":5.514648,"addr":"","type":"place_of_worship"},{"id":"xx146985_55155","name":"Massalatchin jouma'a","lat":14.698468,"lng":5.515495,"addr":"","type":"place_of_worship"},{"id":"xx146931_55148","name":"Islamic place","lat":14.693051,"lng":5.514766,"addr":"","type":"place_of_worship"},{"id":"xx146954_55145","name":"Islamic place","lat":14.695362,"lng":5.514486,"addr":"","type":"place_of_worship"},{"id":"xx146967_55148","name":"Islamic place","lat":14.696729,"lng":5.514842,"addr":"","type":"place_of_worship"},{"id":"xx146992_55211","name":"Islamic place","lat":14.699171,"lng":5.521127,"addr":"","type":"place_of_worship"},{"id":"xx148923_52644","name":"Islamic place","lat":14.89227,"lng":5.264431,"addr":"","type":"place_of_worship"},{"id":"xx148730_52891","name":"Islamic place","lat":14.872967,"lng":5.289148,"addr":"","type":"place_of_worship"},{"id":"xx148755_52889","name":"Islamic place","lat":14.875461,"lng":5.288873,"addr":"","type":"place_of_worship"},{"id":"xx148823_52849","name":"Islamic place","lat":14.882347,"lng":5.28489,"addr":"","type":"place_of_worship"},{"id":"xx148842_52878","name":"Islamic place","lat":14.884237,"lng":5.287759,"addr":"","type":"place_of_worship"},{"id":"xx148874_52880","name":"Islamic place","lat":14.887358,"lng":5.287973,"addr":"","type":"place_of_worship"},{"id":"xx148940_52688","name":"Islamic place","lat":14.894036,"lng":5.268825,"addr":"","type":"place_of_worship"},{"id":"xx148901_52644","name":"Islamic place","lat":14.890127,"lng":5.264387,"addr":"","type":"place_of_worship"},{"id":"xx148911_52629","name":"Islamic place","lat":14.891093,"lng":5.262949,"addr":"","type":"place_of_worship"},{"id":"xx148824_52680","name":"Mosquée Oukbatou ben Nafiou","lat":14.882364,"lng":5.267987,"addr":"","type":"place_of_worship"},{"id":"xx148979_52547","name":"Islamic place","lat":14.897868,"lng":5.254706,"addr":"","type":"place_of_worship"},{"id":"xx140763_59632","name":"Mosquée de Tsakaoua","lat":14.076314,"lng":5.963229,"addr":"","type":"place_of_worship"},{"id":"xx140761_59645","name":"Islamic place","lat":14.076126,"lng":5.96446,"addr":"","type":"place_of_worship"},{"id":"xx137648_50294","name":"Islamic place","lat":13.764836,"lng":5.029386,"addr":"","type":"place_of_worship"},{"id":"xx137626_50304","name":"Islamic place","lat":13.762603,"lng":5.03036,"addr":"","type":"place_of_worship"},{"id":"xx141387_59029","name":"Massalacin Jouma'a de Gomi Azérori sédentaire","lat":14.138738,"lng":5.902932,"addr":"","type":"place_of_worship"},{"id":"xx140670_59525","name":"Mosquée Izala de Madaoua","lat":14.066991,"lng":5.952477,"addr":"","type":"place_of_worship"},{"id":"xx140454_59841","name":"Mosquée de Vendredi Tunfafi","lat":14.045419,"lng":5.984077,"addr":"","type":"place_of_worship"},{"id":"xx138016_52446","name":"Mosquée JOUMA'A","lat":13.801567,"lng":5.244646,"addr":"","type":"mosque"},{"id":"xx138074_52476","name":"Mosquée Zango","lat":13.807439,"lng":5.247559,"addr":"","type":"place_of_worship"},{"id":"xx137966_52555","name":"grande mosquée konni","lat":13.796563,"lng":5.255521,"addr":"","type":"place_of_worship"},{"id":"xx137909_52267","name":"Islamic place","lat":13.79087,"lng":5.226704,"addr":"","type":"place_of_worship"},{"id":"xx138048_52456","name":"Islamic place","lat":13.804779,"lng":5.245581,"addr":"","type":"place_of_worship"},{"id":"xx138063_52470","name":"Islamic place","lat":13.806262,"lng":5.246987,"addr":"","type":"place_of_worship"},{"id":"xx134881_71086","name":"Islamic place","lat":13.488064,"lng":7.108621,"addr":"Maradi","type":"place_of_worship"},{"id":"xx148662_52793","name":"Islamic place","lat":14.866243,"lng":5.279347,"addr":"","type":"place_of_worship"},{"id":"xx134949_71109","name":"Islamic place","lat":13.494854,"lng":7.110862,"addr":"","type":"place_of_worship"},{"id":"xx134952_71098","name":"Islamic place","lat":13.49515,"lng":7.109801,"addr":"","type":"place_of_worship"},{"id":"xx135101_71068","name":"Islamic place","lat":13.510148,"lng":7.106819,"addr":"","type":"place_of_worship"},{"id":"xx134838_71126","name":"Islamic place","lat":13.48382,"lng":7.112571,"addr":"","type":"place_of_worship"},{"id":"xx133663_92959","name":"La Grande mosquée","lat":13.366263,"lng":9.295856,"addr":"","type":"place_of_worship"},{"id":"xx138026_89672","name":"Islamic place","lat":13.80259,"lng":8.967201,"addr":"","type":"place_of_worship"},{"id":"xx138044_89700","name":"Islamic place","lat":13.804391,"lng":8.969958,"addr":"","type":"place_of_worship"},{"id":"xx138074_89702","name":"Islamic place","lat":13.807421,"lng":8.97021,"addr":"","type":"place_of_worship"},{"id":"xx137967_89742","name":"Mosquée de Sidi","lat":13.796652,"lng":8.974189,"addr":"","type":"place_of_worship"},{"id":"xx138001_89808","name":"Islamic place","lat":13.800124,"lng":8.980833,"addr":"","type":"place_of_worship"},{"id":"xx138028_89806","name":"Islamic place","lat":13.802789,"lng":8.980596,"addr":"","type":"place_of_worship"},{"id":"xx137941_90013","name":"Grande Mosquée de Vendredi Birni","lat":13.79409,"lng":9.0013,"addr":"","type":"place_of_worship"},{"id":"xx137999_89966","name":"Mosquée Sabon Gari","lat":13.79991,"lng":8.996588,"addr":"","type":"place_of_worship"},{"id":"xx138005_90070","name":"Grande Mosquée de Nassarawa Idi","lat":13.800492,"lng":9.007032,"addr":"","type":"place_of_worship"},{"id":"xx138203_89800","name":"Islamic place","lat":13.820263,"lng":8.980015,"addr":"","type":"place_of_worship"},{"id":"xx138107_89728","name":"Mosquée de Vendredi Issoufou Masko","lat":13.810656,"lng":8.972822,"addr":"","type":"place_of_worship"},{"id":"xx138070_89949","name":"Mosqué Elhadji Warssou","lat":13.807048,"lng":8.994902,"addr":"","type":"place_of_worship"},{"id":"xx137902_89861","name":"Mosquée Jambourou","lat":13.79023,"lng":8.98609,"addr":"","type":"place_of_worship"},{"id":"xx134915_71271","name":"Grande Mosquée de Vendredi","lat":13.491471,"lng":7.127085,"addr":"","type":"place_of_worship"},{"id":"xx134872_71308","name":"Islamic place","lat":13.48721,"lng":7.130783,"addr":"","type":"place_of_worship"},{"id":"xx134891_71332","name":"Islamic place","lat":13.489074,"lng":7.1332,"addr":"","type":"place_of_worship"},{"id":"xx134897_71243","name":"Islamic place","lat":13.489716,"lng":7.124279,"addr":"","type":"place_of_worship"},{"id":"xx138133_89971","name":"Mosqué Garin Malam","lat":13.813303,"lng":8.997125,"addr":"","type":"place_of_worship"},{"id":"xx134918_71187","name":"Mosquée Décanat","lat":13.491797,"lng":7.11875,"addr":"","type":"place_of_worship"},{"id":"xx134916_71154","name":"Mosquée Salissou Watsi","lat":13.491617,"lng":7.115436,"addr":"","type":"place_of_worship"},{"id":"xx134853_71151","name":"Islamic place","lat":13.485301,"lng":7.115055,"addr":"","type":"place_of_worship"},{"id":"xx134800_71161","name":"Mosquée Malam Hamissou","lat":13.479969,"lng":7.116106,"addr":"","type":"place_of_worship"},{"id":"xx134816_71127","name":"Mosquée de Douane","lat":13.481586,"lng":7.11271,"addr":"","type":"place_of_worship"},{"id":"xx134772_71049","name":"Mosquée de la DRESS","lat":13.477192,"lng":7.104876,"addr":"","type":"place_of_worship"},{"id":"xx134948_70958","name":"Islamic place","lat":13.494775,"lng":7.09576,"addr":"","type":"place_of_worship"},{"id":"xx135057_71043","name":"Mosquée & Ecole Coranique","lat":13.505688,"lng":7.104268,"addr":"","type":"place_of_worship"},{"id":"xx135045_71043","name":"Mosquée Imam Malik","lat":13.504453,"lng":7.104257,"addr":"","type":"place_of_worship"},{"id":"xx134959_70955","name":"Islamic place","lat":13.495864,"lng":7.09553,"addr":"","type":"place_of_worship"},{"id":"xx134981_70950","name":"Islamic place","lat":13.498085,"lng":7.095033,"addr":"","type":"place_of_worship"},{"id":"xx134990_70948","name":"Islamic place","lat":13.498977,"lng":7.094816,"addr":"","type":"place_of_worship"},{"id":"xx135109_71032","name":"Mosquée de prière","lat":13.510922,"lng":7.103232,"addr":"","type":"place_of_worship"},{"id":"xx134896_70934","name":"Islamic place","lat":13.489617,"lng":7.093449,"addr":"","type":"place_of_worship"},{"id":"xx134903_70942","name":"Islamic place","lat":13.490329,"lng":7.09417,"addr":"","type":"place_of_worship"},{"id":"xx134907_70966","name":"Islamic place","lat":13.490656,"lng":7.096567,"addr":"","type":"place_of_worship"},{"id":"xx134898_70917","name":"Islamic place","lat":13.489826,"lng":7.091746,"addr":"","type":"place_of_worship"},{"id":"xx134894_70922","name":"Islamic place","lat":13.489449,"lng":7.092157,"addr":"","type":"place_of_worship"},{"id":"xx134875_71029","name":"Mosquée Chéhou Malam Tanko","lat":13.487512,"lng":7.102936,"addr":"","type":"place_of_worship"},{"id":"xx134958_70977","name":"La mosquée Ansar","lat":13.495843,"lng":7.097669,"addr":"","type":"place_of_worship"},{"id":"xx135036_71030","name":"Mosquée Abdourahamane bin Awf","lat":13.503628,"lng":7.103003,"addr":"","type":"place_of_worship"},{"id":"xx135040_71053","name":"Pharmacie Islamique","lat":13.503955,"lng":7.105323,"addr":"","type":"pharmacy"},{"id":"xx134973_70985","name":"Pharmacie Islamique","lat":13.497315,"lng":7.098498,"addr":"","type":"pharmacy"},{"id":"xx148902_52633","name":"Grande Mosquée","lat":14.890166,"lng":5.263348,"addr":"","type":"place_of_worship"},{"id":"xx148935_52679","name":"La Grande Mosquée de Zoulanké","lat":14.893546,"lng":5.267938,"addr":"","type":"place_of_worship"},{"id":"xx148903_52598","name":"Mosquée Joe Kallé","lat":14.890282,"lng":5.259772,"addr":"","type":"place_of_worship"},{"id":"xx148897_52653","name":"Mosquée de Priere Quotidienne","lat":14.88974,"lng":5.265251,"addr":"","type":"place_of_worship"},{"id":"xx148885_52654","name":"Islamic place","lat":14.888469,"lng":5.265434,"addr":"","type":"place_of_worship"},{"id":"xx148885_52632","name":"Islamic place","lat":14.888478,"lng":5.263185,"addr":"","type":"place_of_worship"},{"id":"xx148886_52645","name":"Islamic place","lat":14.888616,"lng":5.264529,"addr":"","type":"place_of_worship"},{"id":"xx148887_52616","name":"Islamic place","lat":14.888689,"lng":5.261625,"addr":"","type":"place_of_worship"},{"id":"xx148888_52578","name":"Islamic place","lat":14.888759,"lng":5.257799,"addr":"","type":"place_of_worship"},{"id":"xx148902_52677","name":"Islamic place","lat":14.890206,"lng":5.267699,"addr":"","type":"place_of_worship"},{"id":"xx148926_52604","name":"Islamic place","lat":14.892564,"lng":5.260357,"addr":"","type":"place_of_worship"},{"id":"xx148902_52760","name":"Islamic place","lat":14.890195,"lng":5.275957,"addr":"","type":"place_of_worship"},{"id":"xx148917_52762","name":"Islamic place","lat":14.891711,"lng":5.276237,"addr":"","type":"place_of_worship"},{"id":"xx148903_52675","name":"Mosquée Touglawa","lat":14.890342,"lng":5.267504,"addr":"","type":"place_of_worship"},{"id":"xx148904_52664","name":"Mosquée Touglawa","lat":14.890383,"lng":5.266374,"addr":"","type":"place_of_worship"},{"id":"xx148903_52650","name":"Mosquée Ibiki","lat":14.890251,"lng":5.265035,"addr":"","type":"place_of_worship"},{"id":"xx148908_52732","name":"Islamic place","lat":14.890828,"lng":5.273249,"addr":"","type":"place_of_worship"},{"id":"xx148976_52672","name":"Islamic place","lat":14.897555,"lng":5.267213,"addr":"","type":"place_of_worship"},{"id":"xx148989_52689","name":"Islamic place","lat":14.898907,"lng":5.268892,"addr":"","type":"place_of_worship"},{"id":"xx148826_52644","name":"Mosquée Ousmane BEN Affane","lat":14.882609,"lng":5.264402,"addr":"","type":"place_of_worship"},{"id":"xx148826_52650","name":"Islamic place","lat":14.882615,"lng":5.264968,"addr":"","type":"place_of_worship"},{"id":"xx148846_52659","name":"Islamic place","lat":14.884606,"lng":5.265853,"addr":"","type":"place_of_worship"},{"id":"xx134841_71246","name":"Mosquée grande priere","lat":13.484085,"lng":7.124633,"addr":"","type":"place_of_worship"},{"id":"xx134729_71096","name":"Mosquée de vendredi de Gao","lat":13.472869,"lng":7.109568,"addr":"","type":"place_of_worship"},{"id":"xx134896_70905","name":"Islamic place","lat":13.489611,"lng":7.090462,"addr":"","type":"place_of_worship"},{"id":"xx134898_71015","name":"Islamic place","lat":13.489814,"lng":7.101541,"addr":"","type":"place_of_worship"},{"id":"xx134909_70998","name":"Islamic place","lat":13.490921,"lng":7.099798,"addr":"","type":"place_of_worship"},{"id":"xx138058_89834","name":"Islamic place","lat":13.805786,"lng":8.983387,"addr":"","type":"place_of_worship"},{"id":"xx138065_89841","name":"Islamic place","lat":13.806535,"lng":8.984115,"addr":"","type":"place_of_worship"},{"id":"xx138257_89839","name":"Markaz Salahouddine","lat":13.825715,"lng":8.983889,"addr":"pavé CEG2 face de chez Elh Saley me karahuna","type":"place_of_worship"},{"id":"xx139221_65120","name":"Mosquée de Sayadi Dakare","lat":13.922059,"lng":6.512021,"addr":"","type":"mosque"},{"id":"xx135452_80580","name":"Islamic place","lat":13.545185,"lng":8.057958,"addr":"","type":"place_of_worship"},{"id":"xx136651_66998","name":"Islamic place","lat":13.665104,"lng":6.699759,"addr":"","type":"place_of_worship"},{"id":"xx148937_52669","name":"Islamic place","lat":14.893674,"lng":5.266909,"addr":"","type":"place_of_worship"},{"id":"xx149009_52578","name":"Mosquée Geban Zogué","lat":14.900927,"lng":5.257777,"addr":"","type":"place_of_worship"},{"id":"xx148905_52640","name":"Islamic place","lat":14.890545,"lng":5.263965,"addr":"","type":"mosque"},{"id":"xx148921_52681","name":"Islamic place","lat":14.892055,"lng":5.268095,"addr":"","type":"place_of_worship"},{"id":"xx148920_52693","name":"Islamic place","lat":14.891995,"lng":5.269283,"addr":"","type":"place_of_worship"},{"id":"xx148902_52657","name":"Islamic place","lat":14.890239,"lng":5.265713,"addr":"","type":"place_of_worship"},{"id":"xx148914_52658","name":"Islamic place","lat":14.891363,"lng":5.265817,"addr":"","type":"place_of_worship"},{"id":"xx148912_52647","name":"Islamic place","lat":14.891171,"lng":5.264697,"addr":"","type":"place_of_worship"},{"id":"xx148903_52663","name":"Islamic place","lat":14.890324,"lng":5.266343,"addr":"","type":"place_of_worship"},{"id":"xx148906_52668","name":"Islamic place","lat":14.89061,"lng":5.26681,"addr":"","type":"place_of_worship"},{"id":"xx148839_52913","name":"Islamic place","lat":14.883915,"lng":5.291339,"addr":"","type":"place_of_worship"},{"id":"xx148845_52842","name":"Islamic place","lat":14.884515,"lng":5.28415,"addr":"","type":"place_of_worship"},{"id":"xx148999_52584","name":"Islamic place","lat":14.899897,"lng":5.258397,"addr":"","type":"place_of_worship"},{"id":"xx149004_52558","name":"Islamic place","lat":14.900414,"lng":5.255767,"addr":"","type":"place_of_worship"},{"id":"xx148859_52849","name":"Islamic place","lat":14.885874,"lng":5.284942,"addr":"","type":"place_of_worship"},{"id":"xx148853_52870","name":"Islamic place","lat":14.885309,"lng":5.286973,"addr":"","type":"place_of_worship"},{"id":"xx148852_52878","name":"Islamic place","lat":14.885207,"lng":5.287763,"addr":"","type":"place_of_worship"},{"id":"xx148848_52892","name":"Mosqué Etudiants","lat":14.884833,"lng":5.289246,"addr":"","type":"place_of_worship"},{"id":"xx148753_52464","name":"Mosquée Zone Abattoir","lat":14.875255,"lng":5.246401,"addr":"","type":"place_of_worship"},{"id":"xx148923_52592","name":"Islamic place","lat":14.892349,"lng":5.25919,"addr":"","type":"place_of_worship"},{"id":"xx148923_52585","name":"Islamic place","lat":14.89231,"lng":5.258507,"addr":"","type":"place_of_worship"},{"id":"xx148896_52663","name":"Mosquée Mournawa","lat":14.889579,"lng":5.266327,"addr":"","type":"place_of_worship"},{"id":"xx148923_52568","name":"Islamic place","lat":14.892259,"lng":5.256823,"addr":"","type":"place_of_worship"},{"id":"xx149041_52633","name":"Islamic place","lat":14.904068,"lng":5.26335,"addr":"","type":"place_of_worship"},{"id":"xx149004_52633","name":"Mosquée Geban Zogué","lat":14.900401,"lng":5.263264,"addr":"","type":"place_of_worship"},{"id":"xx138426_52377","name":"Mosquée dibissou","lat":13.842597,"lng":5.237708,"addr":"","type":"place_of_worship"},{"id":"xx138392_52964","name":"Mosquée tchérassa","lat":13.83917,"lng":5.296413,"addr":"","type":"place_of_worship"},{"id":"xx138382_53078","name":"Islamic place","lat":13.838241,"lng":5.307818,"addr":"","type":"place_of_worship"},{"id":"xx138354_53048","name":"Islamic place","lat":13.835444,"lng":5.30485,"addr":"","type":"place_of_worship"},{"id":"xx135021_70974","name":"Islamic place","lat":13.50207,"lng":7.097371,"addr":"","type":"place_of_worship"},{"id":"xx137892_52677","name":"Mosquée de vendredi Kaoura","lat":13.789224,"lng":5.267669,"addr":"","type":"place_of_worship"},{"id":"xx140691_53398","name":"Grande Mosquée de Salewa","lat":14.069115,"lng":5.339774,"addr":"","type":"place_of_worship"},{"id":"xx138207_89914","name":"Islamic place","lat":13.820669,"lng":8.991383,"addr":"","type":"place_of_worship"},{"id":"xx137661_79909","name":"Mosquée Elh Moussa","lat":13.766089,"lng":7.990932,"addr":"","type":"place_of_worship"},{"id":"xx137485_79874","name":"Grande mosqée","lat":13.748541,"lng":7.987434,"addr":"","type":"place_of_worship"},{"id":"xx140740_56683","name":"Islamic place","lat":14.073992,"lng":5.668346,"addr":"","type":"place_of_worship"},{"id":"xx134677_89798","name":"Mosquée vendredi de lingui","lat":13.467732,"lng":8.979784,"addr":"","type":"place_of_worship"},{"id":"xx144455_59216","name":"Islamic place","lat":14.445458,"lng":5.921638,"addr":"","type":"place_of_worship"},{"id":"xx139889_90843","name":"Islamic place","lat":13.988913,"lng":9.084286,"addr":"","type":"place_of_worship"},{"id":"xx139665_55069","name":"Islamic place","lat":13.966471,"lng":5.506892,"addr":"","type":"place_of_worship"},{"id":"xx139619_55022","name":"La Grande Mosquée","lat":13.9619,"lng":5.502241,"addr":"","type":"place_of_worship"},{"id":"xx139632_55091","name":"Islamic place","lat":13.963212,"lng":5.509102,"addr":"","type":"place_of_worship"},{"id":"xx139570_55121","name":"Ahli souna","lat":13.957022,"lng":5.512117,"addr":"","type":"place_of_worship"},{"id":"xx136591_67028","name":"GRANDE MOSQUEE DU VENDREDI","lat":13.65908,"lng":6.702792,"addr":"","type":"place_of_worship"},{"id":"xx136600_67027","name":"Mosquée","lat":13.66002,"lng":6.702666,"addr":"","type":"place_of_worship"},{"id":"xx136593_67000","name":"Mosquée Palais Royal","lat":13.659347,"lng":6.700037,"addr":"","type":"place_of_worship"},{"id":"xx136629_67026","name":"Islamic place","lat":13.662886,"lng":6.702629,"addr":"","type":"place_of_worship"},{"id":"xx135601_70655","name":"CEG Franco Arabe Tibiri","lat":13.56009,"lng":7.065493,"addr":"Tibiri Gobir","type":"school"},{"id":"xx135650_70619","name":"Mosquée de Vendredi","lat":13.564984,"lng":7.061913,"addr":"","type":"place_of_worship"},{"id":"xx148727_52471","name":"Islamic place","lat":14.8727,"lng":5.247082,"addr":"","type":"place_of_worship"},{"id":"xx148707_52434","name":"Islamic place","lat":14.870724,"lng":5.243445,"addr":"","type":"place_of_worship"},{"id":"xx148743_52420","name":"Islamic place","lat":14.874331,"lng":5.241998,"addr":"","type":"place_of_worship"},{"id":"xx148749_52429","name":"Islamic place","lat":14.874933,"lng":5.242887,"addr":"","type":"place_of_worship"},{"id":"xx148707_52477","name":"Islamic place","lat":14.87071,"lng":5.247674,"addr":"","type":"place_of_worship"},{"id":"xx148702_52470","name":"Islamic place","lat":14.87025,"lng":5.246982,"addr":"","type":"place_of_worship"},{"id":"xx148843_52412","name":"Islamic place","lat":14.884299,"lng":5.241153,"addr":"","type":"place_of_worship"},{"id":"xx148780_52416","name":"Islamic place","lat":14.877986,"lng":5.241576,"addr":"","type":"place_of_worship"},{"id":"xx148698_52439","name":"Islamic place","lat":14.869846,"lng":5.243899,"addr":"","type":"place_of_worship"},{"id":"xx148721_52442","name":"Islamic place","lat":14.872149,"lng":5.244194,"addr":"","type":"place_of_worship"},{"id":"xx148818_52394","name":"Islamic place","lat":14.88175,"lng":5.239372,"addr":"","type":"place_of_worship"},{"id":"xx148809_52422","name":"Islamic place","lat":14.880872,"lng":5.242196,"addr":"","type":"place_of_worship"},{"id":"xx148760_52430","name":"Islamic place","lat":14.876049,"lng":5.243049,"addr":"","type":"place_of_worship"},{"id":"xx148771_52406","name":"Islamic place","lat":14.87707,"lng":5.240599,"addr":"","type":"place_of_worship"},{"id":"xx148801_52388","name":"Islamic place","lat":14.880116,"lng":5.238798,"addr":"","type":"place_of_worship"},{"id":"xx148831_52628","name":"Islamic place","lat":14.883142,"lng":5.262819,"addr":"","type":"place_of_worship"},{"id":"xx148868_52689","name":"Islamic place","lat":14.886792,"lng":5.268947,"addr":"","type":"place_of_worship"},{"id":"xx148886_52677","name":"Islamic place","lat":14.888629,"lng":5.267672,"addr":"","type":"place_of_worship"},{"id":"xx148825_52650","name":"Islamic place","lat":14.882532,"lng":5.264976,"addr":"","type":"place_of_worship"},{"id":"xx148875_52684","name":"Islamic place","lat":14.88748,"lng":5.268406,"addr":"","type":"place_of_worship"},{"id":"xx148842_52639","name":"Islamic place","lat":14.884237,"lng":5.263854,"addr":"","type":"place_of_worship"},{"id":"xx148843_52668","name":"Islamic place","lat":14.884318,"lng":5.266752,"addr":"","type":"place_of_worship"},{"id":"xx148825_52621","name":"Islamic place","lat":14.882523,"lng":5.262134,"addr":"","type":"place_of_worship"},{"id":"xx148904_52640","name":"Islamic place","lat":14.890413,"lng":5.263995,"addr":"","type":"place_of_worship"},{"id":"xx148823_52611","name":"Islamic place","lat":14.882262,"lng":5.261087,"addr":"","type":"place_of_worship"},{"id":"xx148782_52859","name":"Islamic place","lat":14.878158,"lng":5.285911,"addr":"","type":"place_of_worship"},{"id":"xx148920_52648","name":"Islamic place","lat":14.891998,"lng":5.264769,"addr":"","type":"place_of_worship"},{"id":"xx148772_52844","name":"Islamic place","lat":14.877173,"lng":5.284436,"addr":"","type":"place_of_worship"},{"id":"xx149041_52698","name":"Islamic place","lat":14.904066,"lng":5.269775,"addr":"","type":"place_of_worship"},{"id":"xx148942_52745","name":"Islamic place","lat":14.89425,"lng":5.274464,"addr":"","type":"place_of_worship"},{"id":"xx148982_52485","name":"Islamic place","lat":14.898207,"lng":5.248495,"addr":"","type":"place_of_worship"},{"id":"xx149007_52620","name":"Islamic place","lat":14.900741,"lng":5.261978,"addr":"","type":"place_of_worship"},{"id":"xx148726_52931","name":"Madjid Sahabatu Radiayalahu Anhu","lat":14.872615,"lng":5.293078,"addr":"","type":"place_of_worship"},{"id":"xx148908_52704","name":"Islamic place","lat":14.890792,"lng":5.270447,"addr":"","type":"place_of_worship"},{"id":"xx148786_52841","name":"Islamic place","lat":14.878602,"lng":5.284074,"addr":"","type":"place_of_worship"},{"id":"xx148728_52900","name":"Islamic place","lat":14.872799,"lng":5.289958,"addr":"","type":"place_of_worship"},{"id":"xx148947_52703","name":"Islamic place","lat":14.894729,"lng":5.270253,"addr":"","type":"place_of_worship"},{"id":"xx148727_52875","name":"Islamic place","lat":14.872691,"lng":5.287466,"addr":"","type":"place_of_worship"},{"id":"xx149008_52694","name":"Islamic place","lat":14.900833,"lng":5.269398,"addr":"","type":"place_of_worship"},{"id":"xx149041_52682","name":"Islamic place","lat":14.904116,"lng":5.268226,"addr":"","type":"place_of_worship"},{"id":"xx148803_52835","name":"Islamic place","lat":14.88034,"lng":5.283519,"addr":"","type":"place_of_worship"},{"id":"xx148911_52783","name":"Islamic place","lat":14.891127,"lng":5.278337,"addr":"","type":"place_of_worship"},{"id":"xx148694_52820","name":"Islamic place","lat":14.869411,"lng":5.281959,"addr":"","type":"place_of_worship"},{"id":"xx148814_52442","name":"Islamic place","lat":14.881392,"lng":5.24418,"addr":"","type":"place_of_worship"},{"id":"xx148732_52833","name":"Islamic place","lat":14.87324,"lng":5.283334,"addr":"","type":"place_of_worship"},{"id":"xx138696_69784","name":"CES Sabon Machi","lat":13.869595,"lng":6.978432,"addr":"Sabon-Machi","type":"school"},{"id":"xx143721_52817","name":"Mosquée de guidant karo","lat":14.372121,"lng":5.28172,"addr":"","type":"place_of_worship"},{"id":"xx134801_71146","name":"Mosquée Sahaba","lat":13.4801,"lng":7.1146,"addr":"","type":"place_of_worship"},{"id":"xx136242_70073","name":"Islamic place","lat":13.624184,"lng":7.007312,"addr":"","type":"place_of_worship"},{"id":"xx135473_70861","name":"Islamic place","lat":13.547349,"lng":7.086131,"addr":"","type":"place_of_worship"},{"id":"xx136731_69901","name":"Islamic place","lat":13.673117,"lng":6.990098,"addr":"","type":"place_of_worship"},{"id":"xx135548_70796","name":"Islamic place","lat":13.554766,"lng":7.079587,"addr":"","type":"place_of_worship"},{"id":"xx134956_71160","name":"Islamic place","lat":13.495626,"lng":7.116019,"addr":"","type":"place_of_worship"},{"id":"xx135676_70698","name":"Islamic place","lat":13.567586,"lng":7.069781,"addr":"","type":"place_of_worship"},{"id":"xx136086_70324","name":"Islamic place","lat":13.608643,"lng":7.032367,"addr":"","type":"place_of_worship"},{"id":"xx136784_69867","name":"Islamic place","lat":13.678394,"lng":6.986664,"addr":"","type":"place_of_worship"},{"id":"xx135864_70627","name":"Islamic place","lat":13.586439,"lng":7.062738,"addr":"","type":"place_of_worship"},{"id":"xx134976_71085","name":"Islamic place","lat":13.497592,"lng":7.108491,"addr":"","type":"place_of_worship"},{"id":"xx136786_69884","name":"Islamic place","lat":13.678621,"lng":6.988391,"addr":"","type":"place_of_worship"},{"id":"xx134988_71087","name":"Islamic place","lat":13.49877,"lng":7.108651,"addr":"","type":"place_of_worship"},{"id":"xx134990_71086","name":"Islamic place","lat":13.499024,"lng":7.108581,"addr":"","type":"place_of_worship"},{"id":"xx134977_71148","name":"Islamic place","lat":13.497742,"lng":7.114808,"addr":"","type":"place_of_worship"},{"id":"xx134815_71259","name":"Islamic place","lat":13.48151,"lng":7.125931,"addr":"","type":"place_of_worship"},{"id":"xx134896_71299","name":"Mosquée","lat":13.489552,"lng":7.129925,"addr":"","type":"place_of_worship"},{"id":"xx137016_74649","name":"Islamic place","lat":13.701627,"lng":7.464866,"addr":"","type":"place_of_worship"},{"id":"xx135548_75044","name":"Islamic place","lat":13.554795,"lng":7.504414,"addr":"","type":"place_of_worship"},{"id":"xx135255_74796","name":"Mosquée","lat":13.525481,"lng":7.479577,"addr":"","type":"place_of_worship"},{"id":"xx133779_75383","name":"Islamic place","lat":13.377919,"lng":7.538342,"addr":"","type":"place_of_worship"},{"id":"xx135520_74584","name":"Islamic place","lat":13.551998,"lng":7.458434,"addr":"","type":"place_of_worship"},{"id":"xx135482_74460","name":"Islamic place","lat":13.548169,"lng":7.445968,"addr":"","type":"place_of_worship"},{"id":"xx133241_75622","name":"Mosquée","lat":13.324143,"lng":7.562227,"addr":"","type":"place_of_worship"},{"id":"xx134347_75340","name":"Islamic place","lat":13.43472,"lng":7.534048,"addr":"","type":"place_of_worship"},{"id":"xx135465_74502","name":"Islamic place","lat":13.546511,"lng":7.450241,"addr":"","type":"place_of_worship"},{"id":"xx134353_74472","name":"Islamic place","lat":13.435323,"lng":7.447155,"addr":"","type":"place_of_worship"},{"id":"xx135454_74546","name":"Mosquée Attawba","lat":13.545383,"lng":7.454555,"addr":"","type":"place_of_worship"},{"id":"xx135432_74528","name":"Islamic place","lat":13.543183,"lng":7.452845,"addr":"","type":"place_of_worship"},{"id":"xx135444_74578","name":"Islamic place","lat":13.544362,"lng":7.457789,"addr":"","type":"place_of_worship"},{"id":"xx134525_82553","name":"Mosquée du Palais Royal","lat":13.452514,"lng":8.255334,"addr":"","type":"place_of_worship"},{"id":"xx133005_81368","name":"Islamic place","lat":13.300477,"lng":8.136823,"addr":"","type":"place_of_worship"},{"id":"xx133209_81494","name":"Islamic place","lat":13.320885,"lng":8.149439,"addr":"","type":"place_of_worship"},{"id":"xx134193_81772","name":"Islamic place","lat":13.419302,"lng":8.1772,"addr":"","type":"place_of_worship"},{"id":"xx133601_83469","name":"Islamic place","lat":13.360122,"lng":8.346899,"addr":"","type":"place_of_worship"},{"id":"xx134914_71335","name":"Islamic place","lat":13.491387,"lng":7.133472,"addr":"","type":"place_of_worship"},{"id":"xx136436_70108","name":"Grande mosquée","lat":13.643551,"lng":7.010758,"addr":"","type":"place_of_worship"},{"id":"xx137022_69228","name":"Grande mosquée","lat":13.702185,"lng":6.922782,"addr":"","type":"place_of_worship"},{"id":"xx136514_70367","name":"Grande mosquée de Garin kaka","lat":13.651373,"lng":7.036719,"addr":"","type":"place_of_worship"},{"id":"xx136515_70367","name":"Grande mosquée Garin kaka","lat":13.651525,"lng":7.036684,"addr":"","type":"place_of_worship"},{"id":"xx136786_68948","name":"Grande mosquée","lat":13.678589,"lng":6.894761,"addr":"","type":"place_of_worship"},{"id":"xx135595_74455","name":"Grande mosquée de Dan Dabo","lat":13.559495,"lng":7.445518,"addr":"","type":"place_of_worship"},{"id":"xx137316_69586","name":"Grande mosquée de Guidan Tawaye","lat":13.731589,"lng":6.958614,"addr":"","type":"place_of_worship"},{"id":"xx138167_88599","name":"mosquée de malloumtché tirmini takieta Zinder","lat":13.816675,"lng":8.859919,"addr":"","type":"place_of_worship"},{"id":"xx136576_66884","name":"Grande Mosquée de Vendredi","lat":13.65759,"lng":6.688408,"addr":"","type":"place_of_worship"},{"id":"xx136611_66963","name":"Islamic place","lat":13.661071,"lng":6.696285,"addr":"","type":"place_of_worship"},{"id":"xx136620_66984","name":"Islamic place","lat":13.662018,"lng":6.698396,"addr":"","type":"place_of_worship"},{"id":"xx136600_67031","name":"Islamic place","lat":13.659998,"lng":6.70315,"addr":"","type":"place_of_worship"},{"id":"xx144521_56599","name":"Mosquée Gidan maƙéra","lat":14.452142,"lng":5.65991,"addr":"","type":"place_of_worship"},{"id":"xx148861_52481","name":"Mosqué de vendredi","lat":14.88614,"lng":5.24813,"addr":"","type":"place_of_worship"},{"id":"xx134858_71294","name":"Islamic place","lat":13.4858,"lng":7.129419,"addr":"","type":"place_of_worship"},{"id":"xx138442_89843","name":"Mosquée","lat":13.844228,"lng":8.984308,"addr":"","type":"place_of_worship"},{"id":"xx140800_59482","name":"Islamic place","lat":14.079979,"lng":5.948212,"addr":"","type":"mosque"},{"id":"xx140733_59673","name":"Islamic place","lat":14.073308,"lng":5.967266,"addr":"","type":"mosque"},{"id":"xx140643_59636","name":"Islamic place","lat":14.064296,"lng":5.963641,"addr":"","type":"mosque"},{"id":"xx148776_52876","name":"Islamic place","lat":14.877622,"lng":5.287627,"addr":"","type":"yes"},{"id":"xx140756_59639","name":"Islamic place","lat":14.075572,"lng":5.963923,"addr":"","type":"mosque"},{"id":"xx141369_58986","name":"Islamic place","lat":14.136911,"lng":5.898622,"addr":"","type":"mosque"},{"id":"xx135172_71087","name":"Grande Mosquée de Zaria","lat":13.517162,"lng":7.108694,"addr":"","type":"yes"},{"id":"xx133036_71596","name":"Islamic place","lat":13.303626,"lng":7.159579,"addr":"","type":"yes"},{"id":"xx137104_91551","name":"Islamic place","lat":13.710411,"lng":9.155096,"addr":"","type":"yes"},{"id":"xx135070_77783","name":"Islamic place","lat":13.50697,"lng":7.778288,"addr":"","type":"yes"},{"id":"xx140721_59494","name":"Islamic place","lat":14.072122,"lng":5.949377,"addr":"","type":"yes"},{"id":"xx130015_89069","name":"Mesquita do Sultão","lat":13.001471,"lng":8.906917,"addr":"Magaria","type":"yes"},{"id":"xx137941_90012","name":"Islamic place","lat":13.79412,"lng":9.001189,"addr":"","type":"mosque"},{"id":"xx134949_71108","name":"Islamic place","lat":13.494878,"lng":7.110829,"addr":"","type":"mosque"},{"id":"xx134925_70949","name":"Mosquée du Sultanat","lat":13.492532,"lng":7.094874,"addr":"","type":"mosque"},{"id":"xx148902_52598","name":"Islamic place","lat":14.890235,"lng":5.259807,"addr":"","type":"mosque"},{"id":"xx134840_71246","name":"Islamic place","lat":13.484031,"lng":7.12463,"addr":"","type":"mosque"},{"id":"xx145864_58971","name":"grande mosquee","lat":14.586428,"lng":5.89714,"addr":"","type":"yes"},{"id":"xx144236_60440","name":"Mosqué de vendredi","lat":14.423582,"lng":6.044017,"addr":"","type":"mosque"},{"id":"xx145092_67697","name":"مسجد داكرو","lat":14.509238,"lng":6.769682,"addr":"","type":"yes"},{"id":"xx135606_70589","name":"Mosquée de I'Aïd","lat":13.560593,"lng":7.058913,"addr":"","type":"yes"},{"id":"xx136590_75491","name":"Mosquée de Vendredi","lat":13.658952,"lng":7.549102,"addr":"","type":"mosque"},{"id":"xx136590_75492","name":"Islamic place","lat":13.658966,"lng":7.549249,"addr":"","type":"place_of_worship"},{"id":"xx136651_66997","name":"mosquee du vendredi","lat":13.665096,"lng":6.699724,"addr":"","type":"mosque"},{"id":"xx149712_88815","name":"Islamic place","lat":14.971152,"lng":8.881513,"addr":"","type":"mosque"},{"id":"xx129984_89130","name":"Escola Mista","lat":12.998381,"lng":8.912958,"addr":"Magaria","type":"school"},{"id":"xx136616_66974","name":"mosquée","lat":13.661604,"lng":6.697417,"addr":"","type":"yes"},{"id":"xx143596_54993","name":"Grande mosquée de Yama","lat":14.359624,"lng":5.499278,"addr":"","type":"mosque"},{"id":"xx138163_89778","name":"Markaz Ahlus-sunnah wal-jama'a","lat":13.816315,"lng":8.977835,"addr":"","type":"yes"},{"id":"xx136966_95172","name":"Islamic place","lat":13.696611,"lng":9.517169,"addr":"","type":"yes"},{"id":"xx137128_95743","name":"Islamic place","lat":13.712835,"lng":9.574305,"addr":"","type":"yes"},{"id":"xx135239_79107","name":"Grande Mosquée de Gazaoua","lat":13.523866,"lng":7.910711,"addr":"","type":"yes"},{"id":"xx136600_67017","name":"Mosquée","lat":13.659956,"lng":6.701672,"addr":"","type":"place_of_worship"},{"id":"xx136632_67015","name":"mosquée","lat":13.663238,"lng":6.701489,"addr":"","type":"place_of_worship"},{"id":"xx136643_67060","name":"Terrain de priere id","lat":13.664341,"lng":6.706,"addr":"","type":"place_of_worship"},{"id":"xx136627_66888","name":"Cimetière de Guidan Roumdji","lat":13.662675,"lng":6.688773,"addr":"","type":"mosque"},{"id":"xx135639_70495","name":"Mosquée du Sultanat du Gobir","lat":13.563854,"lng":7.049473,"addr":"Tibiri-Gobir","type":"yes"},{"id":"xx135586_70568","name":"Cimétière de Goumar","lat":13.558627,"lng":7.056819,"addr":"","type":"mosque"},{"id":"xx135686_70612","name":"Islamic place","lat":13.568638,"lng":7.061184,"addr":"","type":"place_of_worship"},{"id":"xx138696_93185","name":"Grand Mosquée de Zermou","lat":13.869619,"lng":9.318509,"addr":"","type":"yes"},{"id":"xx144497_56610","name":"Massallaci_Izala","lat":14.449712,"lng":5.661041,"addr":"","type":"yes"},{"id":"xx144516_56634","name":"Maqabarta","lat":14.451587,"lng":5.663351,"addr":"","type":"mosque"},{"id":"xx144538_56656","name":"Massallaci_Toudou","lat":14.453833,"lng":5.665643,"addr":"","type":"yes"},{"id":"xx144516_56608","name":"Mosquée_Alhazzai","lat":14.451611,"lng":5.660821,"addr":"","type":"yes"},{"id":"xx144548_56609","name":"Islamic place","lat":14.454771,"lng":5.660944,"addr":"","type":"yes"},{"id":"xx144534_56602","name":"Massallatchin_Elh_Tahirou","lat":14.453391,"lng":5.660239,"addr":"","type":"yes"},{"id":"xx144556_56620","name":"Islamic place","lat":14.455553,"lng":5.661996,"addr":"","type":"yes"},{"id":"xx144541_56561","name":"Maqabatar_Yamma","lat":14.454109,"lng":5.656143,"addr":"","type":"mosque"},{"id":"xx138348_91090","name":"Mosquée de Gaffati","lat":13.834801,"lng":9.108995,"addr":"","type":"mosque"},{"id":"xx130010_89135","name":"Islamic place","lat":13.001037,"lng":8.913452,"addr":"","type":"mosque"},{"id":"xx129939_89025","name":"Islamic place","lat":12.993893,"lng":8.902511,"addr":"","type":"mosque"},{"id":"xx138920_90116","name":"Islamic place","lat":13.892025,"lng":9.011552,"addr":"","type":"yes"},{"id":"xx136593_67001","name":"Islamic place","lat":13.659343,"lng":6.700052,"addr":"","type":"mosque"},{"id":"xx140682_59447","name":"mosquée Baitul Mahdi","lat":14.068227,"lng":5.944725,"addr":"Madaoua","type":"yes"},{"id":"xx138122_89825","name":"Mosquée Ahlussuna Magema","lat":13.812201,"lng":8.982476,"addr":"","type":"mosque"},{"id":"xx134939_77751","name":"Islamic place","lat":13.493869,"lng":7.775101,"addr":"","type":"yes"},{"id":"xx135027_77755","name":"Islamic place","lat":13.502704,"lng":7.775479,"addr":"","type":"yes"},{"id":"xx128688_93485","name":"Islamic place","lat":12.868757,"lng":9.348502,"addr":"","type":"yes"},{"id":"xx128926_94508","name":"Islamic place","lat":12.892599,"lng":9.45075,"addr":"","type":"yes"},{"id":"xx129137_92405","name":"Islamic place","lat":12.913664,"lng":9.240549,"addr":"","type":"yes"},{"id":"xx129026_92657","name":"Islamic place","lat":12.902552,"lng":9.265699,"addr":"","type":"yes"},{"id":"xx129594_93282","name":"Islamic place","lat":12.959421,"lng":9.328204,"addr":"","type":"yes"},{"id":"xx129421_93551","name":"Islamic place","lat":12.942139,"lng":9.355053,"addr":"","type":"yes"},{"id":"xx129873_94058","name":"Islamic place","lat":12.987267,"lng":9.405796,"addr":"","type":"yes"},{"id":"xx129061_92944","name":"Islamic place","lat":12.906115,"lng":9.294382,"addr":"","type":"yes"},{"id":"xx128697_93931","name":"Islamic place","lat":12.869663,"lng":9.393076,"addr":"","type":"yes"},{"id":"xx134959_71269","name":"Mosquée et école coranique","lat":13.495865,"lng":7.126932,"addr":"quartier ADS","type":"yes"},{"id":"xx148272_56560","name":"Grande Mosquée de Tamaské","lat":14.8272,"lng":5.656027,"addr":"","type":"yes"},{"id":"xx141369_58985","name":"Islamic place","lat":14.136918,"lng":5.898466,"addr":"","type":"mosque"},{"id":"xx135069_77783","name":"Islamic place","lat":13.506946,"lng":7.778288,"addr":"","type":"yes"},{"id":"xx143596_54992","name":"Grande mosquée de Yama","lat":14.359623,"lng":5.499245,"addr":"","type":"mosque"},{"id":"xx136642_67059","name":"Terrain de priere id","lat":13.664207,"lng":6.705851,"addr":"","type":"place_of_worship"},{"id":"xx136627_66886","name":"Cimetière de Guidan Roumdji","lat":13.662743,"lng":6.688616,"addr":"","type":"mosque"},{"id":"xx135638_70495","name":"Mosquée du Sultanat du Gobir","lat":13.563794,"lng":7.04947,"addr":"Tibiri-Gobir","type":"yes"},{"id":"xx144515_56633","name":"Maqabarta","lat":14.451535,"lng":5.663345,"addr":"","type":"mosque"},{"id":"xx136594_67000","name":"Islamic place","lat":13.659358,"lng":6.700036,"addr":"","type":"mosque"},{"id":"xx134938_77751","name":"Islamic place","lat":13.493845,"lng":7.775094,"addr":"","type":"yes"}]