[{"id":"xx128665_748448","name":"Islamic place","lat":12.866526,"lng":74.844784,"addr":"","type":"place_of_worship"},{"id":"xx128718_748451","name":"Idgah Mosque","lat":12.871847,"lng":74.845135,"addr":"","type":"place_of_worship"},{"id":"xx108679_721980","name":"Mosque","lat":10.867895,"lng":72.197968,"addr":"","type":"place_of_worship"},{"id":"xx139939_745502","name":"Noor Masjid","lat":13.993855,"lng":74.550214,"addr":"","type":"place_of_worship"},{"id":"xx128476_748403","name":"Bolar Mosque","lat":12.847625,"lng":74.840329,"addr":"","type":"place_of_worship"},{"id":"xx129929_748383","name":"MJ Masjid","lat":12.992865,"lng":74.838318,"addr":"","type":"place_of_worship"},{"id":"xx129806_748170","name":"Kana","lat":12.98065,"lng":74.816956,"addr":"","type":"place_of_worship"},{"id":"xx129624_748448","name":"New Juma Masjid, Pudiyo Palli","lat":12.962395,"lng":74.844765,"addr":"","type":"place_of_worship"},{"id":"xx129616_748212","name":"Masjid","lat":12.96158,"lng":74.821228,"addr":"","type":"place_of_worship"},{"id":"xx130348_747844","name":"Valiyulla Darga Sharif Moschee","lat":13.034796,"lng":74.784378,"addr":"","type":"place_of_worship"},{"id":"xx124786_749939","name":"Hydrose Masjid Padinhar","lat":12.478551,"lng":74.993909,"addr":"","type":"place_of_worship"},{"id":"xx132820_747442","name":"Mosque","lat":13.281964,"lng":74.744222,"addr":"","type":"mosque"},{"id":"xx125175_749930","name":"masjid","lat":12.51748,"lng":74.992971,"addr":"","type":"place_of_worship"},{"id":"xx124902_749886","name":"Theruvath juma masjid","lat":12.49017,"lng":74.9886,"addr":"Theruvath","type":"place_of_worship"},{"id":"xx124992_749868","name":"Masjidul Hasanathul Jariya","lat":12.499206,"lng":74.986822,"addr":"","type":"place_of_worship"},{"id":"xx125016_749906","name":"Mubarak Masjid","lat":12.501638,"lng":74.99057,"addr":"","type":"place_of_worship"},{"id":"xx125069_749954","name":"Ansar Masjid","lat":12.506899,"lng":74.995359,"addr":"","type":"place_of_worship"},{"id":"xx125088_749946","name":"Juma Masjid","lat":12.508763,"lng":74.994576,"addr":"","type":"place_of_worship"},{"id":"xx125075_749934","name":"Masjid Sunni Centre","lat":12.50752,"lng":74.993421,"addr":"","type":"place_of_worship"},{"id":"xx125108_749970","name":"Nullipadi Masjid","lat":12.510828,"lng":74.996995,"addr":"","type":"place_of_worship"},{"id":"xx125554_749670","name":"Muhiyudheen Juma Masjid","lat":12.555408,"lng":74.966982,"addr":"","type":"place_of_worship"},{"id":"xx125984_749387","name":"Arikady Kadavath juma masjid","lat":12.598388,"lng":74.938682,"addr":"kumbala","type":"place_of_worship"},{"id":"xx129982_748151","name":"Asthal Jamia masjid","lat":12.998245,"lng":74.815144,"addr":"Krishnapura Road","type":"place_of_worship"},{"id":"xx129985_748143","name":"Thwaiba Masjid","lat":12.998459,"lng":74.81432,"addr":"Krishnapura Road","type":"place_of_worship"},{"id":"xx129967_748180","name":"Al Badriya Jumma Masjid","lat":12.996721,"lng":74.818031,"addr":"","type":"place_of_worship"},{"id":"xx129897_747972","name":"Mohiyuddin Juma Masjid","lat":12.989714,"lng":74.7972,"addr":"","type":"place_of_worship"},{"id":"xx129830_749564","name":"Hayathul Islam Masjid Gandhinagar","lat":12.98304,"lng":74.956424,"addr":"","type":"place_of_worship"},{"id":"xx129735_748963","name":"Masjidurrahman Juma Masjid Souharda Nagar Kolambe Bajpe","lat":12.973521,"lng":74.896302,"addr":"","type":"place_of_worship"},{"id":"xx129608_749431","name":"Masjid Ayesha Gurukambla","lat":12.960784,"lng":74.94307,"addr":"","type":"place_of_worship"},{"id":"xx129432_749320","name":"Jumma Masjid","lat":12.943207,"lng":74.932046,"addr":"","type":"place_of_worship"},{"id":"xx129316_749533","name":"Baba Fakrudding Juma Masjid Polali & Baba Fakruddin Kadeem Maqbara","lat":12.931584,"lng":74.953252,"addr":"","type":"place_of_worship"},{"id":"xx129266_748585","name":"Kavoor Jumma Masjid","lat":12.926581,"lng":74.858547,"addr":"","type":"place_of_worship"},{"id":"xx129130_749002","name":"Hayatul Islam Badriya Masjid Kattapuni","lat":12.912966,"lng":74.900163,"addr":"","type":"place_of_worship"},{"id":"xx129110_749672","name":"Madeena Jumma Masjid Kalai","lat":12.911049,"lng":74.967227,"addr":"","type":"place_of_worship"},{"id":"xx129045_748342","name":"Masjid Al Amin","lat":12.904459,"lng":74.834224,"addr":"","type":"place_of_worship"},{"id":"xx128735_748307","name":"Muhyuddin Juma Masjid","lat":12.873549,"lng":74.830665,"addr":"","type":"place_of_worship"},{"id":"xx128713_748868","name":"Rahman Masjid Padil Alape","lat":12.871328,"lng":74.886798,"addr":"","type":"place_of_worship"},{"id":"xx128237_748950","name":"Badriya Juma Masjid Belma Dota","lat":12.823695,"lng":74.895028,"addr":"","type":"place_of_worship"},{"id":"xx128209_748589","name":"Masjid Al Hidaya Juma","lat":12.820929,"lng":74.858949,"addr":"","type":"place_of_worship"},{"id":"xx128193_749630","name":"Tjm Masjid Madyanadka","lat":12.819262,"lng":74.962975,"addr":"","type":"place_of_worship"},{"id":"xx128155_748712","name":"Badriya Juma Masjid","lat":12.81547,"lng":74.871188,"addr":"","type":"place_of_worship"},{"id":"xx128007_749909","name":"Juma Masjid Parappu","lat":12.800734,"lng":74.990881,"addr":"","type":"place_of_worship"},{"id":"xx146627_743045","name":"Masjid-e-bilal","lat":14.662689,"lng":74.304533,"addr":"","type":"place_of_worship"},{"id":"xx144234_745867","name":"Nabvi Masjid Belgalgade","lat":14.423414,"lng":74.586714,"addr":"","type":"place_of_worship"},{"id":"xx142422_746293","name":"Masjid E Sahaba","lat":14.24224,"lng":74.629296,"addr":"","type":"place_of_worship"},{"id":"xx140215_745037","name":"Juma Masjid","lat":14.02152,"lng":74.50369,"addr":"","type":"place_of_worship"},{"id":"xx139635_745405","name":"Masjid Alfalah","lat":13.96354,"lng":74.540506,"addr":"","type":"place_of_worship"},{"id":"xx133186_749935","name":"Noorani Masjid","lat":13.318584,"lng":74.993505,"addr":"","type":"place_of_worship"},{"id":"xx132941_747691","name":"Rahmaniya Jumma Masjid Manipura","lat":13.294095,"lng":74.769103,"addr":"","type":"place_of_worship"},{"id":"xx132715_747640","name":"Jumma Masjid","lat":13.271519,"lng":74.764044,"addr":"","type":"place_of_worship"},{"id":"xx132265_748123","name":"Masjid-e-noor","lat":13.226455,"lng":74.812347,"addr":"","type":"place_of_worship"},{"id":"xx132112_747663","name":"Hazrath Mohammed Shah Dargah","lat":13.211237,"lng":74.766349,"addr":"","type":"place_of_worship"},{"id":"xx132010_749956","name":"Masjid And Madrasa","lat":13.200979,"lng":74.995586,"addr":"","type":"place_of_worship"},{"id":"xx131962_747490","name":"Jumma Masjid Muloor","lat":13.196203,"lng":74.748979,"addr":"","type":"place_of_worship"},{"id":"xx131675_747615","name":"Jamiya Masjid","lat":13.16749,"lng":74.761519,"addr":"","type":"place_of_worship"},{"id":"xx131301_749845","name":"Noorani Masjid","lat":13.130132,"lng":74.984525,"addr":"","type":"place_of_worship"},{"id":"xx131163_749012","name":"Jumma Masjid","lat":13.116253,"lng":74.901175,"addr":"","type":"place_of_worship"},{"id":"xx130971_747731","name":"Hejmady Kodi Masjid","lat":13.097141,"lng":74.773097,"addr":"","type":"place_of_worship"},{"id":"xx130720_748033","name":"Salafi Masjid Kolnad","lat":13.071996,"lng":74.803323,"addr":"","type":"place_of_worship"},{"id":"xx130243_748392","name":"Soorinje Mjm Masjid","lat":13.024321,"lng":74.83921,"addr":"","type":"place_of_worship"},{"id":"xx130021_748843","name":"Jamiya Masjid Permude","lat":13.002057,"lng":74.884324,"addr":"","type":"place_of_worship"},{"id":"xx129954_748853","name":"Minara Masjid","lat":12.995371,"lng":74.885277,"addr":"","type":"place_of_worship"},{"id":"xx125005_749790","name":"NELLIKUNNU JUMA MASJID","lat":12.500491,"lng":74.978982,"addr":"","type":"place_of_worship"},{"id":"xx125090_749719","name":"Aboobacker Siddeque Juma Masjid","lat":12.509027,"lng":74.971881,"addr":"","type":"place_of_worship"},{"id":"xx139061_746076","name":"Mosque","lat":13.90612,"lng":74.607553,"addr":"","type":"place_of_worship"},{"id":"xx133426_747497","name":"Jamia Masjid","lat":13.342573,"lng":74.749679,"addr":"","type":"place_of_worship"},{"id":"xx124988_749835","name":"HYDROS JUMA MASJID","lat":12.498844,"lng":74.983479,"addr":"Pallam - Nellikkunnu - Kadappuram Road","type":"place_of_worship"},{"id":"xx136590_748848","name":"Badriya juma masjid","lat":13.659038,"lng":74.884781,"addr":"jansale","type":"place_of_worship"},{"id":"xx136727_746979","name":"Islamic place","lat":13.672744,"lng":74.697893,"addr":"","type":"place_of_worship"},{"id":"xx137065_747660","name":"Jumma Masjid","lat":13.706473,"lng":74.766048,"addr":"","type":"place_of_worship"},{"id":"xx133879_747225","name":"Umme Aysha Jamia Masjid","lat":13.387914,"lng":74.722537,"addr":"","type":"place_of_worship"},{"id":"xx134063_747001","name":"Jadeed Jumma Masjid","lat":13.406276,"lng":74.700081,"addr":"","type":"place_of_worship"},{"id":"xx137051_747061","name":"Badriya Juma Masjid","lat":13.705134,"lng":74.706133,"addr":"","type":"place_of_worship"},{"id":"xx126574_749636","name":"Juma Masjid, Kokkachal","lat":12.657444,"lng":74.963564,"addr":"","type":"place_of_worship"},{"id":"xx125693_749521","name":"Salafi Masjid","lat":12.5693,"lng":74.952054,"addr":"Mogral, Kumbala","type":"mosque"},{"id":"xx144453_744062","name":"Islamic place","lat":14.445325,"lng":74.406197,"addr":"","type":"place_of_worship"},{"id":"xx131856_749314","name":"Nitte Masjid","lat":13.185606,"lng":74.931422,"addr":"","type":"place_of_worship"},{"id":"xx136368_746864","name":"Masjid","lat":13.636831,"lng":74.686434,"addr":"Kundapura","type":"yes"},{"id":"xx148479_741345","name":"Shan Shamsuddin Kharobat Dargah","lat":14.847904,"lng":74.134519,"addr":"","type":"place_of_worship"},{"id":"xx128087_749337","name":"Campus Mosque","lat":12.808727,"lng":74.933685,"addr":"","type":"mosque"},{"id":"xx128087_749336","name":"Campus Mosque","lat":12.808697,"lng":74.933649,"addr":"","type":"mosque"},{"id":"xx128617_748215","name":"Masjid","lat":12.861653,"lng":74.821536,"addr":"","type":"yes"},{"id":"xx139938_745502","name":"Noor Masjid","lat":13.993791,"lng":74.550167,"addr":"","type":"yes"},{"id":"xx124845_749893","name":"Malik Deenar Juma Masjid","lat":12.484457,"lng":74.989302,"addr":"Thalangara","type":"place_of_worship"},{"id":"xx125182_749908","name":"Hydrose Juma Masjid","lat":12.518224,"lng":74.990785,"addr":"","type":"yes"},{"id":"xx125189_749938","name":"Masjidul Huda","lat":12.51889,"lng":74.99381,"addr":"","type":"yes"},{"id":"xx128616_748215","name":"Masjid","lat":12.861639,"lng":74.821531,"addr":"","type":"yes"},{"id":"xx124785_749939","name":"Hydrose Mosque","lat":12.47854,"lng":74.993887,"addr":"","type":"yes"},{"id":"xx124844_749893","name":"Malik Deenar Juma Masjid","lat":12.484395,"lng":74.989285,"addr":"Thalangara","type":"place_of_worship"},{"id":"xx125182_749907","name":"Hydrose Juma Masjid","lat":12.518238,"lng":74.990741,"addr":"","type":"yes"},{"id":"xx128777_748294","name":"Jamma Masjid","lat":12.877749,"lng":74.82941,"addr":"","type":"yes"},{"id":"xx130907_747967","name":"Islamic place","lat":13.090676,"lng":74.796731,"addr":"","type":"place_of_worship"},{"id":"xx128078_748785","name":"Yenepoya Masjid","lat":12.80778,"lng":74.878494,"addr":"","type":"yes"},{"id":"xx128096_748787","name":"Zulekha Girls Masjid","lat":12.809552,"lng":74.878745,"addr":"","type":"yes"},{"id":"xx116914_727121","name":"Masjid Purathu Palli","lat":11.691374,"lng":72.712056,"addr":"","type":"mosque"},{"id":"xx116911_727126","name":"Jumma Masjid","lat":11.691061,"lng":72.712567,"addr":"","type":"place_of_worship"},{"id":"xx116910_727126","name":"Jumma Masjid","lat":11.691032,"lng":72.712596,"addr":"","type":"mosque"},{"id":"xx128778_748294","name":"Jamma Masjid","lat":12.877786,"lng":74.829382,"addr":"","type":"yes"},{"id":"xx130907_747966","name":"Islamic place","lat":13.090709,"lng":74.79661,"addr":"","type":"place_of_worship"},{"id":"xx128095_748787","name":"Zulekha Girls Masjid","lat":12.809525,"lng":74.87874,"addr":"","type":"yes"},{"id":"xx116914_727120","name":"Masjid Purathu Palli","lat":11.691354,"lng":72.712049,"addr":"","type":"mosque"},{"id":"xx116911_727125","name":"Jumma Masjid","lat":11.691058,"lng":72.712521,"addr":"","type":"place_of_worship"},{"id":"xx133541_747925","name":"Masjid e Manipal","lat":13.354148,"lng":74.792463,"addr":"manipal","type":"yes"},{"id":"xx133541_747924","name":"Masjid e Manipal","lat":13.354117,"lng":74.792428,"addr":"manipal","type":"yes"},{"id":"xx124966_749861","name":"Khizar Juma Masjid","lat":12.49662,"lng":74.986073,"addr":"","type":"yes"},{"id":"xx126871_749855","name":"paivalike masjid","lat":12.687138,"lng":74.985549,"addr":"","type":"mosque"},{"id":"xx126842_749849","name":"paivalike Juma masjid","lat":12.684213,"lng":74.984897,"addr":"","type":"mosque"},{"id":"xx126745_749884","name":"kondalakkad","lat":12.674534,"lng":74.988402,"addr":"","type":"mosque"},{"id":"xx126761_749889","name":"ahdal nagar masjid","lat":12.676116,"lng":74.98888,"addr":"","type":"mosque"},{"id":"xx126855_749792","name":"Kodiadka salafi masjid","lat":12.685515,"lng":74.979243,"addr":"","type":"mosque"},{"id":"xx126354_749313","name":"Islamic place","lat":12.635436,"lng":74.931277,"addr":"","type":"mosque"},{"id":"xx126892_749766","name":"Islamic place","lat":12.68917,"lng":74.97662,"addr":"","type":"place_of_worship"},{"id":"xx125109_749970","name":"nullipadi masjid","lat":12.510851,"lng":74.997029,"addr":"","type":"mosque"},{"id":"xx128696_749690","name":"Badria Jama Masjid","lat":12.869617,"lng":74.969002,"addr":"","type":"mosque"},{"id":"xx128733_749691","name":"Masjidul Qiler Perimar","lat":12.873263,"lng":74.969147,"addr":"","type":"place_of_worship"},{"id":"xx127517_748824","name":"Kukkaja Jumma Masjid","lat":12.751706,"lng":74.882438,"addr":"","type":"yes"},{"id":"xx127488_748821","name":"Masjidunnoor","lat":12.748769,"lng":74.88206,"addr":"","type":"yes"},{"id":"xx127623_748722","name":"Bilal Sunni Muslims Juma Masjid","lat":12.762329,"lng":74.872154,"addr":"","type":"yes"},{"id":"xx127714_748675","name":"Juma Masjid","lat":12.771379,"lng":74.86753,"addr":"","type":"yes"},{"id":"xx127736_748752","name":"Falah Masjid","lat":12.773578,"lng":74.875164,"addr":"","type":"yes"},{"id":"xx125159_749784","name":"Adkathabail Juma Masjid","lat":12.515856,"lng":74.97838,"addr":"","type":"yes"},{"id":"xx130044_748295","name":"Islamic place","lat":13.004405,"lng":74.829517,"addr":"","type":"grave_yard"},{"id":"xx129922_748136","name":"Eidgah Jumma Masjid","lat":12.992215,"lng":74.813557,"addr":"","type":"yes"},{"id":"xx129917_748143","name":"Islamic place","lat":12.991681,"lng":74.814337,"addr":"","type":"grave_yard"},{"id":"xx129960_748071","name":"Panambur Sunni Masjid","lat":12.995958,"lng":74.807117,"addr":"","type":"yes"},{"id":"xx129983_748151","name":"Islamic place","lat":12.998282,"lng":74.815101,"addr":"","type":"mosque"},{"id":"xx130027_748309","name":"Muhiyuddin Jumma Masjid","lat":13.002652,"lng":74.830936,"addr":"","type":"yes"},{"id":"xx129971_748129","name":"Salafi Masjid","lat":12.997108,"lng":74.812884,"addr":"","type":"yes"},{"id":"xx128719_748451","name":"Idgah Mosque","lat":12.871891,"lng":74.8451,"addr":"","type":"yes"},{"id":"xx128762_748297","name":"Nadupalli Jumma Masjid","lat":12.876199,"lng":74.829667,"addr":"","type":"mosque"},{"id":"xx128704_748319","name":"Kandath Palli Jumma Masjid","lat":12.870442,"lng":74.831898,"addr":"","type":"mosque"},{"id":"xx127623_748721","name":"Bilal Sunni Muslims Juma Masjid","lat":12.762285,"lng":74.872142,"addr":"","type":"yes"},{"id":"xx127713_748675","name":"Juma Masjid","lat":12.771345,"lng":74.867518,"addr":"","type":"yes"},{"id":"xx130045_748295","name":"Islamic place","lat":13.004469,"lng":74.829465,"addr":"","type":"grave_yard"},{"id":"xx129922_748135","name":"Eidgah Jumma Masjid","lat":12.992181,"lng":74.813541,"addr":"","type":"yes"},{"id":"xx129916_748143","name":"Islamic place","lat":12.991613,"lng":74.814325,"addr":"","type":"grave_yard"},{"id":"xx129959_748071","name":"Panambur Sunni Masjid","lat":12.995897,"lng":74.807095,"addr":"","type":"yes"},{"id":"xx130026_748309","name":"Muhiyuddin Jumma Masjid","lat":13.002628,"lng":74.830875,"addr":"","type":"yes"},{"id":"xx130726_748273","name":"Islamic place","lat":13.072588,"lng":74.82727,"addr":"","type":"yes"},{"id":"xx128677_749086","name":"Manala masjid","lat":12.867728,"lng":74.908614,"addr":"","type":"yes"},{"id":"xx128661_749075","name":"badriya juma masjid","lat":12.866094,"lng":74.90753,"addr":"Netravati bridge - Kannur Bypass Road (Proposed)","type":"yes"},{"id":"xx128698_749066","name":"badriya hayatul islam madrasa","lat":12.86977,"lng":74.906642,"addr":"","type":"yes"},{"id":"xx127261_749991","name":"Islamic place","lat":12.726058,"lng":74.999145,"addr":"","type":"mosque"},{"id":"xx134069_747027","name":"Masjid-e-Muawiya bin Abu Sufyan","lat":13.406865,"lng":74.702679,"addr":"","type":"mosque"},{"id":"xx133055_747445","name":"Masjid-e-Halima","lat":13.305503,"lng":74.744467,"addr":"","type":"mosque"},{"id":"xx128523_748555","name":"Jeppu Kuppadi Mosque","lat":12.852311,"lng":74.855507,"addr":"","type":"mosque"},{"id":"xx126575_749636","name":"Islamic place","lat":12.657455,"lng":74.963565,"addr":"","type":"mosque"},{"id":"xx126575_749633","name":"Kokkachal Wafy College","lat":12.657502,"lng":74.963302,"addr":"Kokkachal","type":"college"},{"id":"xx133426_747498","name":"Islamic place","lat":13.342594,"lng":74.749778,"addr":"","type":"yes"},{"id":"xx128687_749071","name":"Salafi masjid","lat":12.868656,"lng":74.907118,"addr":"Ganada bettu road","type":"yes"},{"id":"xx127244_749231","name":"Kadambar Juma Masjid","lat":12.724398,"lng":74.923068,"addr":"","type":"yes"},{"id":"xx127245_749233","name":"Islamic place","lat":12.724484,"lng":74.923285,"addr":"","type":"mosque"},{"id":"xx127260_749991","name":"Islamic place","lat":12.726045,"lng":74.999142,"addr":"","type":"mosque"},{"id":"xx134068_747027","name":"Masjid-e-Muawiya bin Abu Sufyan","lat":13.406841,"lng":74.702671,"addr":"","type":"mosque"},{"id":"xx128686_749071","name":"Salafi masjid","lat":12.868649,"lng":74.907113,"addr":"Ganada bettu road","type":"yes"},{"id":"xx133360_747498","name":"Islamic place","lat":13.335997,"lng":74.749848,"addr":"","type":"grave_yard"},{"id":"xx133359_747498","name":"Islamic place","lat":13.335886,"lng":74.749803,"addr":"","type":"grave_yard"}]