[{"id":"xx125007_801597","name":"கல்பக்கம் மசூதி","lat":12.500731,"lng":80.159717,"addr":"","type":"place_of_worship"},{"id":"xx130736_802751","name":"Governers Bodyguard Mosque","lat":13.073563,"lng":80.275053,"addr":"","type":"place_of_worship"},{"id":"xx130090_801959","name":"Juma Masjid","lat":13.009019,"lng":80.195865,"addr":"","type":"place_of_worship"},{"id":"xx130500_800990","name":"Mosque","lat":13.050045,"lng":80.098966,"addr":"","type":"place_of_worship"},{"id":"xx130683_802178","name":"Azad Nagar Mosque","lat":13.068286,"lng":80.217759,"addr":"","type":"place_of_worship"},{"id":"xx130203_802013","name":"Jumma Masjid","lat":13.020252,"lng":80.201295,"addr":"","type":"place_of_worship"},{"id":"xx127869_802518","name":"Islamic place","lat":12.786859,"lng":80.251838,"addr":"","type":"place_of_worship"},{"id":"xx129753_802586","name":"Masjid e Noor","lat":12.975324,"lng":80.258621,"addr":"","type":"place_of_worship"},{"id":"xx129601_802039","name":"Islamic place","lat":12.960081,"lng":80.203934,"addr":"","type":"place_of_worship"},{"id":"xx129630_802435","name":"Masjid","lat":12.962953,"lng":80.243548,"addr":"","type":"place_of_worship"},{"id":"xx129491_802389","name":"Jumah Mosque","lat":12.949141,"lng":80.23886,"addr":"","type":"mosque"},{"id":"xx129013_802257","name":"Masjidur Rahman","lat":12.901299,"lng":80.225687,"addr":"","type":"mosque"},{"id":"xx132822_802607","name":"Mosque","lat":13.282173,"lng":80.260697,"addr":"","type":"place_of_worship"},{"id":"xx130609_802429","name":"Village Road Mosque","lat":13.060873,"lng":80.242903,"addr":"","type":"place_of_worship"},{"id":"xx125029_801520","name":"pudupattinam mosque","lat":12.502935,"lng":80.152011,"addr":"","type":"place_of_worship"},{"id":"xx130456_802231","name":"Islamic place","lat":13.045602,"lng":80.22308,"addr":"","type":"place_of_worship"},{"id":"xx129688_801467","name":"Jamiya Masjid","lat":12.968801,"lng":80.146697,"addr":"Bazaar Road","type":"place_of_worship"},{"id":"xx129712_801503","name":"Green Mosque","lat":12.971154,"lng":80.150347,"addr":"chennai","type":"place_of_worship"},{"id":"xx130981_802297","name":"CSI St James Church","lat":13.098138,"lng":80.229716,"addr":"","type":"place_of_worship"},{"id":"xx128615_800757","name":"Urapakkam Masjid (Urapakkam Mosque)","lat":12.861466,"lng":80.075673,"addr":"Senthil Nagar, Urapakkam","type":"place_of_worship"},{"id":"xx131057_800980","name":"Islamic place","lat":13.105703,"lng":80.097994,"addr":"","type":"place_of_worship"},{"id":"xx129290_801272","name":"Islamic place","lat":12.928985,"lng":80.127168,"addr":"","type":"place_of_worship"},{"id":"xx129261_801485","name":"Vallal Yusuf nagar mosque","lat":12.926075,"lng":80.148519,"addr":"","type":"place_of_worship"},{"id":"xx131205_800644","name":"Pattabiram Mosque","lat":13.120541,"lng":80.064434,"addr":"","type":"place_of_worship"},{"id":"xx129363_801569","name":"Islamic place","lat":12.936343,"lng":80.156887,"addr":"","type":"place_of_worship"},{"id":"xx130299_802228","name":"Dharga","lat":13.029866,"lng":80.22281,"addr":"Vandiakran Street","type":"place_of_worship"},{"id":"xx130911_802275","name":"Madina Mosque","lat":13.09114,"lng":80.227543,"addr":"","type":"place_of_worship"},{"id":"xx130974_802553","name":"Islamic place","lat":13.097389,"lng":80.25529,"addr":"","type":"place_of_worship"},{"id":"xx130660_802754","name":"Dargah Hazrath Syed Akbar Ali Shah Khaderi Rah","lat":13.065965,"lng":80.275447,"addr":"","type":"place_of_worship"},{"id":"xx130646_802782","name":"Masjid d Qudusia","lat":13.064564,"lng":80.278236,"addr":"","type":"place_of_worship"},{"id":"xx130392_802564","name":"Peace Academy Chennai","lat":13.039242,"lng":80.256357,"addr":"Murrays Gate Road","type":"school"},{"id":"xx130235_802125","name":"Masjid-E-Hameediya","lat":13.023476,"lng":80.212458,"addr":"Munusamy St, Sarathy Nagar, Saidapet, Chennai, Tamil Nadu 600015","type":"place_of_worship"},{"id":"xx130293_802117","name":"Masjid -E- Taqwa","lat":13.029257,"lng":80.211694,"addr":"Shop No. 11, Muslim Welfare Association 133, Lake View Road, 123, Erikarai St, West Jafferkhanpet, Chennai, Tamil Nadu 600083","type":"place_of_worship"},{"id":"xx130504_802127","name":"Masjid E Haqqani","lat":13.050406,"lng":80.212684,"addr":"Arcot Rd, Sarvamangala Colony, Vadapalani, Chennai, Tamil Nadu 600026","type":"place_of_worship"},{"id":"xx130842_802560","name":"Aysha Masjid","lat":13.084203,"lng":80.256048,"addr":"","type":"place_of_worship"},{"id":"xx130222_802313","name":"Government Quarter Mosque","lat":13.02224,"lng":80.231286,"addr":"","type":"place_of_worship"},{"id":"xx131013_802939","name":"Islamic place","lat":13.101289,"lng":80.2939,"addr":"","type":"mosque"},{"id":"xx130150_802088","name":"Masjid ul mubarak","lat":13.015029,"lng":80.208817,"addr":"Labor Colony Road","type":"place_of_worship"},{"id":"xx129726_802079","name":"مسجد ہادی","lat":12.972649,"lng":80.207945,"addr":"Chennai","type":"place_of_worship"},{"id":"xx131863_803168","name":"Masjidhe Mubarak and Madarasa","lat":13.186312,"lng":80.316803,"addr":"","type":"place_of_worship"},{"id":"xx136387_801356","name":"Venadu Dharga","lat":13.638696,"lng":80.135594,"addr":"","type":"place_of_worship"},{"id":"xx130526_802664","name":"Burial Ground","lat":13.05264,"lng":80.266367,"addr":"","type":"mosque"},{"id":"xx131133_802835","name":"Islamic place","lat":13.113325,"lng":80.283532,"addr":"","type":"mosque"},{"id":"xx130638_802722","name":"Islamic place","lat":13.063785,"lng":80.272157,"addr":"","type":"mosque"},{"id":"xx130637_802729","name":"Islamic place","lat":13.063674,"lng":80.272948,"addr":"","type":"mosque"},{"id":"xx130629_802756","name":"Islamic place","lat":13.062865,"lng":80.27561,"addr":"","type":"place_of_worship"},{"id":"xx127867_802519","name":"Islamic place","lat":12.786669,"lng":80.251856,"addr":"","type":"place_of_worship"},{"id":"xx130847_802701","name":"Periamet Masjid","lat":13.084684,"lng":80.270125,"addr":"Raja Muthiah Road","type":"yes"},{"id":"xx130810_802724","name":"Siddique Sarai","lat":13.081049,"lng":80.272401,"addr":"","type":"place_of_worship"},{"id":"xx130479_802748","name":"Islamic place","lat":13.047933,"lng":80.27484,"addr":"","type":"place_of_worship"},{"id":"xx130590_802718","name":"Islamic place","lat":13.05904,"lng":80.271771,"addr":"","type":"place_of_worship"},{"id":"xx130633_802689","name":"Islamic place","lat":13.063285,"lng":80.268944,"addr":"","type":"place_of_worship"},{"id":"xx130281_802349","name":"Nawab Fazeelathunnisa Begum Sahiba Masjid","lat":13.028136,"lng":80.234887,"addr":"","type":"place_of_worship"},{"id":"xx130549_802551","name":"Thousand Lights Mosque","lat":13.054932,"lng":80.255089,"addr":"","type":"place_of_worship"},{"id":"xx131095_802812","name":"The Cutchi Memon Masjid","lat":13.109461,"lng":80.281191,"addr":"","type":"place_of_worship"},{"id":"xx130531_802734","name":"Islamic place","lat":13.053127,"lng":80.273422,"addr":"","type":"place_of_worship"},{"id":"xx130664_802679","name":"Islamic place","lat":13.066376,"lng":80.26786,"addr":"","type":"place_of_worship"},{"id":"xx130665_802676","name":"Makkah Mosque","lat":13.066467,"lng":80.267628,"addr":"","type":"yes"},{"id":"xx129988_802565","name":"Kurasani Peer Masjid","lat":12.998799,"lng":80.256472,"addr":"","type":"mosque"},{"id":"xx130202_802187","name":"Nawab Sadatullah Khan's Jumma Masjid","lat":13.020237,"lng":80.218706,"addr":"","type":"yes"},{"id":"xx130525_802664","name":"Burial Ground","lat":13.052523,"lng":80.266358,"addr":"","type":"mosque"},{"id":"xx131129_802834","name":"Islamic place","lat":13.112878,"lng":80.283363,"addr":"","type":"mosque"},{"id":"xx130637_802722","name":"Islamic place","lat":13.063736,"lng":80.272157,"addr":"","type":"mosque"},{"id":"xx130810_802723","name":"Siddique Sarai","lat":13.081037,"lng":80.272324,"addr":"","type":"place_of_worship"},{"id":"xx130590_802717","name":"Islamic place","lat":13.059046,"lng":80.271697,"addr":"","type":"place_of_worship"},{"id":"xx130549_802550","name":"Thousand Lights Mosque","lat":13.054941,"lng":80.25504,"addr":"","type":"place_of_worship"},{"id":"xx131095_802811","name":"The Cutchi Memon Masjid","lat":13.109474,"lng":80.281142,"addr":"","type":"place_of_worship"},{"id":"xx130663_802678","name":"Islamic place","lat":13.066303,"lng":80.267772,"addr":"","type":"place_of_worship"},{"id":"xx130202_802186","name":"Nawab Sadatullah Khan's Jumma Masjid","lat":13.020184,"lng":80.218641,"addr":"","type":"yes"},{"id":"xx130789_801711","name":"Islamic place","lat":13.07894,"lng":80.171067,"addr":"","type":"mosque"},{"id":"xx131133_802165","name":"Masjid Nooriya","lat":13.113329,"lng":80.216455,"addr":"","type":"yes"},{"id":"xx130544_802664","name":"Islamic place","lat":13.054399,"lng":80.266446,"addr":"","type":"yes"},{"id":"xx130391_802312","name":"Jamia Masjid (Shafi'i)","lat":13.039147,"lng":80.231245,"addr":"","type":"mosque"},{"id":"xx130638_801690","name":"Islamic place","lat":13.063817,"lng":80.168952,"addr":"","type":"mosque"},{"id":"xx130759_802697","name":"Masjid Osmaina","lat":13.075926,"lng":80.269664,"addr":"","type":"yes"},{"id":"xx129631_802570","name":"பாலவாக்கம் மசூதி","lat":12.963107,"lng":80.257044,"addr":"","type":"yes"},{"id":"xx130879_802311","name":"Oruma House","lat":13.087885,"lng":80.231148,"addr":"Palliarasan St, Near Kilpauk Water Tank","type":"mosque"},{"id":"xx129397_801540","name":"Islamic place","lat":12.939677,"lng":80.154037,"addr":"","type":"yes"},{"id":"xx130257_802272","name":"Dastageer Sahib Jamia Masjid","lat":13.025657,"lng":80.227202,"addr":"","type":"yes"},{"id":"xx129496_802324","name":"Masjid Al Vilaya","lat":12.949645,"lng":80.23241,"addr":"Pallavaram Thuraipakkam Radial Road","type":"yes"},{"id":"xx130638_801689","name":"Islamic place","lat":13.063756,"lng":80.168947,"addr":"","type":"mosque"},{"id":"xx129396_801540","name":"Islamic place","lat":12.939649,"lng":80.154031,"addr":"","type":"yes"},{"id":"xx130256_802272","name":"Dastageer Sahib Jamia Masjid","lat":13.02563,"lng":80.227199,"addr":"","type":"yes"},{"id":"xx130278_802345","name":"Islamic place","lat":13.027804,"lng":80.234474,"addr":"","type":"grave_yard"},{"id":"xx137286_801671","name":"Islamic place","lat":13.728629,"lng":80.167052,"addr":"","type":"yes"},{"id":"xx122658_800104","name":"Islamic place","lat":12.26582,"lng":80.010379,"addr":"","type":"place_of_worship"},{"id":"xx130361_801569","name":"Masjid-e-Mohammadia","lat":13.03614,"lng":80.156862,"addr":"Arcot Road, Porur","type":"yes"},{"id":"xx130361_801568","name":"Masjid-e-Mohammadia","lat":13.036143,"lng":80.156843,"addr":"Arcot Road, Porur","type":"yes"},{"id":"xx129782_801941","name":"CSI St. James Church","lat":12.978184,"lng":80.194118,"addr":"Medavakkam Main Road","type":"yes"},{"id":"xx134162_803176","name":"Big Jamia Masjid","lat":13.416226,"lng":80.317627,"addr":"","type":"yes"},{"id":"xx128848_802087","name":"Masjidul Akbar","lat":12.884757,"lng":80.208743,"addr":"","type":"yes"},{"id":"xx128716_802156","name":"Islamic place","lat":12.871645,"lng":80.215642,"addr":"","type":"yes"},{"id":"xx131061_802956","name":"Mufaddal Park Bohra Masjid","lat":13.106058,"lng":80.295587,"addr":"","type":"yes"},{"id":"xx129668_801676","name":"Islamic place","lat":12.96684,"lng":80.167566,"addr":"","type":"place_of_worship"},{"id":"xx129666_801677","name":"Dargah","lat":12.966591,"lng":80.167672,"addr":"","type":"place_of_worship"},{"id":"xx129662_801678","name":"Islamic place","lat":12.966172,"lng":80.167764,"addr":"","type":"mosque"},{"id":"xx130637_802726","name":"Triplicane Big Wallajah Mosque","lat":13.06366,"lng":80.27262,"addr":"","type":"place_of_worship"},{"id":"xx130555_802717","name":"Triplican Lebbai Mosque","lat":13.055528,"lng":80.27174,"addr":"ponnapan street","type":"mosque"},{"id":"xx130626_802755","name":"Islamic place","lat":13.062557,"lng":80.275513,"addr":"","type":"place_of_worship"},{"id":"xx130915_802902","name":"Saifee Mosque","lat":13.091516,"lng":80.290211,"addr":"","type":"yes"},{"id":"xx131123_802777","name":"Madarsa Dawathul Huda","lat":13.112349,"lng":80.277659,"addr":"","type":"yes"},{"id":"xx130945_802901","name":"Mamoor Mosque","lat":13.094471,"lng":80.290121,"addr":"","type":"place_of_worship"},{"id":"xx130964_802872","name":"Maqdoomi Mosque","lat":13.096381,"lng":80.28716,"addr":"","type":"yes"},{"id":"xx130254_802409","name":"Ayesha Mosque","lat":13.025396,"lng":80.240893,"addr":"","type":"yes"},{"id":"xx130037_802727","name":"Masjid Allah","lat":13.00374,"lng":80.272742,"addr":"","type":"yes"},{"id":"xx131022_802918","name":"Islamic place","lat":13.102173,"lng":80.291792,"addr":"","type":"yes"},{"id":"xx130974_802907","name":"Ashraf Mosque","lat":13.097356,"lng":80.290735,"addr":"","type":"yes"},{"id":"xx131008_802918","name":"Edgah Mosque","lat":13.100755,"lng":80.291849,"addr":"","type":"yes"},{"id":"xx131020_802882","name":"George Town Mosque","lat":13.10204,"lng":80.288166,"addr":"","type":"yes"},{"id":"xx130904_802841","name":"Memon Mosque","lat":13.090414,"lng":80.284077,"addr":"","type":"yes"},{"id":"xx130904_802822","name":"Godown Street Mosque","lat":13.090417,"lng":80.282162,"addr":"","type":"yes"},{"id":"xx131040_802845","name":"E Islah Sazan Mosque","lat":13.103954,"lng":80.284534,"addr":"","type":"yes"},{"id":"xx130967_802850","name":"Mualla Mosque","lat":13.096654,"lng":80.284964,"addr":"","type":"yes"},{"id":"xx131060_802956","name":"Mufaddal Park Bohra Masjid","lat":13.106045,"lng":80.295584,"addr":"","type":"yes"},{"id":"xx129669_801675","name":"Islamic place","lat":12.966853,"lng":80.167548,"addr":"","type":"place_of_worship"},{"id":"xx130625_802755","name":"Islamic place","lat":13.062517,"lng":80.275513,"addr":"","type":"place_of_worship"},{"id":"xx130966_802849","name":"Mualla Mosque","lat":13.096623,"lng":80.284932,"addr":"","type":"yes"},{"id":"xx130528_802277","name":"Masjid Mahmood","lat":13.052768,"lng":80.227732,"addr":"UI Colony 1st Main Road","type":"yes"},{"id":"xx130527_802277","name":"Masjid Mahmood","lat":13.052742,"lng":80.227726,"addr":"UI Colony 1st Main Road","type":"yes"},{"id":"xx128227_800436","name":"Mosque & Church","lat":12.822742,"lng":80.043638,"addr":"","type":"yes"},{"id":"xx126227_801943","name":"Masjid-e-noor Jumma","lat":12.622673,"lng":80.194338,"addr":"","type":"yes"},{"id":"xx126226_801943","name":"Masjid-e-noor Jumma","lat":12.622645,"lng":80.194331,"addr":"","type":"yes"}]