[{"id":"xx151465_1209772","name":"Islamic place","lat":15.146481,"lng":120.977226,"addr":"","type":"place_of_worship"},{"id":"xx182953_1214391","name":"Saint James Parish Church","lat":18.29531,"lng":121.439103,"addr":"","type":"place_of_worship"},{"id":"xx168486_1216562","name":"Iglesia Ni Cristo Lokal ng Amistad","lat":16.848598,"lng":121.656153,"addr":"","type":"mosque"},{"id":"xx150184_1205776","name":"Al-Ihsan Islamic Center","lat":15.018361,"lng":120.577644,"addr":"Guagua-Santa Rita-Porac Road","type":"place_of_worship"},{"id":"xx166889_1215538","name":"Islamic place","lat":16.688874,"lng":121.553793,"addr":"","type":"place_of_worship"},{"id":"xx183334_1206192","name":"St James Parish Church","lat":18.333378,"lng":120.619238,"addr":"Pasuquin","type":"yes"},{"id":"xx166877_1215442","name":"Cathedral of Saint James the Greater","lat":16.687711,"lng":121.544203,"addr":"","type":"cathedral"},{"id":"xx175958_1206172","name":"St. James the Elder Cathedral","lat":17.595765,"lng":120.617215,"addr":"Bangued","type":"cathedral"},{"id":"xx166924_1215479","name":"St. James Parish Church","lat":16.692373,"lng":121.547938,"addr":"","type":"place_of_worship"},{"id":"xx175957_1206171","name":"St. James the Elder Cathedral","lat":17.5957,"lng":120.617142,"addr":"Bangued","type":"cathedral"},{"id":"xx150083_1205670","name":"Arrahman Mosque","lat":15.008281,"lng":120.567001,"addr":"San Vicente Road","type":"mosque"},{"id":"xx164157_1205883","name":"Baguio Grand Mosque (Al Maarif Mosque)","lat":16.415652,"lng":120.588288,"addr":"","type":"yes"},{"id":"xx160872_1203523","name":"Islamic place","lat":16.087181,"lng":120.352267,"addr":"","type":"mosque"},{"id":"xx160202_1203444","name":"Mosque","lat":16.020206,"lng":120.344437,"addr":"","type":"mosque"},{"id":"xx164156_1205883","name":"Baguio Grand Mosque (Al Maarif Mosque)","lat":16.415636,"lng":120.588281,"addr":"","type":"yes"},{"id":"xx160872_1203522","name":"Islamic place","lat":16.087166,"lng":120.352238,"addr":"","type":"mosque"},{"id":"xx183336_1206174","name":"Independent Church of Filipino Christians, Parish of St. James","lat":18.333566,"lng":120.617352,"addr":"","type":"yes"},{"id":"xx183335_1206173","name":"Independent Church of Filipino Christians, Parish of St. James","lat":18.333546,"lng":120.617347,"addr":"","type":"yes"},{"id":"xx152882_1200846","name":"Botolan Cemetry","lat":15.288248,"lng":120.084631,"addr":"","type":"mosque"},{"id":"xx152012_1206944","name":"Islamic place","lat":15.201246,"lng":120.694351,"addr":"","type":"mosque"},{"id":"xx150436_1205387","name":"As Salam Mosque","lat":15.043584,"lng":120.538693,"addr":"","type":"mosque"},{"id":"xx151162_1205642","name":"Darul Iman Masjid","lat":15.116216,"lng":120.564247,"addr":"","type":"mosque"},{"id":"xx164872_1211590","name":"Prayer Room","lat":16.487154,"lng":121.158991,"addr":"","type":"yes"},{"id":"xx165219_1211778","name":"Masjid Darussalam","lat":16.521942,"lng":121.17781,"addr":"","type":"mosque"},{"id":"xx165219_1211781","name":"New Dalton High School","lat":16.521853,"lng":121.178126,"addr":"","type":"school"},{"id":"xx152013_1206943","name":"Islamic place","lat":15.201315,"lng":120.694337,"addr":"","type":"place_of_worship"},{"id":"xx152881_1200842","name":"Botolan Cemetry","lat":15.28812,"lng":120.084187,"addr":"","type":"mosque"},{"id":"xx164871_1211590","name":"Prayer Room","lat":16.487148,"lng":121.158988,"addr":"","type":"yes"},{"id":"xx165218_1211779","name":"New Dalton High School","lat":16.521844,"lng":121.17794,"addr":"","type":"school"},{"id":"xx153326_1206387","name":"James the Great Chapel","lat":15.332605,"lng":120.638676,"addr":"","type":"chapel"},{"id":"xx156743_1205869","name":"Islamic place","lat":15.674331,"lng":120.586903,"addr":"","type":"yes"},{"id":"xx177964_1204480","name":"Darol Imam Mosque","lat":17.796421,"lng":120.448032,"addr":"","type":"yes"},{"id":"xx163997_1205778","name":"Mahad Luzon Al-Islami Center, Inc.","lat":16.399709,"lng":120.577789,"addr":"Pinewood Street","type":"place_of_worship"},{"id":"xx163998_1205777","name":"Islamic place","lat":16.399752,"lng":120.577736,"addr":"","type":"mosque"},{"id":"xx160952_1203638","name":"Islamic place","lat":16.095176,"lng":120.363837,"addr":"","type":"mosque"},{"id":"xx158566_1206446","name":"Masjid Um Ali Mosque","lat":15.856597,"lng":120.644634,"addr":"","type":"mosque"},{"id":"xx181310_1205273","name":"Islamic place","lat":18.130973,"lng":120.527273,"addr":"","type":"mosque"},{"id":"xx177023_1204397","name":"Islamic place","lat":17.702255,"lng":120.439719,"addr":"","type":"place_of_worship"},{"id":"xx177022_1204397","name":"Islamic place","lat":17.702181,"lng":120.439685,"addr":"","type":"place_of_worship"}]