[{"id":"xx182879_1094713","name":"南开清真寺","lat":18.287921,"lng":109.471273,"addr":"","type":"mosque"},{"id":"xx183016_1094416","name":"清真东寺","lat":18.301583,"lng":109.441617,"addr":"","type":"yes"},{"id":"xx182845_1094719","name":"清真南寺","lat":18.284509,"lng":109.471894,"addr":"","type":"yes"},{"id":"xx183015_1094416","name":"清真东寺","lat":18.301545,"lng":109.441617,"addr":"","type":"yes"},{"id":"xx182881_1094719","name":"南开清真寺","lat":18.288099,"lng":109.471853,"addr":"","type":"mosque"},{"id":"xx183033_1094407","name":"清真北大寺","lat":18.303308,"lng":109.440703,"addr":"","type":"yes"},{"id":"xx183047_1094448","name":"清真古寺","lat":18.304715,"lng":109.444759,"addr":"","type":"place_of_worship"},{"id":"xx182880_1094717","name":"南开清真寺","lat":18.287983,"lng":109.471664,"addr":"","type":"mosque"},{"id":"xx183047_1094446","name":"Islamic place","lat":18.304702,"lng":109.44462,"addr":"","type":"yes"}]