[{"id":"xx172479_801403","name":"Jama masjid","lat":17.247852,"lng":80.140338,"addr":"","type":"place_of_worship"},{"id":"xx172465_801444","name":"Killa Masjid","lat":17.246522,"lng":80.144424,"addr":"","type":"place_of_worship"},{"id":"xx172552_801416","name":"Masjid","lat":17.255177,"lng":80.141634,"addr":"","type":"place_of_worship"},{"id":"xx172425_801496","name":"Tummalagadda Masjid","lat":17.242547,"lng":80.149636,"addr":"","type":"place_of_worship"},{"id":"xx172475_801483","name":"Nizampet Masjid","lat":17.24747,"lng":80.148324,"addr":"","type":"place_of_worship"},{"id":"xx172437_801462","name":"Tabellah Masjid","lat":17.243691,"lng":80.146226,"addr":"Shivalayam road","type":"place_of_worship"},{"id":"xx172446_801487","name":"mominan","lat":17.244614,"lng":80.148686,"addr":"","type":"place_of_worship"},{"id":"xx172349_801520","name":"Hussaini","lat":17.234911,"lng":80.151975,"addr":"","type":"place_of_worship"},{"id":"xx172465_801421","name":"Islamic place","lat":17.246467,"lng":80.142115,"addr":"","type":"place_of_worship"},{"id":"xx172610_801488","name":"Makka Masjid","lat":17.261016,"lng":80.148767,"addr":"Khammam Bypass","type":"place_of_worship"},{"id":"xx172498_801323","name":"Moti Masjid","lat":17.249792,"lng":80.132338,"addr":"","type":"place_of_worship"},{"id":"xx172657_801574","name":"Hussain","lat":17.265697,"lng":80.157423,"addr":"","type":"place_of_worship"},{"id":"xx172386_801398","name":"Bethany Evangelical Church Prayer Hall","lat":17.238646,"lng":80.139754,"addr":"","type":"place_of_worship"},{"id":"xx172424_801417","name":"Islamic place","lat":17.242399,"lng":80.141659,"addr":"","type":"place_of_worship"},{"id":"xx157855_803050","name":"Chinna masjid","lat":15.78546,"lng":80.304981,"addr":"","type":"place_of_worship"},{"id":"xx168415_816873","name":"Village Mosque","lat":16.841519,"lng":81.687339,"addr":"","type":"place_of_worship"},{"id":"xx193072_847822","name":"Islamic place","lat":19.307197,"lng":84.782193,"addr":"","type":"grave_yard"},{"id":"xx172671_800809","name":"Arempula Darga","lat":17.267126,"lng":80.080913,"addr":"","type":"place_of_worship"},{"id":"xx165813_820048","name":"Islamic place","lat":16.581317,"lng":82.004792,"addr":"","type":"place_of_worship"},{"id":"xx170026_817765","name":"Muslim Burial Ground","lat":17.002608,"lng":81.776483,"addr":"","type":"grave_yard"},{"id":"xx170211_817968","name":"Calwary Mukthi Prayer Hall","lat":17.0211,"lng":81.796767,"addr":"","type":"place_of_worship"},{"id":"xx170336_817846","name":"The Salvation Army Prayer Hall","lat":17.033582,"lng":81.784639,"addr":"","type":"place_of_worship"},{"id":"xx169852_817828","name":"Khadari Mosque","lat":16.985167,"lng":81.78277,"addr":"","type":"place_of_worship"},{"id":"xx169909_817790","name":"Darga","lat":16.990929,"lng":81.778971,"addr":"","type":"place_of_worship"},{"id":"xx170006_817709","name":"Royal Mosque","lat":17.000647,"lng":81.770949,"addr":"","type":"place_of_worship"},{"id":"xx170016_817824","name":"Masjid","lat":17.001634,"lng":81.782384,"addr":"","type":"place_of_worship"},{"id":"xx170037_817675","name":"Ha Garath Gholen Oliyobaba Gari Darga","lat":17.003744,"lng":81.767479,"addr":"","type":"place_of_worship"},{"id":"xx170046_817818","name":"Masjid","lat":17.00456,"lng":81.781802,"addr":"","type":"place_of_worship"},{"id":"xx170046_817708","name":"Dal Galli Masjid","lat":17.004648,"lng":81.770846,"addr":"","type":"place_of_worship"},{"id":"xx170052_817714","name":"Hagarath Sayyad Abdul Khadir Gilani Gouse","lat":17.005241,"lng":81.771392,"addr":"","type":"place_of_worship"},{"id":"xx170054_817703","name":"Gaje Sayyad Ababkar Sha Masjid","lat":17.005404,"lng":81.770292,"addr":"","type":"place_of_worship"},{"id":"xx170062_817791","name":"Gumshaeed Durga","lat":17.006218,"lng":81.779147,"addr":"","type":"place_of_worship"},{"id":"xx170065_817769","name":"Lababin Line Mosque, Ahalesunnathwal Jamat","lat":17.006518,"lng":81.776924,"addr":"","type":"place_of_worship"},{"id":"xx170075_817759","name":"Mosque","lat":17.007502,"lng":81.775897,"addr":"","type":"place_of_worship"},{"id":"xx170129_817864","name":"Bilal Shadikhana","lat":17.01289,"lng":81.786404,"addr":"","type":"place_of_worship"},{"id":"xx170154_817870","name":"Mosque","lat":17.015436,"lng":81.787049,"addr":"","type":"place_of_worship"},{"id":"xx181116_834127","name":"Hazarat Baba Masjid","lat":18.111603,"lng":83.412746,"addr":"","type":"place_of_worship"},{"id":"xx165368_806416","name":"Noor-e-Islam Mohalla Masjid","lat":16.536753,"lng":80.641621,"addr":"Azith Singh Nagar","type":"place_of_worship"},{"id":"xx165381_806404","name":"Rizwan Masjid","lat":16.538117,"lng":80.640383,"addr":"","type":"place_of_worship"},{"id":"xx164310_805665","name":"Jamia Masjid","lat":16.431041,"lng":80.566451,"addr":"Massed Road","type":"place_of_worship"},{"id":"xx167758_802892","name":"Islamic place","lat":16.775827,"lng":80.289162,"addr":"","type":"place_of_worship"},{"id":"xx172434_801101","name":"Masjid","lat":17.243378,"lng":80.110052,"addr":"","type":"mosque"},{"id":"xx163576_805315","name":"Chinna masjid","lat":16.35761,"lng":80.531535,"addr":"","type":"place_of_worship"},{"id":"xx165190_806153","name":"Masjid","lat":16.518986,"lng":80.615338,"addr":"","type":"place_of_worship"},{"id":"xx165208_806141","name":"Masjid (mosque)","lat":16.520814,"lng":80.614089,"addr":"","type":"mosque"},{"id":"xx165148_806313","name":"Masjid E Mehroon r","lat":16.514837,"lng":80.631336,"addr":"Rahman Street","type":"place_of_worship"},{"id":"xx169731_822258","name":"Masjid E Maimuna","lat":16.973061,"lng":82.225785,"addr":"Pratap Nagar","type":"place_of_worship"},{"id":"xx163064_804241","name":"masjith","lat":16.306361,"lng":80.424133,"addr":"","type":"wayside_shrine"},{"id":"xx163979_806260","name":"Masjid","lat":16.397919,"lng":80.626,"addr":"masjid centre","type":"place_of_worship"},{"id":"xx170752_809890","name":"Masjid","lat":17.075223,"lng":80.989002,"addr":"","type":"place_of_worship"},{"id":"xx162325_800580","name":"Islampet mosque","lat":16.232497,"lng":80.05803,"addr":"","type":"place_of_worship"},{"id":"xx162433_800533","name":"Masjid","lat":16.24326,"lng":80.053264,"addr":"","type":"place_of_worship"},{"id":"xx162270_800418","name":"Ali Murtaza Masjid","lat":16.227005,"lng":80.041804,"addr":"Bapanayya Nagar,, Salem Nagar, Narasaraopet, Andhra Pradesh 522601","type":"place_of_worship"},{"id":"xx164474_806103","name":"Kotha masjid","lat":16.447372,"lng":80.610295,"addr":"","type":"place_of_worship"},{"id":"xx164476_806102","name":"Masjideahlehadis","lat":16.447599,"lng":80.61015,"addr":"Masjid road","type":"place_of_worship"},{"id":"xx164846_806207","name":"Maszid E Usman","lat":16.484569,"lng":80.620744,"addr":"","type":"place_of_worship"},{"id":"xx176897_832859","name":"Haji Aboosarang Mosque","lat":17.689688,"lng":83.285934,"addr":"","type":"mosque"},{"id":"xx171033_800536","name":"Masjid, Nelakondapalli","lat":17.103344,"lng":80.053632,"addr":"","type":"place_of_worship"},{"id":"xx175536_806197","name":"Masjid E Ahle Hadees, Abu ubaidah bin Jarrah","lat":17.553635,"lng":80.619657,"addr":"","type":"place_of_worship"},{"id":"xx171790_800964","name":"Masjid - Mudigonda","lat":17.179018,"lng":80.096398,"addr":"","type":"place_of_worship"},{"id":"xx172500_801530","name":"Masjid E Firdous","lat":17.249999,"lng":80.153036,"addr":"","type":"place_of_worship"},{"id":"xx163062_804209","name":"Masjid","lat":16.306229,"lng":80.420853,"addr":"","type":"place_of_worship"},{"id":"xx176806_832922","name":"Yarada masjid","lat":17.680641,"lng":83.29216,"addr":"","type":"mosque"},{"id":"xx160179_808254","name":"Islamic place","lat":16.017863,"lng":80.825362,"addr":"","type":"place_of_worship"},{"id":"xx172420_801500","name":"Islamic place","lat":17.241975,"lng":80.150037,"addr":"","type":"grave_yard"},{"id":"xx162975_804663","name":"Islamic place","lat":16.297517,"lng":80.466255,"addr":"","type":"place_of_worship"},{"id":"xx162980_804682","name":"Islamic place","lat":16.297974,"lng":80.468176,"addr":"","type":"place_of_worship"},{"id":"xx162343_806401","name":"Mosque","lat":16.234276,"lng":80.640066,"addr":"","type":"place_of_worship"},{"id":"xx165271_806471","name":"Masjid","lat":16.527147,"lng":80.647061,"addr":"","type":"place_of_worship"},{"id":"xx183864_816528","name":"हज़रत कमलिशाह दरगाह, सुकमा","lat":18.38644,"lng":81.652817,"addr":"","type":"mosque"},{"id":"xx183963_816583","name":"Zama Maszid Minar","lat":18.39633,"lng":81.658277,"addr":"","type":"mosque"},{"id":"xx183945_816608","name":"हजरत मस्तान अली शाह दरगाह, सुकमा","lat":18.39446,"lng":81.660796,"addr":"","type":"yes"},{"id":"xx183964_816582","name":"जामा मस्जिद, सुकमा","lat":18.39637,"lng":81.658206,"addr":"","type":"place_of_worship"},{"id":"xx185257_817528","name":"जामा मस्जिद छिंदगढ़","lat":18.52571,"lng":81.752784,"addr":"","type":"mosque"},{"id":"xx184020_816615","name":"ईदगाह, सुकमा","lat":18.402025,"lng":81.661523,"addr":"","type":"place_of_worship"},{"id":"xx188899_813467","name":"ज़ामा मस्जिद","lat":18.889883,"lng":81.346652,"addr":"","type":"mosque"},{"id":"xx160117_808445","name":"darga","lat":16.011733,"lng":80.844531,"addr":"","type":"place_of_worship"},{"id":"xx177452_832368","name":"Islamic place","lat":17.745172,"lng":83.236766,"addr":"","type":"place_of_worship"},{"id":"xx182943_838995","name":"Juma Masjid","lat":18.294298,"lng":83.8995,"addr":"","type":"place_of_worship"},{"id":"xx176017_807004","name":"Islamic place","lat":17.601748,"lng":80.7004,"addr":"","type":"place_of_worship"},{"id":"xx185509_822061","name":"Zama Maszid","lat":18.550892,"lng":82.206148,"addr":"","type":"place_of_worship"},{"id":"xx168688_807309","name":"Islamic place","lat":16.868791,"lng":80.730868,"addr":"","type":"place_of_worship"},{"id":"xx172385_801780","name":"Masjid","lat":17.238473,"lng":80.177998,"addr":"","type":"place_of_worship"},{"id":"xx169996_805203","name":"Masjid","lat":16.999587,"lng":80.520291,"addr":"","type":"place_of_worship"},{"id":"xx165023_806384","name":"Islamic place","lat":16.502291,"lng":80.638447,"addr":"","type":"place_of_worship"},{"id":"xx177489_832194","name":"Taha Masjid","lat":17.748887,"lng":83.219389,"addr":"","type":"place_of_worship"},{"id":"xx165260_805942","name":"Masid","lat":16.526017,"lng":80.594204,"addr":"Swathi Road","type":"place_of_worship"},{"id":"xx162979_804568","name":"Islamic place","lat":16.297898,"lng":80.45675,"addr":"","type":"place_of_worship"},{"id":"xx163005_804587","name":"Islamic place","lat":16.300535,"lng":80.458747,"addr":"","type":"place_of_worship"},{"id":"xx158171_801062","name":"Islamic place","lat":15.817114,"lng":80.106191,"addr":"","type":"place_of_worship"},{"id":"xx161976_802770","name":"Islamic place","lat":16.197558,"lng":80.277023,"addr":"","type":"place_of_worship"},{"id":"xx164093_806214","name":"Islamic place","lat":16.409252,"lng":80.621363,"addr":"","type":"place_of_worship"},{"id":"xx165134_807070","name":"Masjid-E-Mohamadia","lat":16.513406,"lng":80.707037,"addr":"","type":"place_of_worship"},{"id":"xx165372_806367","name":"Islamic place","lat":16.537158,"lng":80.636678,"addr":"","type":"place_of_worship"},{"id":"xx178241_832040","name":"Islamic place","lat":17.824133,"lng":83.204024,"addr":"","type":"place_of_worship"},{"id":"xx177407_832487","name":"Islamic place","lat":17.74073,"lng":83.248658,"addr":"","type":"place_of_worship"},{"id":"xx164770_805719","name":"Islamic place","lat":16.476971,"lng":80.571859,"addr":"","type":"place_of_worship"},{"id":"xx164769_805719","name":"Islamic place","lat":16.476941,"lng":80.571918,"addr":"","type":"place_of_worship"},{"id":"xx159046_804716","name":"Masjid","lat":15.904601,"lng":80.471628,"addr":"","type":"place_of_worship"},{"id":"xx163052_805132","name":"Islamic place","lat":16.305227,"lng":80.513187,"addr":"","type":"place_of_worship"},{"id":"xx162782_804382","name":"Islamic place","lat":16.278197,"lng":80.438172,"addr":"","type":"place_of_worship"},{"id":"xx162837_804409","name":"Islamic place","lat":16.283679,"lng":80.440865,"addr":"","type":"place_of_worship"},{"id":"xx162917_804404","name":"Islamic place","lat":16.291682,"lng":80.44041,"addr":"","type":"place_of_worship"},{"id":"xx162910_804413","name":"Islamic place","lat":16.291032,"lng":80.441299,"addr":"","type":"place_of_worship"},{"id":"xx162920_804288","name":"Islamic place","lat":16.291979,"lng":80.428841,"addr":"","type":"place_of_worship"},{"id":"xx151110_800383","name":"Mosque","lat":15.111035,"lng":80.03826,"addr":"Chakicherla - Pattapupalem Road","type":"place_of_worship"},{"id":"xx170013_822611","name":"Masjid-e-Rahmate Alam","lat":17.001325,"lng":82.261113,"addr":"Sai Gansh","type":"place_of_worship"},{"id":"xx161786_811346","name":"Mosque","lat":16.178635,"lng":81.134577,"addr":"Buttaipet","type":"place_of_worship"},{"id":"xx161766_811286","name":"Islamic place","lat":16.176596,"lng":81.128632,"addr":"","type":"place_of_worship"},{"id":"xx161755_811244","name":"Islamic place","lat":16.175488,"lng":81.124357,"addr":"","type":"place_of_worship"},{"id":"xx164301_806968","name":"Jerusalem Prayer Hall","lat":16.430051,"lng":80.69679,"addr":"","type":"place_of_worship"},{"id":"xx161880_811278","name":"Muslims masjid","lat":16.187979,"lng":81.127845,"addr":"","type":"place_of_worship"},{"id":"xx181145_834133","name":"Islamic place","lat":18.114474,"lng":83.413279,"addr":"","type":"place_of_worship"},{"id":"xx187589_829177","name":"mosque","lat":18.758929,"lng":82.917653,"addr":"damanjodi","type":"place_of_worship"},{"id":"xx177298_833141","name":"Masin Masjid","lat":17.729776,"lng":83.314058,"addr":"","type":"place_of_worship"},{"id":"xx176853_832161","name":"Islamic place","lat":17.685344,"lng":83.216072,"addr":"","type":"place_of_worship"},{"id":"xx176903_832315","name":"Eidgah Masjid","lat":17.690284,"lng":83.231465,"addr":"","type":"place_of_worship"},{"id":"xx163632_808448","name":"Mosque, Masjid-a-jamia","lat":16.363227,"lng":80.844808,"addr":"","type":"place_of_worship"},{"id":"xx165034_806770","name":"Masjid-e-raheemiya","lat":16.50337,"lng":80.676997,"addr":"","type":"place_of_worship"},{"id":"xx165032_806761","name":"Masjid-e-raheemiya","lat":16.503214,"lng":80.676135,"addr":"","type":"place_of_worship"},{"id":"xx165303_806230","name":"Islamic place","lat":16.530331,"lng":80.622958,"addr":"","type":"place_of_worship"},{"id":"xx165160_807073","name":"Maside","lat":16.516006,"lng":80.707284,"addr":"","type":"place_of_worship"},{"id":"xx165179_806458","name":"Islamic place","lat":16.517921,"lng":80.64581,"addr":"","type":"place_of_worship"},{"id":"xx164928_806750","name":"Mohammadia Masjid","lat":16.492825,"lng":80.675006,"addr":"","type":"place_of_worship"},{"id":"xx164897_806746","name":"Masjid E Aqsha","lat":16.489695,"lng":80.674572,"addr":"","type":"place_of_worship"},{"id":"xx165095_807226","name":"Masjide","lat":16.509457,"lng":80.722593,"addr":"","type":"place_of_worship"},{"id":"xx164917_806770","name":"Madarsa Fathima Niswan Training Center","lat":16.491739,"lng":80.677015,"addr":"sanath nagar","type":"place_of_worship"},{"id":"xx165094_807226","name":"Muslim Mosque","lat":16.509441,"lng":80.722562,"addr":"","type":"place_of_worship"},{"id":"xx164634_807186","name":"Mosque","lat":16.463432,"lng":80.718589,"addr":"","type":"place_of_worship"},{"id":"xx163631_808429","name":"Masjid -a -dayara","lat":16.363051,"lng":80.842861,"addr":"","type":"place_of_worship"},{"id":"xx164588_807165","name":"Islamic place","lat":16.458825,"lng":80.716514,"addr":"","type":"place_of_worship"},{"id":"xx177647_833398","name":"Masid E Noorani","lat":17.764732,"lng":83.339791,"addr":"","type":"place_of_worship"},{"id":"xx182974_838945","name":"Madena Masjid","lat":18.297413,"lng":83.894476,"addr":"","type":"place_of_worship"},{"id":"xx182947_838999","name":"Jamia Masjid","lat":18.294746,"lng":83.899925,"addr":"","type":"place_of_worship"},{"id":"xx166879_816050","name":"Islamic place","lat":16.687853,"lng":81.604999,"addr":"","type":"place_of_worship"},{"id":"xx167843_815261","name":"Masjid Pentapadu","lat":16.78431,"lng":81.526124,"addr":"","type":"place_of_worship"},{"id":"xx161704_811180","name":"Masjid e salman forshi rh","lat":16.170442,"lng":81.118,"addr":"","type":"place_of_worship"},{"id":"xx167950_815266","name":"Masjid-e-Quba","lat":16.795019,"lng":81.526575,"addr":"","type":"place_of_worship"},{"id":"xx172552_816491","name":"Hazrat Bikkusha baba Dargah","lat":17.255246,"lng":81.649053,"addr":"","type":"place_of_worship"},{"id":"xx165302_805901","name":"Dargha Hazrat Galib Shaheed Rahmatullah ALei & Masjid E Galib Shaheed","lat":16.530218,"lng":80.590066,"addr":"","type":"place_of_worship"},{"id":"xx170907_820695","name":"Islamic place","lat":17.090729,"lng":82.069527,"addr":"","type":"place_of_worship"},{"id":"xx177333_832994","name":"Islamic place","lat":17.733331,"lng":83.299363,"addr":"","type":"place_of_worship"},{"id":"xx168596_812437","name":"మసీద్","lat":16.859577,"lng":81.243668,"addr":"","type":"place_of_worship"},{"id":"xx160692_805494","name":"Islamic place","lat":16.069225,"lng":80.549385,"addr":"","type":"grave_yard"},{"id":"xx160676_805385","name":"Nimra masjid","lat":16.067567,"lng":80.538485,"addr":"","type":"place_of_worship"},{"id":"xx165146_807131","name":"MASJID-E-YOUSUF","lat":16.514633,"lng":80.713084,"addr":"Ramanagar","type":"place_of_worship"},{"id":"xx161983_810044","name":"Jamiya Masjid","lat":16.198291,"lng":81.004447,"addr":"","type":"place_of_worship"},{"id":"xx176688_826110","name":"Islamic place","lat":17.668826,"lng":82.610983,"addr":"","type":"place_of_worship"},{"id":"xx172413_801520","name":"Islamic place","lat":17.241273,"lng":80.151952,"addr":"","type":"place_of_worship"},{"id":"xx172337_801471","name":"Mustafa Nagar mjd","lat":17.233689,"lng":80.147066,"addr":"","type":"place_of_worship"},{"id":"xx172346_802145","name":"Islamic place","lat":17.234625,"lng":80.214454,"addr":"","type":"yes"},{"id":"xx170075_817758","name":"maskue","lat":17.007539,"lng":81.775849,"addr":"","type":"yes"},{"id":"xx178287_808337","name":"Masjid","lat":17.828722,"lng":80.833748,"addr":"","type":"yes"},{"id":"xx172412_801520","name":"Islamic place","lat":17.241248,"lng":80.151951,"addr":"","type":"place_of_worship"},{"id":"xx172346_802144","name":"Islamic place","lat":17.234615,"lng":80.214447,"addr":"","type":"yes"},{"id":"xx164292_805676","name":"Muslim Graveyard","lat":16.429202,"lng":80.567601,"addr":"","type":"grave_yard"},{"id":"xx165242_806584","name":"Masjid (mosque)","lat":16.524226,"lng":80.658391,"addr":"","type":"yes"},{"id":"xx165166_806643","name":"Noorani Masjid","lat":16.516582,"lng":80.664301,"addr":"","type":"yes"},{"id":"xx177406_833338","name":"Islamic place","lat":17.74055,"lng":83.333789,"addr":"","type":"yes"},{"id":"xx165130_806150","name":"Islamic place","lat":16.513021,"lng":80.615048,"addr":"","type":"mosque"},{"id":"xx165126_806062","name":"Islamic place","lat":16.512605,"lng":80.606234,"addr":"","type":"yes"},{"id":"xx165147_807131","name":"Islamic place","lat":16.514657,"lng":80.713074,"addr":"","type":"mosque"},{"id":"xx162787_804423","name":"Sheba Prayer Hall","lat":16.278695,"lng":80.44227,"addr":"","type":"yes"},{"id":"xx181117_834127","name":"Majid","lat":18.111652,"lng":83.412735,"addr":"","type":"yes"},{"id":"xx164291_805676","name":"Muslim Graveyard","lat":16.429149,"lng":80.567591,"addr":"","type":"grave_yard"},{"id":"xx177405_833338","name":"Islamic place","lat":17.740539,"lng":83.333778,"addr":"","type":"yes"},{"id":"xx177235_833324","name":"Islamic place","lat":17.723491,"lng":83.332422,"addr":"","type":"yes"},{"id":"xx165429_815293","name":"SUNNEJAMIYA MASJID","lat":16.542917,"lng":81.529276,"addr":"","type":"yes"},{"id":"xx165255_806395","name":"Baitunnoor Masjid","lat":16.525498,"lng":80.639518,"addr":"","type":"yes"},{"id":"xx177463_832676","name":"mosque","lat":17.746322,"lng":83.267575,"addr":"","type":"place_of_worship"},{"id":"xx160178_808253","name":"mosque","lat":16.017847,"lng":80.825341,"addr":"","type":"yes"},{"id":"xx166135_803964","name":"Jumma Masjid","lat":16.613527,"lng":80.396418,"addr":"","type":"yes"},{"id":"xx183939_816609","name":"Sunni Muslim","lat":18.393907,"lng":81.660905,"addr":"","type":"mosque"},{"id":"xx183851_816498","name":"Ruhaani Ashram","lat":18.385105,"lng":81.64983,"addr":"","type":"mosque"},{"id":"xx183940_816608","name":"Sunni Muslim","lat":18.393955,"lng":81.660813,"addr":"","type":"mosque"},{"id":"xx171947_816727","name":"Masjid","lat":17.194714,"lng":81.672667,"addr":"Indian Bank Street","type":"yes"},{"id":"xx169504_822339","name":"Islamic place","lat":16.950444,"lng":82.233852,"addr":"","type":"yes"},{"id":"xx159156_804941","name":"Bethel prayer hall","lat":15.915582,"lng":80.494096,"addr":"","type":"yes"},{"id":"xx159090_804911","name":"The Salvation Army Prayer Hall - Vidya Nagar Corps","lat":15.909031,"lng":80.4911,"addr":"","type":"yes"},{"id":"xx167732_806394","name":"Hazarath Shabukari Baba Darga","lat":16.773166,"lng":80.639403,"addr":"","type":"yes"},{"id":"xx169552_822460","name":"Islamic place","lat":16.955159,"lng":82.24597,"addr":"","type":"yes"},{"id":"xx172465_801445","name":"Killa Masjid","lat":17.246541,"lng":80.144455,"addr":"","type":"yes"},{"id":"xx169504_822338","name":"Islamic place","lat":16.950413,"lng":82.233849,"addr":"","type":"yes"},{"id":"xx169552_822459","name":"Islamic place","lat":16.955192,"lng":82.24591,"addr":"","type":"yes"},{"id":"xx158014_803287","name":"Althaf Irfan Ferdastheir Dargah Sharif","lat":15.801407,"lng":80.328749,"addr":"Jandrapeta","type":"mosque"},{"id":"xx166143_803967","name":"Madarsa Misbah ul Huda","lat":16.614314,"lng":80.39672,"addr":"","type":"school"},{"id":"xx166143_803968","name":"Madarsa Misbah-ul-Huda","lat":16.614299,"lng":80.396785,"addr":"","type":"mosque"},{"id":"xx166137_803998","name":"Ideal School Masjid","lat":16.613741,"lng":80.39975,"addr":"","type":"mosque"},{"id":"xx166134_803985","name":"Mohammadia Masjid","lat":16.613446,"lng":80.398472,"addr":"","type":"mosque"},{"id":"xx169296_819239","name":"Islamic place","lat":16.929617,"lng":81.923923,"addr":"","type":"yes"},{"id":"xx180610_834079","name":"Islamic place","lat":18.060955,"lng":83.407888,"addr":"","type":"yes"},{"id":"xx181073_833987","name":"Islamic place","lat":18.107281,"lng":83.398667,"addr":"","type":"yes"},{"id":"xx181074_833998","name":"Islamic place","lat":18.107368,"lng":83.399796,"addr":"","type":"yes"},{"id":"xx171940_803612","name":"masjid.","lat":17.194031,"lng":80.361178,"addr":"","type":"yes"},{"id":"xx185464_822082","name":"Sunny Kabristan","lat":18.546357,"lng":82.20817,"addr":"","type":"mosque"},{"id":"xx164300_806968","name":"Jerusalem Prayer Hall","lat":16.430047,"lng":80.696782,"addr":"","type":"yes"},{"id":"xx166076_805415","name":"Islamic place","lat":16.607579,"lng":80.541483,"addr":"","type":"mosque"},{"id":"xx164027_808013","name":"Nepalli Masjid","lat":16.402697,"lng":80.801275,"addr":"","type":"yes"},{"id":"xx163688_812719","name":"Masjid khadari jamiya","lat":16.368766,"lng":81.271915,"addr":"Bantumilli Main Road","type":"mosque"},{"id":"xx162409_805776","name":"Macca Masjid","lat":16.240857,"lng":80.577591,"addr":"","type":"yes"},{"id":"xx165705_805437","name":"Islamic place","lat":16.570468,"lng":80.543684,"addr":"","type":"mosque"},{"id":"xx160684_805444","name":"Noor masjid ponnur","lat":16.06839,"lng":80.544371,"addr":"","type":"yes"},{"id":"xx166142_803967","name":"Madarsa Misbah-ul-Huda","lat":16.61424,"lng":80.39674,"addr":"","type":"mosque"},{"id":"xx166137_803997","name":"Ideal School Masjid","lat":16.613721,"lng":80.399714,"addr":"","type":"mosque"},{"id":"xx166135_803985","name":"Mohammadia Masjid","lat":16.613475,"lng":80.398472,"addr":"","type":"mosque"},{"id":"xx181073_833998","name":"Islamic place","lat":18.107347,"lng":83.399795,"addr":"","type":"yes"},{"id":"xx185464_822081","name":"Sunny Kabristan","lat":18.546398,"lng":82.20809,"addr":"","type":"mosque"},{"id":"xx163687_812719","name":"Masjid khadari jamiya","lat":16.368735,"lng":81.271914,"addr":"Bantumilli Main Road","type":"mosque"},{"id":"xx162408_805776","name":"Macca Masjid","lat":16.240843,"lng":80.577587,"addr":"","type":"yes"},{"id":"xx176903_832912","name":"Islamic place","lat":17.690342,"lng":83.291239,"addr":"","type":"mosque"},{"id":"xx176905_832907","name":"Islamic place","lat":17.690544,"lng":83.290748,"addr":"","type":"yes"},{"id":"xx174363_826866","name":"Islamic place","lat":17.436282,"lng":82.686588,"addr":"","type":"mosque"},{"id":"xx168210_814004","name":"Masjid budan hadees","lat":16.821006,"lng":81.400366,"addr":"","type":"yes"},{"id":"xx171220_813042","name":"Masjid-e-Quba ahl-e-hadees","lat":17.121968,"lng":81.304171,"addr":"","type":"yes"},{"id":"xx177396_833002","name":"Dargah Shareeff","lat":17.739631,"lng":83.300165,"addr":"","type":"mosque"},{"id":"xx161932_811389","name":"Islamic place","lat":16.193224,"lng":81.138946,"addr":"","type":"mosque"}]