[{"id":"xx225502_-143311","name":"مسجد","lat":22.550231,"lng":-14.331056,"addr":"أوسرد","type":"mosque"},{"id":"xx225668_-143210","name":"مقبرة أوسرد","lat":22.566805,"lng":-14.320996,"addr":"أوسرد","type":"mosque"},{"id":"xx225534_-143348","name":"مسجد","lat":22.553426,"lng":-14.334767,"addr":"أوسرد","type":"mosque"},{"id":"xx246653_-148742","name":"Islamic place","lat":24.665284,"lng":-14.874246,"addr":"","type":"mosque"},{"id":"xx221804_-131421","name":"Islamic place","lat":22.180446,"lng":-13.142105,"addr":"","type":"mosque"},{"id":"xx248408_-139541","name":"زاوية الطالب بويا","lat":24.840842,"lng":-13.954139,"addr":"","type":"yes"},{"id":"xx246653_-148743","name":"Islamic place","lat":24.665286,"lng":-14.874279,"addr":"","type":"mosque"},{"id":"xx248408_-139542","name":"زاوية الطالب بويا","lat":24.840786,"lng":-13.95416,"addr":"","type":"yes"}]