[{"id":"xx236966_-159358","name":"مسجد السنة","lat":23.696578,"lng":-15.935765,"addr":"","type":"place_of_worship"},{"id":"xx237341_-159169","name":"Islamic place","lat":23.73414,"lng":-15.916936,"addr":"","type":"place_of_worship"},{"id":"xx236891_-159457","name":"Islamic place","lat":23.689148,"lng":-15.945658,"addr":"","type":"place_of_worship"},{"id":"xx237044_-159492","name":"مسجد البيعة","lat":23.704382,"lng":-15.949237,"addr":"","type":"place_of_worship"},{"id":"xx236881_-159361","name":"Islamic place","lat":23.688051,"lng":-15.936114,"addr":"","type":"mosque"},{"id":"xx235614_-158962","name":"Islamic place","lat":23.56145,"lng":-15.89616,"addr":"","type":"yes"},{"id":"xx237093_-159250","name":"Masjid an-Nasr مسجد النصر","lat":23.709295,"lng":-15.92496,"addr":"","type":"mosque"},{"id":"xx232080_-161123","name":"Islamic place","lat":23.20801,"lng":-16.112329,"addr":"","type":"yes"},{"id":"xx232353_-160798","name":"مسجد إمليلي","lat":23.235269,"lng":-16.079777,"addr":"إمليلي","type":"yes"},{"id":"xx237342_-159170","name":"Islamic place","lat":23.734175,"lng":-15.917031,"addr":"","type":"mosque"},{"id":"xx236906_-159383","name":"Mosquée Eddarham","lat":23.690623,"lng":-15.938314,"addr":"","type":"mosque"},{"id":"xx236878_-159498","name":"La Grande Mosquée","lat":23.687782,"lng":-15.949766,"addr":"Dajla","type":"mosque"},{"id":"xx220524_-167521","name":"Islamic place","lat":22.052432,"lng":-16.752103,"addr":"","type":"yes"},{"id":"xx221935_-167672","name":"Islamic place","lat":22.193532,"lng":-16.767176,"addr":"","type":"yes"},{"id":"xx240767_-155724","name":"Islamic place","lat":24.076697,"lng":-15.572426,"addr":"","type":"mosque"},{"id":"xx236892_-159458","name":"Islamic place","lat":23.689173,"lng":-15.94576,"addr":"","type":"mosque"},{"id":"xx236965_-159445","name":"Mezquita","lat":23.696466,"lng":-15.944481,"addr":"Dajla","type":"mosque"},{"id":"xx236879_-159361","name":"Islamic place","lat":23.687932,"lng":-15.936129,"addr":"","type":"mosque"},{"id":"xx221936_-167672","name":"Islamic place","lat":22.193571,"lng":-16.767186,"addr":"","type":"yes"},{"id":"xx236891_-159458","name":"Islamic place","lat":23.689147,"lng":-15.945763,"addr":"","type":"mosque"},{"id":"xx213663_-169613","name":"Islamic place","lat":21.366325,"lng":-16.961257,"addr":"","type":"yes"},{"id":"xx236879_-159498","name":"Islamic place","lat":23.687945,"lng":-15.949793,"addr":"","type":"mosque"},{"id":"xx205690_-154823","name":"Mosquée Al-Rahma","lat":20.569016,"lng":-15.482282,"addr":"Tasiast تازيازت","type":"place_of_worship"},{"id":"xx212768_-167189","name":"Islamic place","lat":21.276765,"lng":-16.71892,"addr":"","type":"place_of_worship"},{"id":"xx212763_-167113","name":"Islamic place","lat":21.276293,"lng":-16.711278,"addr":"","type":"place_of_worship"},{"id":"xx212797_-166715","name":"Islamic place","lat":21.279694,"lng":-16.671482,"addr":"","type":"place_of_worship"},{"id":"xx209372_-170421","name":"Cimetière de Salihin مقبرة الصالحين","lat":20.937205,"lng":-17.042106,"addr":"","type":"mosque"},{"id":"xx209964_-170249","name":"Al Mutafajirat مقبرة المتفجرات","lat":20.996398,"lng":-17.024868,"addr":"","type":"mosque"},{"id":"xx209377_-170374","name":"Mosquée El-Ridwan جامع الرضوان","lat":20.93767,"lng":-17.037398,"addr":"Nouadhibou نواذيبو","type":"yes"},{"id":"xx208524_-170382","name":"Islamic place","lat":20.852395,"lng":-17.038177,"addr":"Cansado كانصادو","type":"yes"},{"id":"xx208501_-170363","name":"جامع العتيق كانصادو","lat":20.850076,"lng":-17.036294,"addr":"كانصادو","type":"yes"},{"id":"xx208551_-170353","name":"مسجد الرحمن","lat":20.855117,"lng":-17.035274,"addr":"كانصادو","type":"yes"},{"id":"xx209140_-170532","name":"Cimetière Musulman","lat":20.913953,"lng":-17.05321,"addr":"","type":"grave_yard"},{"id":"xx205631_-154916","name":"Mosquée Ancien Camp","lat":20.563084,"lng":-15.491573,"addr":"","type":"mosque"},{"id":"xx212833_-166479","name":"Islamic place","lat":21.283299,"lng":-16.647933,"addr":"","type":"yes"},{"id":"xx210172_-170053","name":"Islamic place","lat":21.017173,"lng":-17.005293,"addr":"","type":"yes"},{"id":"xx208110_-161205","name":"Islamic place","lat":20.811035,"lng":-16.120549,"addr":"Route nationale 2 الطريق الوطني رقم","type":"mosque"},{"id":"xx212878_-165256","name":"Islamic place","lat":21.287812,"lng":-16.52562,"addr":"","type":"yes"},{"id":"xx212878_-165257","name":"Islamic place","lat":21.287827,"lng":-16.525669,"addr":"","type":"mosque"},{"id":"xx209960_-170249","name":"Al Mutafajirat مقبرة المتفجرات","lat":20.99604,"lng":-17.024945,"addr":"","type":"mosque"},{"id":"xx209377_-170375","name":"Mosquée El-Ridwan جامع الرضوان","lat":20.937671,"lng":-17.03745,"addr":"Nouadhibou نواذيبو","type":"yes"},{"id":"xx208500_-170363","name":"جامع العتيق كانصادو","lat":20.850046,"lng":-17.036295,"addr":"كانصادو","type":"yes"},{"id":"xx209138_-170532","name":"Cimetière Musulman","lat":20.913834,"lng":-17.053249,"addr":"","type":"grave_yard"}]