[{"id":"xx249237_670878","name":"Masjid Ahsan Ul Uloom","lat":24.923718,"lng":67.087757,"addr":"Karachi","type":"place_of_worship"},{"id":"xx249400_670720","name":"Masjid e Quba","lat":24.93996,"lng":67.072006,"addr":"","type":"place_of_worship"},{"id":"xx249373_670689","name":"Masjid O Imambargah Aal-e-Aba","lat":24.937284,"lng":67.068864,"addr":"Shahrah e Aal-e-Aba","type":"place_of_worship"},{"id":"xx249365_670710","name":"Farooq-e-Azam Masjid","lat":24.936466,"lng":67.070975,"addr":"Shahrah e Aal-e-Aba","type":"place_of_worship"},{"id":"xx249421_670662","name":"Jama-e-Masjid Gulberg","lat":24.94209,"lng":67.066174,"addr":"Street 7","type":"place_of_worship"},{"id":"xx249320_670652","name":"Medina","lat":24.93196,"lng":67.065216,"addr":"","type":"place_of_worship"},{"id":"xx249340_670616","name":"Shadab Masjid","lat":24.933968,"lng":67.061574,"addr":"Ziauddin Road","type":"place_of_worship"},{"id":"xx249299_670729","name":"Al-Falah","lat":24.92989,"lng":67.072928,"addr":"Shah Jahan Avenue","type":"place_of_worship"},{"id":"xx249279_670776","name":"Aqsa","lat":24.927937,"lng":67.077585,"addr":"Karachi","type":"place_of_worship"},{"id":"xx249248_670780","name":"Al-Akhwan","lat":24.924753,"lng":67.077992,"addr":"Lyari Express Way","type":"place_of_worship"},{"id":"xx249243_670687","name":"Islamic place","lat":24.924348,"lng":67.068748,"addr":"","type":"place_of_worship"},{"id":"xx249209_670902","name":"Madni","lat":24.92088,"lng":67.090176,"addr":"Karachi","type":"place_of_worship"},{"id":"xx249250_670959","name":"Shah Faisal","lat":24.924982,"lng":67.095884,"addr":"Allama Shabbir Ahmed Usmani Road","type":"place_of_worship"},{"id":"xx248838_670594","name":"Memon","lat":24.883807,"lng":67.059442,"addr":"","type":"place_of_worship"},{"id":"xx248762_670871","name":"مسجد بلال","lat":24.876226,"lng":67.08713,"addr":"","type":"place_of_worship"},{"id":"xx248752_670854","name":"مسجد مکہ","lat":24.875176,"lng":67.085446,"addr":"","type":"place_of_worship"},{"id":"xx248732_670802","name":"Al Hamra Masjid","lat":24.87319,"lng":67.080227,"addr":"Syedna Nooruddin Road","type":"place_of_worship"},{"id":"xx248099_670692","name":"Masjid Umar Farooq","lat":24.809927,"lng":67.069189,"addr":"Khayaban e Rahat","type":"place_of_worship"},{"id":"xx248764_669434","name":"Masjid Abu Bakar","lat":24.876367,"lng":66.943442,"addr":"","type":"place_of_worship"},{"id":"xx248839_669516","name":"Masjid Ali Murtaza","lat":24.883891,"lng":66.951596,"addr":"","type":"place_of_worship"},{"id":"xx248866_669541","name":"Masjid Hassan","lat":24.886645,"lng":66.954107,"addr":"","type":"place_of_worship"},{"id":"xx249111_671904","name":"Gulzar E Muhammadi Masjid","lat":24.911064,"lng":67.190362,"addr":"Khadim Ave","type":"place_of_worship"},{"id":"xx248752_673639","name":"Maki Masjid","lat":24.875197,"lng":67.363945,"addr":"Gulshan e Hadeed","type":"place_of_worship"},{"id":"xx248726_673646","name":"Faizan e Madina Masjid","lat":24.87263,"lng":67.364567,"addr":"Gulshan e Hadeed","type":"place_of_worship"},{"id":"xx248716_673584","name":"Bab-e-Rehmat","lat":24.871641,"lng":67.358427,"addr":"Gulshan e Hadeed","type":"place_of_worship"},{"id":"xx248180_670564","name":"گزری قبرستان","lat":24.817985,"lng":67.056353,"addr":"Khayaban-e-Momin","type":"grave_yard"},{"id":"xx249521_670478","name":"Batha mosque","lat":24.952077,"lng":67.047789,"addr":"Shahrah Noor Jahan","type":"place_of_worship"},{"id":"xx249129_670422","name":"Qudsiya Mosque","lat":24.9129,"lng":67.042209,"addr":"FC Area","type":"place_of_worship"},{"id":"xx249473_670263","name":"Mustafa","lat":24.947291,"lng":67.026313,"addr":"Karachi","type":"place_of_worship"},{"id":"xx249303_670444","name":"Noor","lat":24.93031,"lng":67.044449,"addr":"North Nazimabad Block F","type":"mosque"},{"id":"xx249538_670453","name":"Usman e Ghani Mosque","lat":24.953773,"lng":67.045301,"addr":"","type":"place_of_worship"},{"id":"xx249596_670510","name":"Qalandaria","lat":24.95961,"lng":67.051013,"addr":"","type":"place_of_worship"},{"id":"xx249489_670415","name":"Masjid Siddiq e Akbar","lat":24.948883,"lng":67.04151,"addr":"North Nazimabad Block I","type":"place_of_worship"},{"id":"xx249466_670401","name":"Jama Masjid Shafi","lat":24.946586,"lng":67.04013,"addr":"North Nazimabad Block D","type":"place_of_worship"},{"id":"xx249148_671249","name":"مسجد عثمان غنی","lat":24.914814,"lng":67.124893,"addr":"جوہر چورنگی روڈ","type":"place_of_worship"},{"id":"xx249327_670790","name":"Rizwan","lat":24.932651,"lng":67.078983,"addr":"","type":"place_of_worship"},{"id":"xx249101_671095","name":"Jamia Masjid Owais Qarni","lat":24.910062,"lng":67.109457,"addr":"Karachi","type":"place_of_worship"},{"id":"xx249495_671317","name":"Jamia Hamdia Rizvia","lat":24.949513,"lng":67.131709,"addr":"","type":"place_of_worship"},{"id":"xx249131_667569","name":"Islamic place","lat":24.913091,"lng":66.756878,"addr":"","type":"place_of_worship"},{"id":"xx249144_670235","name":"Gole Market Jama","lat":24.914391,"lng":67.023532,"addr":"Nazimabad 3","type":"mosque"},{"id":"xx249473_670481","name":"Jamia Masjid Madina","lat":24.947321,"lng":67.04809,"addr":"North Nazimabad Block I","type":"place_of_worship"},{"id":"xx249537_670697","name":"Darul Islam","lat":24.95374,"lng":67.069663,"addr":"","type":"place_of_worship"},{"id":"xx249298_670949","name":"Islamic place","lat":24.92979,"lng":67.094917,"addr":"","type":"community_centre"},{"id":"xx247857_670668","name":"ڈی ایچ اے مسجد","lat":24.785729,"lng":67.066769,"addr":"کراچی","type":"mosque"},{"id":"xx249183_670949","name":"Hayaat ul Islam","lat":24.918308,"lng":67.094928,"addr":"Karachi","type":"place_of_worship"},{"id":"xx249121_670899","name":"Masjid Akhiyar","lat":24.912097,"lng":67.089855,"addr":"Karachi","type":"place_of_worship"},{"id":"xx249209_670995","name":"Imam ibn Timia","lat":24.920852,"lng":67.099472,"addr":"","type":"mosque"},{"id":"xx249174_670907","name":"Aamna","lat":24.917449,"lng":67.090668,"addr":"Umraao Tariq Road","type":"mosque"},{"id":"xx249230_670886","name":"Ashraf Al Madaris","lat":24.922997,"lng":67.088619,"addr":", Block 2 Gulshan-e-Iqbal, Karachi,","type":"place_of_worship"},{"id":"xx249056_671184","name":"Sultan Majid","lat":24.905623,"lng":67.118403,"addr":"Cantonment Graveyard Road","type":"place_of_worship"},{"id":"xx249342_670813","name":"Ghufran Masjid","lat":24.934174,"lng":67.081303,"addr":"","type":"place_of_worship"},{"id":"xx247887_675256","name":"Eid Gah Masjid","lat":24.788748,"lng":67.525579,"addr":"Dhabeji","type":"place_of_worship"},{"id":"xx248768_671769","name":"Al Falah Masjid","lat":24.876846,"lng":67.176894,"addr":"","type":"mosque"},{"id":"xx249381_671050","name":"Jama Masjid Abu Al-Alai","lat":24.938129,"lng":67.105009,"addr":"","type":"place_of_worship"},{"id":"xx249400_671023","name":"Al Arabia","lat":24.940037,"lng":67.102301,"addr":"","type":"place_of_worship"},{"id":"xx248845_670261","name":"Platinium Jamat Khana","lat":24.884526,"lng":67.026079,"addr":"Lobo Street","type":"place_of_worship"},{"id":"xx248120_670503","name":"Abdul Aziz Masjid","lat":24.812023,"lng":67.050315,"addr":"Khayaban e Muhafiz","type":"place_of_worship"},{"id":"xx248538_669993","name":"Muhammadi","lat":24.853797,"lng":66.999274,"addr":"","type":"place_of_worship"},{"id":"xx248888_670316","name":"Allah Wali","lat":24.888772,"lng":67.031621,"addr":"Business Recorder Road","type":"place_of_worship"},{"id":"xx248875_670335","name":"Noman","lat":24.887451,"lng":67.033524,"addr":", Lesbella chowk, near noman masjid, Patel Para,","type":"place_of_worship"},{"id":"xx248667_670839","name":"Siddiq Mosque","lat":24.866686,"lng":67.083893,"addr":"Baloach Ramp SE","type":"place_of_worship"},{"id":"xx248773_671020","name":"Jama Masjid Diyar E Habib","lat":24.87734,"lng":67.10201,"addr":"Shahrah e Faisal","type":"place_of_worship"},{"id":"xx248873_671272","name":"جامع مسجد","lat":24.887298,"lng":67.127195,"addr":"Shahrah e Faisal","type":"place_of_worship"},{"id":"xx248860_671269","name":"جامع مسجد حنفیہ","lat":24.88596,"lng":67.126905,"addr":"کراچی","type":"place_of_worship"},{"id":"xx248863_671306","name":"Jamia Masjid Bilal","lat":24.886299,"lng":67.130623,"addr":"Karachi","type":"place_of_worship"},{"id":"xx248855_671331","name":"نوری مسجد","lat":24.885544,"lng":67.133137,"addr":"کراچی","type":"place_of_worship"},{"id":"xx248853_671378","name":"Jamia Masjid Qasmia Ferozia","lat":24.885283,"lng":67.137781,"addr":"Karachi","type":"place_of_worship"},{"id":"xx248874_671378","name":"Natha Khan Eid Prayer Ground","lat":24.887404,"lng":67.137824,"addr":"Shahrah e Faisal","type":"place_of_worship"},{"id":"xx248850_671402","name":"Jamia Masjid Humza","lat":24.885043,"lng":67.140179,"addr":"Karachi","type":"place_of_worship"},{"id":"xx248858_671441","name":"Jamia Masjid Mustufa","lat":24.885802,"lng":67.144074,"addr":"Karachi","type":"place_of_worship"},{"id":"xx248867_671505","name":"Abu Hanifia","lat":24.886688,"lng":67.150468,"addr":"Shahrah e Faisal","type":"place_of_worship"},{"id":"xx248868_671629","name":"Imam Abu Hanifa Masjid","lat":24.886793,"lng":67.162855,"addr":"Shahrah e Faisal","type":"place_of_worship"},{"id":"xx248840_671736","name":"Jama Masjid Riaz uz Zahra","lat":24.884003,"lng":67.173601,"addr":"Shah Faisal Town","type":"place_of_worship"},{"id":"xx248828_671788","name":"Rehman Masjid","lat":24.882799,"lng":67.178757,"addr":"Karachi","type":"place_of_worship"},{"id":"xx248820_671803","name":"Masjid Touheed","lat":24.881952,"lng":67.180324,"addr":"Karachi","type":"place_of_worship"},{"id":"xx248800_671847","name":"Millat Masjid","lat":24.879957,"lng":67.184661,"addr":"Karachi","type":"place_of_worship"},{"id":"xx248799_671871","name":"Imam Bargah Muhammadi Dera","lat":24.879942,"lng":67.187147,"addr":"National Highway","type":"place_of_worship"},{"id":"xx248787_671864","name":"Gulzar e Madina Masjid","lat":24.878662,"lng":67.186351,"addr":"Karachi","type":"place_of_worship"},{"id":"xx248785_671885","name":"Noorani Masjid","lat":24.878531,"lng":67.188513,"addr":"Malir 15 Flyover","type":"place_of_worship"},{"id":"xx248770_671897","name":"Sugra Masjid","lat":24.876982,"lng":67.189664,"addr":"Malir 15 Flyover","type":"place_of_worship"},{"id":"xx248753_671941","name":"Madina Masjid","lat":24.875308,"lng":67.194147,"addr":"Mandir, Main Madina Compound Malir,","type":"place_of_worship"},{"id":"xx248709_671995","name":"Usman Ghani Masid","lat":24.870914,"lng":67.199503,"addr":"National Highway","type":"place_of_worship"},{"id":"xx248699_672003","name":"Masjid e Ayesha","lat":24.869862,"lng":67.200349,"addr":"National Highway","type":"place_of_worship"},{"id":"xx248704_672020","name":"Jamia Masjid Siddique e Akbar","lat":24.870364,"lng":67.201976,"addr":"National Highway","type":"place_of_worship"},{"id":"xx248690_672028","name":"Anwar e Madina Masjid","lat":24.868965,"lng":67.202791,"addr":"Karachi","type":"place_of_worship"},{"id":"xx248599_672082","name":"Madina Masjid","lat":24.859936,"lng":67.208156,"addr":"National Highway","type":"place_of_worship"},{"id":"xx248578_672083","name":"PSIT Mosque","lat":24.857773,"lng":67.208333,"addr":"National Highway","type":"place_of_worship"},{"id":"xx249190_670948","name":"Madina tul ilm Imam Bargah","lat":24.918989,"lng":67.094805,"addr":"","type":"place_of_worship"},{"id":"xx249257_670301","name":"Sabih","lat":24.925729,"lng":67.030108,"addr":"Sher Shah Suri road","type":"place_of_worship"},{"id":"xx249245_670351","name":"Al-Markaz","lat":24.924541,"lng":67.035093,"addr":"North Nazimabad Block B","type":"place_of_worship"},{"id":"xx249235_670338","name":"Ali Murtaza","lat":24.923526,"lng":67.033777,"addr":"North Nazimabad Block B","type":"place_of_worship"},{"id":"xx248380_672942","name":"Madina Masjid","lat":24.838033,"lng":67.294169,"addr":"North West Industrial Zone","type":"place_of_worship"},{"id":"xx248535_673326","name":"Jama Masjid Bait Ul Mukarram","lat":24.85352,"lng":67.332627,"addr":"","type":"place_of_worship"},{"id":"xx248663_673404","name":"Jama Masjid Gulzar e Madina","lat":24.866263,"lng":67.340413,"addr":"","type":"place_of_worship"},{"id":"xx249426_670488","name":"Masjid Al Aziz","lat":24.942597,"lng":67.048758,"addr":"1st Street","type":"place_of_worship"},{"id":"xx248697_673356","name":"Masjid Salman e Farsi","lat":24.869735,"lng":67.335554,"addr":"","type":"place_of_worship"},{"id":"xx248696_673338","name":"مسجد بلال","lat":24.869647,"lng":67.333765,"addr":"","type":"place_of_worship"},{"id":"xx248678_673319","name":"Jama Masjid Shaheed Zulfiqar","lat":24.86782,"lng":67.331852,"addr":"","type":"place_of_worship"},{"id":"xx248754_673435","name":"Jama Masjid Ashaab e Suffah","lat":24.875358,"lng":67.343457,"addr":"","type":"place_of_worship"},{"id":"xx248622_673463","name":"Imam Bargah Steel Town","lat":24.862209,"lng":67.346281,"addr":"","type":"place_of_worship"},{"id":"xx248694_673531","name":"Jama Masjid Daiyar e Habib","lat":24.869363,"lng":67.35313,"addr":"Gulshan e Hadeed","type":"place_of_worship"},{"id":"xx248697_673499","name":"Jama Masjid Al Hadeed","lat":24.86974,"lng":67.349928,"addr":"Gulshan e Hadeed","type":"place_of_worship"},{"id":"xx248714_673627","name":"Jama Masjid Khalid Bin Waleed","lat":24.871357,"lng":67.362664,"addr":"Gulshan e Hadeed","type":"place_of_worship"},{"id":"xx248738_673674","name":"Sahib Ul Asr","lat":24.873779,"lng":67.3674,"addr":"Gulshan e Hadeed","type":"place_of_worship"},{"id":"xx248741_673687","name":"Jamia Masjid Siddiq e Akbar","lat":24.87411,"lng":67.368704,"addr":"Gulshan e Hadeed","type":"place_of_worship"},{"id":"xx248724_673708","name":"Jama Masjid Huda","lat":24.872357,"lng":67.370789,"addr":"Gulshan e Hadeed","type":"place_of_worship"},{"id":"xx248702_673728","name":"Jama Masjid Ibaad Ur Rehman","lat":24.870213,"lng":67.372845,"addr":"","type":"place_of_worship"},{"id":"xx249338_670929","name":"Madina Masjid","lat":24.933805,"lng":67.092898,"addr":"Lyari Express Way","type":"place_of_worship"},{"id":"xx249349_670925","name":"Ghousia Masjid","lat":24.934928,"lng":67.092482,"addr":"Lyari Express Way","type":"place_of_worship"},{"id":"xx248694_673572","name":"Jama Masjid Muhammadi","lat":24.869398,"lng":67.357196,"addr":"Gulshan e Hadeed","type":"place_of_worship"},{"id":"xx249360_670334","name":"Rahmaniya","lat":24.936002,"lng":67.033427,"addr":"Shahrah Noor Jahan","type":"place_of_worship"},{"id":"xx249697_670593","name":"Muhammadi","lat":24.96974,"lng":67.059302,"addr":"Shahrah Sher Shah Suri","type":"place_of_worship"},{"id":"xx249655_670538","name":"Masjid E Habibia","lat":24.96545,"lng":67.05384,"addr":"Shahrah Noor Jahan","type":"place_of_worship"},{"id":"xx249636_670541","name":"Khizra","lat":24.963552,"lng":67.054115,"addr":"Shahrah Noor Jahan","type":"place_of_worship"},{"id":"xx249648_670514","name":"Riayaz-ul-Jannah","lat":24.9648,"lng":67.051415,"addr":"Shahrah Noor Jahan","type":"place_of_worship"},{"id":"xx249634_670485","name":"Gulzar-e-Madina","lat":24.963381,"lng":67.048494,"addr":"Shahrah Noor Jahan","type":"place_of_worship"},{"id":"xx249691_670476","name":"Hira","lat":24.969067,"lng":67.047622,"addr":"Karachi","type":"place_of_worship"},{"id":"xx249707_670468","name":"Ahl-e-Hadith","lat":24.970664,"lng":67.046837,"addr":"Karachi","type":"place_of_worship"},{"id":"xx249651_670455","name":"Jama Masjid","lat":24.965125,"lng":67.045455,"addr":"Karachi","type":"place_of_worship"},{"id":"xx249634_670465","name":"Ghausia","lat":24.96342,"lng":67.046476,"addr":"Karachi","type":"place_of_worship"},{"id":"xx249360_670295","name":"مسجد بلال","lat":24.936014,"lng":67.029484,"addr":"Shahrah Noor Jahan","type":"place_of_worship"},{"id":"xx249393_670343","name":"Nizari Jamat Khana","lat":24.939251,"lng":67.034267,"addr":"Shahrah Noor Jahan","type":"place_of_worship"},{"id":"xx249384_670382","name":"مسجد بلال","lat":24.9384,"lng":67.038212,"addr":"Shahrah Sher Shah Suri","type":"place_of_worship"},{"id":"xx249407_670374","name":"Ashraf","lat":24.940737,"lng":67.037378,"addr":"Shahrah Noor Jahan","type":"place_of_worship"},{"id":"xx248952_670567","name":"Faizan E Attar Masjid","lat":24.895156,"lng":67.056673,"addr":"Lyari Express Way","type":"place_of_worship"},{"id":"xx248964_670542","name":"Muhammadi Masjid","lat":24.896357,"lng":67.054167,"addr":"Lyari Express Way","type":"place_of_worship"},{"id":"xx248966_670532","name":"Ahmed Raza Masjid","lat":24.896611,"lng":67.053181,"addr":"Lyari Express Way","type":"place_of_worship"},{"id":"xx249501_670468","name":"Nimra Mosque","lat":24.950067,"lng":67.046803,"addr":"Shahrah Noor Jahan","type":"place_of_worship"},{"id":"xx249495_670601","name":"Madni Masjid","lat":24.949503,"lng":67.060112,"addr":"Karachi","type":"place_of_worship"},{"id":"xx249502_670588","name":"Suroor","lat":24.950154,"lng":67.058828,"addr":"North Nazimabad Block N","type":"place_of_worship"},{"id":"xx249539_670563","name":"Israr Mosque","lat":24.953886,"lng":67.056271,"addr":"Shahrah Sher Shah Suri","type":"place_of_worship"},{"id":"xx249594_670591","name":"Taj ul Aulia","lat":24.959405,"lng":67.059119,"addr":"Shahrah Sher Shah Suri","type":"place_of_worship"},{"id":"xx249572_670543","name":"Sakhi Hasan Graveyard","lat":24.957175,"lng":67.054348,"addr":"Karachi","type":"grave_yard"},{"id":"xx249384_670572","name":"Jama Masjid Rehmat e Alam","lat":24.938369,"lng":67.057193,"addr":"Allama Rasheed Turabi Road","type":"place_of_worship"},{"id":"xx249622_670585","name":"Shadman","lat":24.96217,"lng":67.058466,"addr":"Shahrah Sher Shah Suri","type":"place_of_worship"},{"id":"xx249359_670541","name":"Usman","lat":24.93593,"lng":67.054106,"addr":"Allama Rasheed Turabi Road","type":"mosque"},{"id":"xx249377_670656","name":"Imam Shah Ahmed Noori","lat":24.937678,"lng":67.065559,"addr":"Street 1","type":"place_of_worship"},{"id":"xx248459_669927","name":"Port Grand Mosque","lat":24.845881,"lng":66.992742,"addr":"Jinnah Bridge","type":"place_of_worship"},{"id":"xx249301_670209","name":"مسجد بلال","lat":24.930105,"lng":67.020876,"addr":"کراچی","type":"place_of_worship"},{"id":"xx249116_670298","name":"Nazimabad Eid Gah Ground","lat":24.911623,"lng":67.029808,"addr":"Nawab Siddique Ali Khan Road","type":"place_of_worship"},{"id":"xx249027_671079","name":"Muhammadi Masjid","lat":24.902663,"lng":67.10787,"addr":"Zaid Khan RD","type":"place_of_worship"},{"id":"xx248542_670888","name":"Al Mukhtar Masjid","lat":24.854194,"lng":67.088774,"addr":"Karachi","type":"place_of_worship"},{"id":"xx248535_670873","name":"Masjid Ibrahim","lat":24.853499,"lng":67.087287,"addr":"Karachi","type":"place_of_worship"},{"id":"xx248541_670854","name":"Darul Ehsan","lat":24.854076,"lng":67.085441,"addr":"Karachi","type":"place_of_worship"},{"id":"xx248559_670855","name":"Hira Masjid","lat":24.85589,"lng":67.085533,"addr":"Karachi","type":"place_of_worship"},{"id":"xx248557_670879","name":"Al-Irfan","lat":24.855676,"lng":67.087934,"addr":"Karachi","type":"place_of_worship"},{"id":"xx248085_670379","name":"Bilal Masjid- Tauheed Commercial","lat":24.808533,"lng":67.037912,"addr":"Karachi","type":"place_of_worship"},{"id":"xx248267_670696","name":"Umar bin Abdul Aziz Mosque","lat":24.826704,"lng":67.069609,"addr":"19th Lane","type":"place_of_worship"},{"id":"xx249138_671036","name":"Jamia Masjid Umar Farooq","lat":24.913775,"lng":67.103572,"addr":"Rashid Minhas Road","type":"place_of_worship"},{"id":"xx248947_670611","name":"Faizan e Madina","lat":24.894741,"lng":67.061133,"addr":"University Road","type":"place_of_worship"},{"id":"xx248933_670619","name":"Rabbani Jama","lat":24.893348,"lng":67.061906,"addr":"University Road","type":"place_of_worship"},{"id":"xx248718_670884","name":"Masjid E Aqsa Shahrah E faisal","lat":24.871775,"lng":67.088434,"addr":"Sef Service Road N","type":"place_of_worship"},{"id":"xx248706_670845","name":"bangalore Town Jamia Masjid","lat":24.870567,"lng":67.084504,"addr":"Syedna Yousuf Road","type":"place_of_worship"},{"id":"xx249086_670884","name":"Usman Ghani Masjid","lat":24.908571,"lng":67.088376,"addr":"Ansari Saab Road","type":"place_of_worship"},{"id":"xx249109_670853","name":"Masjid-e-Quba","lat":24.91088,"lng":67.085299,"addr":"University Road","type":"place_of_worship"},{"id":"xx249200_670638","name":"Madni","lat":24.920014,"lng":67.063799,"addr":"Hussainabad Street","type":"place_of_worship"},{"id":"xx249299_670765","name":"Imam Bargah Masoomeen","lat":24.929889,"lng":67.076512,"addr":"Karachi","type":"place_of_worship"},{"id":"xx249266_670670","name":"Farooq-e-Azam","lat":24.926648,"lng":67.067024,"addr":"Shahrah-e-Jahangir","type":"place_of_worship"},{"id":"xx249338_670853","name":"jama Masjid Umer Farooq","lat":24.933839,"lng":67.085316,"addr":"Rashid Minhas Road","type":"place_of_worship"},{"id":"xx249392_670847","name":"Masjid-O-Imambargah Al-Mohsin Hall","lat":24.93922,"lng":67.084712,"addr":"Rashid Minhas Road","type":"place_of_worship"},{"id":"xx249415_670855","name":"Gulshane Amin","lat":24.941452,"lng":67.085495,"addr":"Rashid Minhas Road","type":"place_of_worship"},{"id":"xx249547_670770","name":"Masjid E Aqsa","lat":24.954663,"lng":67.077044,"addr":"Rashid Minhas Road","type":"place_of_worship"},{"id":"xx249046_670772","name":"Ibrahim Masjid","lat":24.90464,"lng":67.077195,"addr":"University Road","type":"place_of_worship"},{"id":"xx248753_671888","name":"Imam Abu Hanifa Masjid","lat":24.875326,"lng":67.188793,"addr":"National Highway","type":"place_of_worship"},{"id":"xx248746_671890","name":"Jama Masjid Ali Murtaza","lat":24.874604,"lng":67.188967,"addr":"National Highway","type":"place_of_worship"},{"id":"xx248732_671902","name":"Al-Mustafa Masjid","lat":24.873244,"lng":67.190211,"addr":"National Highway","type":"place_of_worship"},{"id":"xx248727_671924","name":"Al Amin Jamia Masjid","lat":24.872744,"lng":67.192437,"addr":"National Highway","type":"place_of_worship"},{"id":"xx248720_671873","name":"Taj Masjid","lat":24.87201,"lng":67.187254,"addr":"Karachi","type":"place_of_worship"},{"id":"xx248742_671870","name":"Anwar-e-Taiba Masjid","lat":24.87425,"lng":67.187016,"addr":"Old Jamia Millia Road","type":"place_of_worship"},{"id":"xx248731_671869","name":"Masjid Bab-e-Rahmat","lat":24.873127,"lng":67.186924,"addr":"Old Jamia Millia Road","type":"place_of_worship"},{"id":"xx248738_671845","name":"Abdullah Murad Shaheed Masjid","lat":24.873814,"lng":67.184501,"addr":"Old Jamia Millia Road","type":"place_of_worship"},{"id":"xx248716_671804","name":"جامع مسجد","lat":24.8716,"lng":67.180354,"addr":"Old Jamia Millia Road","type":"place_of_worship"},{"id":"xx248753_671783","name":"Jamia Masjid Farooq E Azam","lat":24.875325,"lng":67.17831,"addr":"Jamia Milla Road","type":"place_of_worship"},{"id":"xx248919_671845","name":"Siddique Akbar Masjid","lat":24.891851,"lng":67.184456,"addr":"Jinnah Avenue","type":"place_of_worship"},{"id":"xx248941_671855","name":"Chishtia Masjid","lat":24.89415,"lng":67.185547,"addr":"Jinnah Avenue","type":"place_of_worship"},{"id":"xx248957_671878","name":"Abdaal Masjid","lat":24.895657,"lng":67.187754,"addr":"Moinabad Road","type":"place_of_worship"},{"id":"xx248972_671868","name":"Rehmania Masjid","lat":24.897174,"lng":67.186821,"addr":"Moinabad Road","type":"place_of_worship"},{"id":"xx248946_671839","name":"Jamia Masjid Madni","lat":24.894562,"lng":67.183874,"addr":"Moinabad Road","type":"place_of_worship"},{"id":"xx248984_671815","name":"Jama Masjid Bab-e-Rehmat","lat":24.89841,"lng":67.181495,"addr":"Moinabad Road","type":"place_of_worship"},{"id":"xx249019_671817","name":"Amin Masjid","lat":24.901873,"lng":67.18167,"addr":"Jinnah Avenue","type":"place_of_worship"},{"id":"xx249009_671868","name":"Al Ashraf Masjid","lat":24.900862,"lng":67.186827,"addr":"Hashim Raza Road","type":"place_of_worship"},{"id":"xx248991_671899","name":"Jame Masjid Umar Bin Khattab (RA)","lat":24.899093,"lng":67.189931,"addr":"Hashim Raza Road","type":"place_of_worship"},{"id":"xx249026_671858","name":"Madina Mosque","lat":24.902596,"lng":67.18583,"addr":"Saudabad Road","type":"place_of_worship"},{"id":"xx249021_671905","name":"Alamgir Masjid Model Colony","lat":24.90206,"lng":67.19052,"addr":"Saudabad Road","type":"mosque"},{"id":"xx249014_671936","name":"Rabbani Jamia Masjid","lat":24.901424,"lng":67.193587,"addr":"Saudabad Road","type":"place_of_worship"},{"id":"xx249103_671964","name":"Faryal Masjid","lat":24.910256,"lng":67.196391,"addr":"Street 24","type":"place_of_worship"},{"id":"xx249062_671926","name":"Masjid Ibrahim","lat":24.906234,"lng":67.192602,"addr":"Sunny Street","type":"place_of_worship"},{"id":"xx249103_671866","name":"Masjid-e-Hira","lat":24.910295,"lng":67.186619,"addr":"University Road;Jinnah Avenue","type":"place_of_worship"},{"id":"xx249069_671840","name":"Madni Masjid","lat":24.906852,"lng":67.184012,"addr":"Jinnah Avenue","type":"place_of_worship"},{"id":"xx249060_671906","name":"Warsi Mosque","lat":24.906026,"lng":67.190572,"addr":"Street 20","type":"place_of_worship"},{"id":"xx249048_671903","name":"Masjid Abu Bakr al Siddique","lat":24.904788,"lng":67.190293,"addr":"Street 20","type":"place_of_worship"},{"id":"xx249109_671928","name":"Faiz e Muhammadi Masjid","lat":24.910928,"lng":67.192795,"addr":"Khadim Ave","type":"place_of_worship"},{"id":"xx249118_671967","name":"Hafsa Masjid","lat":24.911832,"lng":67.196703,"addr":"Main Road","type":"place_of_worship"},{"id":"xx249087_671912","name":"Masjid Baqiat Ullah","lat":24.908662,"lng":67.191245,"addr":"Khadim Ave","type":"place_of_worship"},{"id":"xx248859_671848","name":"Madina Mosque","lat":24.885934,"lng":67.184811,"addr":"Fatima Road","type":"place_of_worship"},{"id":"xx248844_671853","name":"Jamia Masjid Chistiya","lat":24.88439,"lng":67.185259,"addr":"Fatima Road","type":"place_of_worship"},{"id":"xx248839_671890","name":"Jamia Masjid Tooba","lat":24.883942,"lng":67.189047,"addr":"Khulfa-e-Rashideen Chowk Road","type":"place_of_worship"},{"id":"xx249253_670540","name":"Masjid-e-Darus Salaam","lat":24.92528,"lng":67.053984,"addr":"Josh Malih Abadi Road","type":"place_of_worship"},{"id":"xx249326_670589","name":"Noor","lat":24.932559,"lng":67.0589,"addr":"Shahrah-e-Jahangir","type":"place_of_worship"},{"id":"xx249085_670631","name":"Baloch","lat":24.908544,"lng":67.063106,"addr":"Sir Shah Muhammad Suleman Road","type":"place_of_worship"},{"id":"xx249026_670614","name":"Jamia Memon Masjid Bantva Nagar","lat":24.90257,"lng":67.061365,"addr":"Lyari Express Way","type":"place_of_worship"},{"id":"xx248999_670595","name":"Hanfia Masjid","lat":24.899862,"lng":67.05947,"addr":"Lyari Expy","type":"place_of_worship"},{"id":"xx248979_670610","name":"Islamic place","lat":24.897931,"lng":67.061024,"addr":"","type":"place_of_worship"},{"id":"xx249868_670670","name":"mr cone icecream","lat":24.986812,"lng":67.066994,"addr":"Service Road","type":"place_of_worship"},{"id":"xx249877_670680","name":"Jam-e-Masjid Rizwan","lat":24.987734,"lng":67.067977,"addr":"Service Road","type":"place_of_worship"},{"id":"xx249836_670674","name":"Jama E Masjid Allah wali","lat":24.983564,"lng":67.067406,"addr":"Sher Shah Suri road","type":"place_of_worship"},{"id":"xx249832_670640","name":"Masjid Siddiq-e-Akbar","lat":24.983171,"lng":67.063962,"addr":"Sher Shah Suri road","type":"place_of_worship"},{"id":"xx249825_670548","name":"Islamic place","lat":24.982547,"lng":67.054848,"addr":"Shahrah Noor Jahan","type":"place_of_worship"},{"id":"xx249810_670534","name":"مسجد بلال","lat":24.981031,"lng":67.053428,"addr":"Shahrah Noor Jahan","type":"place_of_worship"},{"id":"xx248842_671808","name":"Darakshan Eid Gah","lat":24.884206,"lng":67.180761,"addr":"Nisa Street","type":"place_of_worship"},{"id":"xx248897_671871","name":"Jama Masjid Mustafa","lat":24.889658,"lng":67.187071,"addr":"Begum Khursheed Road","type":"place_of_worship"},{"id":"xx248916_671894","name":"Jama Masjid Qadria,Malir","lat":24.891632,"lng":67.189381,"addr":"Begum Khursheed Road","type":"place_of_worship"},{"id":"xx249006_672014","name":"Darul Uloom Qadria Razvia","lat":24.900603,"lng":67.201414,"addr":"Begum Khursheed Road","type":"place_of_worship"},{"id":"xx248984_671995","name":"Baeza Masjid","lat":24.898433,"lng":67.199484,"addr":"Model Colony Road","type":"place_of_worship"},{"id":"xx248954_671990","name":"Masjid Quba","lat":24.895439,"lng":67.199032,"addr":"Begum Khursheed Road","type":"place_of_worship"},{"id":"xx248938_671980","name":"Farooqi Masjid","lat":24.893825,"lng":67.19796,"addr":"Begum Khursheed Road","type":"place_of_worship"},{"id":"xx248962_671974","name":"Noorani","lat":24.896193,"lng":67.197424,"addr":"Begum Khursheed Road","type":"mosque"},{"id":"xx248922_671987","name":"Ghausia Masjid","lat":24.892217,"lng":67.19873,"addr":"Begum Khursheed Road","type":"place_of_worship"},{"id":"xx248998_671957","name":"Masjid O Imam Bargah Hussaini Sifarat Khana.","lat":24.899791,"lng":67.195716,"addr":"Begum Khursheed Road","type":"place_of_worship"},{"id":"xx248828_670681","name":"Saylani Welfare Masjid","lat":24.88281,"lng":67.068086,"addr":"Bahadurabad","type":"place_of_worship"},{"id":"xx248883_671858","name":"Jamia Masjid Hussaini and Imambargah Darbar-e-Hussaini","lat":24.888288,"lng":67.185764,"addr":"Begum Khursheed Road","type":"place_of_worship"},{"id":"xx248934_671891","name":"Moti Masjid","lat":24.893355,"lng":67.189059,"addr":"Begum Khursheed Road","type":"place_of_worship"},{"id":"xx248970_671935","name":"Jamia Rasheedia","lat":24.897024,"lng":67.193535,"addr":"Begum Khursheed Road","type":"place_of_worship"},{"id":"xx249031_671994","name":"Farooqi Masjid DarulUloom","lat":24.903123,"lng":67.199386,"addr":"Begum Khursheed Road","type":"place_of_worship"},{"id":"xx249047_672038","name":"Kausar Mosque","lat":24.90467,"lng":67.203801,"addr":"Begum Khursheed Road","type":"place_of_worship"},{"id":"xx249078_672069","name":"Jama Masjid ALMUSTAFA","lat":24.907831,"lng":67.206927,"addr":"Karachi","type":"place_of_worship"},{"id":"xx249092_672100","name":"Gilanabad Mosque","lat":24.90915,"lng":67.210032,"addr":"Karachi","type":"place_of_worship"},{"id":"xx249084_672111","name":"Tauheed Masjid , malir khokhrapar","lat":24.908366,"lng":67.211089,"addr":"Karachi","type":"place_of_worship"},{"id":"xx249087_672120","name":"Masjid ul Muslimeen, Markaz Jamaat-ul-Muslimeen","lat":24.908659,"lng":67.211965,"addr":"Karachi","type":"place_of_worship"},{"id":"xx249014_672005","name":"Babul Islam Masjid","lat":24.901416,"lng":67.200469,"addr":"Begum Khursheed Road","type":"place_of_worship"},{"id":"xx249025_672037","name":"Al Habib Masjid","lat":24.902518,"lng":67.203707,"addr":"Liaqat Road","type":"place_of_worship"},{"id":"xx249031_672017","name":"Madni Masjid Indus Mehran","lat":24.903092,"lng":67.2017,"addr":"Begum Khursheed Road","type":"place_of_worship"},{"id":"xx249045_672071","name":"Jama Masjid Tawheed","lat":24.904463,"lng":67.207106,"addr":"Liaqat Road","type":"place_of_worship"},{"id":"xx249057_672088","name":"Allah Wali Masjid","lat":24.905661,"lng":67.208839,"addr":"Liaqat Road","type":"place_of_worship"},{"id":"xx249076_672117","name":"Masjid e Toheed, Khokarapar 2 1/2","lat":24.907578,"lng":67.211675,"addr":"Liaqat Road","type":"place_of_worship"},{"id":"xx249089_672163","name":"Madina Masjid","lat":24.908929,"lng":67.216295,"addr":"Liaqat Road","type":"place_of_worship"},{"id":"xx249068_672179","name":"Jamia Masjid-e-Rabbani","lat":24.906776,"lng":67.217857,"addr":"Liaqat Road","type":"place_of_worship"},{"id":"xx249072_672218","name":"Jamia Masjid Ghosia","lat":24.907153,"lng":67.22183,"addr":"Karachi","type":"place_of_worship"},{"id":"xx249105_672243","name":"Nadi Kinara Masjid","lat":24.910548,"lng":67.224315,"addr":"Memon Goth Road","type":"place_of_worship"},{"id":"xx249058_672177","name":"Imam Bargh Bait-ul-Azha","lat":24.905754,"lng":67.217708,"addr":"Liaqat Road","type":"place_of_worship"},{"id":"xx249052_672158","name":"Jamia Masjid Ameer Hamza","lat":24.905177,"lng":67.215824,"addr":"Liaqat Road","type":"place_of_worship"},{"id":"xx249046_672162","name":"Muhammadi Masjid","lat":24.904574,"lng":67.216175,"addr":"Liaqat Road","type":"place_of_worship"},{"id":"xx249017_672194","name":"Jama Masjid Wazir Begham","lat":24.90168,"lng":67.219406,"addr":"Karachi","type":"place_of_worship"},{"id":"xx249028_672091","name":"Masjid O Imam Bargah Hydri mission","lat":24.902823,"lng":67.20908,"addr":"Liaqat Road","type":"place_of_worship"},{"id":"xx249016_672096","name":"madina mosque","lat":24.901603,"lng":67.209625,"addr":"Liaqat Road","type":"place_of_worship"},{"id":"xx248969_672161","name":"Jama Masjid Qadimia","lat":24.896929,"lng":67.216147,"addr":"Karachi","type":"place_of_worship"},{"id":"xx248981_672141","name":"Mustafa Masjid","lat":24.898108,"lng":67.214122,"addr":"Karachi","type":"place_of_worship"},{"id":"xx248989_672120","name":"Firdous Mosque","lat":24.89894,"lng":67.211956,"addr":"Khokhrapar Dak khana Road","type":"place_of_worship"},{"id":"xx249006_672070","name":"Aqsa mosque","lat":24.900628,"lng":67.207001,"addr":"Kamran Matloob Hussain Road","type":"place_of_worship"},{"id":"xx248990_672033","name":"Jamia Masjid Betul Mukarram","lat":24.899034,"lng":67.203301,"addr":"Kamran Matloob Hussain Road","type":"place_of_worship"},{"id":"xx248964_672014","name":"Masjid Ali Bin Abee Talib","lat":24.89635,"lng":67.20137,"addr":"Begum Khursheed Road","type":"place_of_worship"},{"id":"xx248927_672023","name":"مسجد بلال","lat":24.892686,"lng":67.202346,"addr":"Begum Khursheed Road","type":"place_of_worship"},{"id":"xx248956_672099","name":"Jama Masjid Madina","lat":24.895583,"lng":67.209896,"addr":"Khokhrapar Dak khana Road","type":"place_of_worship"},{"id":"xx248935_672086","name":"NOORANI MASJID","lat":24.893465,"lng":67.20863,"addr":"Karachi","type":"place_of_worship"},{"id":"xx248916_671954","name":"Tayyaba Masjid","lat":24.891637,"lng":67.195449,"addr":"Begum Khursheed Road","type":"place_of_worship"},{"id":"xx248901_671989","name":"Jamia Masjid Faizan-e-Zamzam","lat":24.890145,"lng":67.198868,"addr":"Begum Khursheed Road","type":"place_of_worship"},{"id":"xx248914_672005","name":"Hanfia Masjid and Madrasah","lat":24.891364,"lng":67.200471,"addr":"Begum Khursheed Road","type":"place_of_worship"},{"id":"xx248887_672007","name":"Imambargah Salman Farsi","lat":24.888653,"lng":67.200682,"addr":"Begum Khursheed Road","type":"place_of_worship"},{"id":"xx248885_672009","name":"Masjid Hazrat Khadeeja Tul Kubra","lat":24.888498,"lng":67.200917,"addr":"Begum Khursheed Road","type":"place_of_worship"},{"id":"xx248897_672054","name":"Masjid Batha","lat":24.889743,"lng":67.205411,"addr":"Karachi","type":"place_of_worship"},{"id":"xx248893_672075","name":"Masjid Rahmatul-lil-Alameen","lat":24.889267,"lng":67.207538,"addr":"Karachi","type":"place_of_worship"},{"id":"xx248837_672045","name":"Ali Bin Abe-Talib Mosque","lat":24.883658,"lng":67.204531,"addr":"Karachi","type":"place_of_worship"},{"id":"xx248844_672017","name":"Masjid O Imambargah Babul Hawaij","lat":24.884437,"lng":67.201737,"addr":"Pir Mahfooz Ali Road","type":"place_of_worship"},{"id":"xx248841_672020","name":"Dargah Qazi Syed Turab Ali Nizami","lat":24.884069,"lng":67.202035,"addr":"Pir Mahfooz Ali Road","type":"shrine"},{"id":"xx248819_672049","name":"Noor Mosque Ghazi Town","lat":24.881934,"lng":67.204882,"addr":"Pir Mahfooz Ali Road","type":"place_of_worship"},{"id":"xx248809_672015","name":"Jamia Mosque Fatima","lat":24.880929,"lng":67.201527,"addr":"Bakra Peri Road","type":"place_of_worship"},{"id":"xx248786_671980","name":"Jamay Masjid Noorani","lat":24.878602,"lng":67.19802,"addr":"Bakra Peri Road","type":"place_of_worship"},{"id":"xx248791_671959","name":"Jamay Masjid-e-Tayabba","lat":24.879054,"lng":67.195891,"addr":"Bakra Peri Road","type":"place_of_worship"},{"id":"xx248833_671961","name":"Hasnain Mosque","lat":24.883269,"lng":67.196084,"addr":"Pir Mahfooz Ali Road","type":"place_of_worship"},{"id":"xx248842_671996","name":"Markazi Imambargah Jaffer e Tayyar Society","lat":24.884164,"lng":67.199606,"addr":"Pir Mahfooz Ali Road","type":"place_of_worship"},{"id":"xx248819_670647","name":"Ali Masjid","lat":24.881941,"lng":67.064744,"addr":"Bmchs Road No 3","type":"place_of_worship"},{"id":"xx248834_670659","name":"Jama Masjid Bahar e Shariat","lat":24.883363,"lng":67.065885,"addr":"Alamgir Road","type":"place_of_worship"},{"id":"xx248875_671977","name":"Jama Masjid Muhammadi","lat":24.887477,"lng":67.197676,"addr":"Begum Khursheed Road","type":"place_of_worship"},{"id":"xx248825_671921","name":"Masjid Aqsa","lat":24.882452,"lng":67.192053,"addr":"Khulfa-e-Rashideen Chowk Road","type":"place_of_worship"},{"id":"xx248824_671925","name":"Hanfia Masjid","lat":24.882391,"lng":67.192531,"addr":"Khulfa-e-Rashideen Chowk Road","type":"place_of_worship"},{"id":"xx248942_671909","name":"Lal Masjid","lat":24.894238,"lng":67.19092,"addr":"Begum Khursheed Road","type":"place_of_worship"},{"id":"xx248829_671901","name":"Jamia Masjid Qadria","lat":24.882855,"lng":67.19005,"addr":"Khulfa-e-Rashideen Chowk Road","type":"place_of_worship"},{"id":"xx248828_671863","name":"Jamia Masjid Ghausia","lat":24.88283,"lng":67.186336,"addr":"Fatima Road","type":"place_of_worship"},{"id":"xx248825_671857","name":"Darakshan Society Eid Gha Mosque","lat":24.882486,"lng":67.185655,"addr":"Fatima Road","type":"place_of_worship"},{"id":"xx249296_672066","name":"Masjid Ul Furqan","lat":24.9296,"lng":67.206637,"addr":"X20 Roundabout","type":"place_of_worship"},{"id":"xx249315_672030","name":"Masjid e Jaffari","lat":24.931467,"lng":67.203026,"addr":"Fouji Road","type":"place_of_worship"},{"id":"xx249258_672040","name":"Malir Cantt Masjid","lat":24.92577,"lng":67.203956,"addr":"Mallir Cantt Road","type":"place_of_worship"},{"id":"xx249290_672086","name":"AlKhair Mosque","lat":24.929004,"lng":67.208566,"addr":"Karachi","type":"place_of_worship"},{"id":"xx249386_672008","name":"Masjid Tufail","lat":24.938634,"lng":67.200772,"addr":"Tufail Shaheed Road","type":"place_of_worship"},{"id":"xx249611_671889","name":"Masjid-e-Tayaba","lat":24.961134,"lng":67.188861,"addr":"Street 6","type":"place_of_worship"},{"id":"xx248824_671523","name":"Noor Masjid","lat":24.882436,"lng":67.152269,"addr":"3 Number Chowrangi","type":"place_of_worship"},{"id":"xx248849_671397","name":"Rahguzar Masjid","lat":24.884924,"lng":67.139705,"addr":"Shahrah e Faisal","type":"place_of_worship"},{"id":"xx248840_671368","name":"Markazi Jamia Masjid","lat":24.883968,"lng":67.13676,"addr":"Shahrah e Faisal","type":"place_of_worship"},{"id":"xx248849_671436","name":"Jamia Masjid Taj Center","lat":24.884867,"lng":67.143564,"addr":"Shahrah e Faisal","type":"place_of_worship"},{"id":"xx248846_671453","name":"Faizan e Jamal e Mustafa Masjid","lat":24.884621,"lng":67.145266,"addr":"Shahrah e Faisal","type":"place_of_worship"},{"id":"xx248809_671461","name":"Jama Masjid Ghousia","lat":24.880937,"lng":67.146144,"addr":"Shahrah e Faisal","type":"place_of_worship"},{"id":"xx248813_671399","name":"Jamia Masjid Usmania","lat":24.881266,"lng":67.139938,"addr":"Shahrah e Faisal","type":"place_of_worship"},{"id":"xx248801_671396","name":"Masjid O Imambargah Hussaini Mission","lat":24.880089,"lng":67.139564,"addr":"Azeem Pura Road","type":"place_of_worship"},{"id":"xx248794_671402","name":"Jamia Masjid Hanfia","lat":24.879364,"lng":67.140203,"addr":"Azeem Pura Road","type":"place_of_worship"},{"id":"xx248794_671358","name":"Jamia Masjid Chishtia","lat":24.879412,"lng":67.135758,"addr":"Azeem Pura Road","type":"place_of_worship"},{"id":"xx247954_670433","name":"Mubarak Masjid","lat":24.795396,"lng":67.043323,"addr":"32nd Street","type":"place_of_worship"},{"id":"xx248375_670945","name":"Masjid Aisha","lat":24.837535,"lng":67.094504,"addr":"Karachi","type":"place_of_worship"},{"id":"xx248426_670978","name":"Mairaj Masjid","lat":24.842573,"lng":67.097816,"addr":"Korangi Industrial Area","type":"place_of_worship"},{"id":"xx248491_670999","name":"Siddiq-e-Akbar Masjid","lat":24.849092,"lng":67.099936,"addr":"Karachi","type":"place_of_worship"},{"id":"xx248471_671030","name":"Farooqia Masjid Madarsah","lat":24.847079,"lng":67.10299,"addr":"Korangi Industrial Area","type":"place_of_worship"},{"id":"xx248466_671047","name":"Masjid Sheikh Inayatullah Shaheed","lat":24.846614,"lng":67.10472,"addr":"Korangi Industrial Area","type":"place_of_worship"},{"id":"xx248473_671072","name":"Jama Anwar Ul Uloom Masjid Madarsah","lat":24.847251,"lng":67.107212,"addr":"Korangi Industrial Area","type":"place_of_worship"},{"id":"xx248483_671054","name":"Usman bin Affan Mosque and Jamia","lat":24.848251,"lng":67.105409,"addr":"Korangi Industrial Area","type":"place_of_worship"},{"id":"xx248522_671045","name":"siddique Masjid","lat":24.852152,"lng":67.104473,"addr":"","type":"place_of_worship"},{"id":"xx248464_671107","name":"Jama Usmania","lat":24.846392,"lng":67.110663,"addr":"Korangi Industrial Area","type":"place_of_worship"},{"id":"xx248461_671120","name":"Masjid Rahmatul Lil Aalameen","lat":24.846133,"lng":67.112004,"addr":"Korangi Industrial Area","type":"place_of_worship"},{"id":"xx248453_671125","name":"Ummul Quran Masjid","lat":24.845314,"lng":67.112471,"addr":"Korangi Industrial Area","type":"place_of_worship"},{"id":"xx248341_671151","name":"Jama Masjid Faizan Chishtia","lat":24.834071,"lng":67.115126,"addr":"Shah Muhammad Road","type":"place_of_worship"},{"id":"xx248392_671203","name":"Jamia Masjid Naqshbandi","lat":24.839154,"lng":67.120306,"addr":"Chumra Chowrangi","type":"place_of_worship"},{"id":"xx248428_671052","name":"Jamia Masjid Ataat","lat":24.842786,"lng":67.105235,"addr":"Korangi Industrial Area","type":"place_of_worship"},{"id":"xx248550_671232","name":"Jama Masjid","lat":24.855022,"lng":67.123246,"addr":"Korangi Industrial Area","type":"place_of_worship"},{"id":"xx248493_671150","name":"Jama Masjid Ameer Moaviya","lat":24.849339,"lng":67.115019,"addr":"Korangi Industrial Area","type":"place_of_worship"},{"id":"xx248483_671153","name":"Khawaja Greeb Nawaz Masjid","lat":24.848262,"lng":67.115313,"addr":"Korangi Industrial Area","type":"place_of_worship"},{"id":"xx248494_671134","name":"Umar bin Khatab Masjid","lat":24.849389,"lng":67.11335,"addr":"Korangi Industrial Area","type":"place_of_worship"},{"id":"xx248469_671130","name":"Naveed Masjid","lat":24.846901,"lng":67.112953,"addr":"Korangi Industrial Area","type":"place_of_worship"},{"id":"xx248433_671167","name":"Qalandari Masjid","lat":24.84332,"lng":67.116719,"addr":"Landhi Road","type":"place_of_worship"},{"id":"xx248266_671029","name":"Jama Majid","lat":24.826568,"lng":67.102933,"addr":"Korangi Road","type":"place_of_worship"},{"id":"xx248229_671076","name":"Mubarak","lat":24.82288,"lng":67.107584,"addr":"Korangi Road","type":"place_of_worship"},{"id":"xx248237_671072","name":"Rehmat","lat":24.823662,"lng":67.107173,"addr":"Korangi Road","type":"place_of_worship"},{"id":"xx248284_671063","name":"Rasheedia Masjid","lat":24.828391,"lng":67.106288,"addr":"Korangi Road","type":"place_of_worship"},{"id":"xx248304_671061","name":"Khadijatul Kubra","lat":24.830427,"lng":67.106064,"addr":"Shah Muhammad Road","type":"place_of_worship"},{"id":"xx248298_671085","name":"Rahmat e Alam","lat":24.829759,"lng":67.108459,"addr":"Shah Muhammad Road","type":"place_of_worship"},{"id":"xx248285_671081","name":"Baithullah","lat":24.828545,"lng":67.10815,"addr":"Korangi Road","type":"place_of_worship"},{"id":"xx248265_671091","name":"Allah Wali","lat":24.826506,"lng":67.109091,"addr":"Korangi Road","type":"place_of_worship"},{"id":"xx248203_671143","name":"دارالسلام","lat":24.820342,"lng":67.11434,"addr":"","type":"place_of_worship"},{"id":"xx248152_671190","name":"Masjid Qasim","lat":24.815165,"lng":67.118991,"addr":"Karachi","type":"place_of_worship"},{"id":"xx248162_671107","name":"Jama Masjid Lal Ten Wala","lat":24.816183,"lng":67.110714,"addr":"Korangi Road","type":"place_of_worship"},{"id":"xx248130_671183","name":"IoBM Mosque","lat":24.813005,"lng":67.118302,"addr":"Korangi Road","type":"place_of_worship"},{"id":"xx248219_671180","name":"Faizan-e-Mustafa","lat":24.821935,"lng":67.118002,"addr":"Landhi Road","type":"place_of_worship"},{"id":"xx248251_671211","name":"Masjid Ghous-e-Azam","lat":24.82513,"lng":67.121076,"addr":"Lucknow Society","type":"place_of_worship"},{"id":"xx248261_671199","name":"Bismillah Masjid","lat":24.82609,"lng":67.119946,"addr":"Landhi","type":"place_of_worship"},{"id":"xx248289_671203","name":"Bab-ul-Islam Masjid","lat":24.828854,"lng":67.120277,"addr":"Karachi","type":"place_of_worship"},{"id":"xx248293_671195","name":"Faizan-e-Bilal Mosque","lat":24.829259,"lng":67.119451,"addr":"Landhi","type":"place_of_worship"},{"id":"xx248314_671210","name":"Tayyaba Masjid","lat":24.831381,"lng":67.120958,"addr":"Shah Muhammad Road","type":"place_of_worship"},{"id":"xx248320_671171","name":"Yousaf Masjid","lat":24.832006,"lng":67.117145,"addr":"Landhi","type":"place_of_worship"},{"id":"xx248315_671243","name":"Noor Masjid","lat":24.831482,"lng":67.124302,"addr":"Shah Muhammad Road","type":"place_of_worship"},{"id":"xx248306_671230","name":"Jama Masjid Wafa","lat":24.830572,"lng":67.122987,"addr":"Shah Muhammad Road","type":"place_of_worship"},{"id":"xx248287_671258","name":"Jamia Masjid Ghausia Rizvia","lat":24.828728,"lng":67.125767,"addr":"Karachi","type":"place_of_worship"},{"id":"xx248212_671277","name":"Ibrahimia Masjid","lat":24.821151,"lng":67.127745,"addr":"Landhi Road","type":"place_of_worship"},{"id":"xx248225_671294","name":"Jama Masjid Ali (R.A) Salafia Wa Madressah Noor Ibrahim Qureshi","lat":24.822518,"lng":67.129385,"addr":"Landhi Road","type":"place_of_worship"},{"id":"xx248239_671272","name":"Jame-e-Masjid Chistiya Raffai","lat":24.823949,"lng":67.127163,"addr":"Landhi Road","type":"place_of_worship"},{"id":"xx248290_671282","name":"Jamia Masjid Quba","lat":24.829049,"lng":67.128186,"addr":"Shah Muhammad Road","type":"place_of_worship"},{"id":"xx248352_671336","name":"Jama Masjid Siddique Akbar","lat":24.835155,"lng":67.13359,"addr":"Shah Muhammad Road","type":"place_of_worship"},{"id":"xx248331_671349","name":"Jamia Masjid Hazrat Ali","lat":24.833091,"lng":67.134876,"addr":"Shah Muhammad Road","type":"place_of_worship"},{"id":"xx248309_671359","name":"Madina Masjid","lat":24.830904,"lng":67.13594,"addr":"Shah Muhammad Road","type":"place_of_worship"},{"id":"xx248289_671358","name":"Jama Musjid Sunahri","lat":24.828905,"lng":67.135781,"addr":"Landhi Road","type":"place_of_worship"},{"id":"xx248291_671332","name":"Raza-e-Mustafa Masjid","lat":24.829114,"lng":67.133203,"addr":"Landhi Road","type":"place_of_worship"},{"id":"xx248242_671313","name":"Jame-e-Masjid Madni (Ghodra wali)","lat":24.824234,"lng":67.131321,"addr":"Landhi Road","type":"place_of_worship"},{"id":"xx248244_671334","name":"مسجد","lat":24.824382,"lng":67.133431,"addr":"Landhi Road","type":"place_of_worship"},{"id":"xx248257_671319","name":"جامع مسجد تاج","lat":24.825662,"lng":67.131866,"addr":"Landhi Road","type":"place_of_worship"},{"id":"xx248237_671356","name":"Usmania Masjid","lat":24.82373,"lng":67.135623,"addr":"Landhi Road","type":"place_of_worship"},{"id":"xx248233_671375","name":"Jama Masjid Sadiq-e-Akbar","lat":24.823311,"lng":67.13754,"addr":"Landhi Road","type":"place_of_worship"},{"id":"xx248572_671309","name":"Jama Masjid Illahi","lat":24.857173,"lng":67.130858,"addr":"Korangi Industrial Area","type":"place_of_worship"},{"id":"xx248568_671376","name":"Jamia Masjid Subhani","lat":24.856844,"lng":67.137637,"addr":"Karachi","type":"place_of_worship"},{"id":"xx248556_671326","name":"Gulzar Rehmat Mosque Gulzar Colony","lat":24.855623,"lng":67.132559,"addr":"Korangi Industrial Area","type":"place_of_worship"},{"id":"xx248552_671343","name":"Noman Masjid Darul Uloom Hadiqa Tul Islam","lat":24.855224,"lng":67.134324,"addr":"Korangi Industrial Area","type":"place_of_worship"},{"id":"xx248525_671349","name":"Allama Banori Masjid","lat":24.852534,"lng":67.134945,"addr":"Korangi Industrial Area","type":"place_of_worship"},{"id":"xx248531_671334","name":"Madina Jama Masjid Bilal Colony","lat":24.853054,"lng":67.133392,"addr":"Korangi Industrial Area","type":"place_of_worship"},{"id":"xx248513_671339","name":"Jama Masjid Hazrat","lat":24.851312,"lng":67.133949,"addr":"Korangi Industrial Area","type":"place_of_worship"},{"id":"xx248486_671351","name":"Rehmania Masjid","lat":24.84861,"lng":67.135143,"addr":"Korangi Industrial Area","type":"place_of_worship"},{"id":"xx248477_671341","name":"Ghosia Masjid","lat":24.847715,"lng":67.134097,"addr":"Korangi Industrial Area","type":"place_of_worship"},{"id":"xx248462_671365","name":"Mutafa Masjid","lat":24.846225,"lng":67.136526,"addr":"Korangi Industrial Area","type":"place_of_worship"},{"id":"xx248484_671418","name":"Ghafooria Masjid","lat":24.848368,"lng":67.141784,"addr":"Korangi Industrial Area","type":"place_of_worship"},{"id":"xx248474_671447","name":"Masjid E Subhan","lat":24.847386,"lng":67.144738,"addr":"Korangi Industrial Area","type":"place_of_worship"},{"id":"xx248145_670721","name":"Masjid Khadiatul Kubra","lat":24.814468,"lng":67.072093,"addr":"Lane 9","type":"place_of_worship"},{"id":"xx248736_670683","name":"Rohil Khand Masjid","lat":24.873553,"lng":67.068298,"addr":"Darul Aman Street 6","type":"place_of_worship"},{"id":"xx249048_671161","name":"Masjid O Imambargah Mehdi Aakhir-uz-Zaman","lat":24.904842,"lng":67.116147,"addr":"Graveyard Road","type":"place_of_worship"},{"id":"xx249046_671160","name":"Harmain Masjid","lat":24.904561,"lng":67.116023,"addr":"Graveyard Road","type":"place_of_worship"},{"id":"xx249045_671147","name":"Farhan Apartment Mosque","lat":24.904492,"lng":67.114728,"addr":"Professor Ghafoor Ahmed Road","type":"place_of_worship"},{"id":"xx249143_671277","name":"دارالصحت مسجد","lat":24.91431,"lng":67.127669,"addr":"Professor Ghafoor Ahmed Road","type":"place_of_worship"},{"id":"xx249211_671354","name":"Al Siddiqui Masjid","lat":24.921132,"lng":67.13544,"addr":"Professor Ghafoor Ahmed Road","type":"place_of_worship"},{"id":"xx249130_671218","name":"Masjid-e-Bilal","lat":24.912961,"lng":67.121798,"addr":"Safari Road","type":"place_of_worship"},{"id":"xx248507_671784","name":"Bismillah Masjid","lat":24.850681,"lng":67.178416,"addr":"Main Korangi Road","type":"place_of_worship"},{"id":"xx248539_671918","name":"Jamia Masjid-e-Tayyaba Jamal Goth","lat":24.853935,"lng":67.191765,"addr":"Main Korangi Road","type":"place_of_worship"},{"id":"xx248536_671947","name":"Jama Masjid Ghousia","lat":24.853582,"lng":67.194678,"addr":"Main Korangi Road","type":"place_of_worship"},{"id":"xx248550_671977","name":"Jamia Masjid Bait Ul Mukaram","lat":24.85504,"lng":67.197727,"addr":"Main Korangi Road","type":"place_of_worship"},{"id":"xx248549_671999","name":"Madina Masjid Gunbad Wali","lat":24.854931,"lng":67.199942,"addr":"Main Korangi Road","type":"place_of_worship"},{"id":"xx248546_672022","name":"Makah Jamia Masjid","lat":24.854598,"lng":67.202186,"addr":"Main Korangi Road","type":"place_of_worship"},{"id":"xx248928_671030","name":"Masjid Rehman","lat":24.892815,"lng":67.103044,"addr":"NHS Karsaz Road","type":"place_of_worship"},{"id":"xx248927_670970","name":"Mehran Masjid","lat":24.892715,"lng":67.097032,"addr":"Pns Karsaz Road","type":"place_of_worship"},{"id":"xx249353_671325","name":"SZIC Masjid","lat":24.935254,"lng":67.132549,"addr":"University Road","type":"place_of_worship"},{"id":"xx249367_671403","name":"Jamia Masjid Al-Rahim Trust","lat":24.936654,"lng":67.140321,"addr":"Suparco Rd","type":"place_of_worship"},{"id":"xx249287_671387","name":"Mosque Mughal Hazara","lat":24.928656,"lng":67.138692,"addr":"Johar Road","type":"place_of_worship"},{"id":"xx248225_670800","name":"Zubair Masjid","lat":24.822479,"lng":67.080044,"addr":"Khayaban e Aziz Bhatti Shaheed","type":"place_of_worship"},{"id":"xx248894_670676","name":"PTV MOSQUE","lat":24.889446,"lng":67.067592,"addr":"Shahzad Khalil Road","type":"place_of_worship"},{"id":"xx249265_671397","name":"Ghausia Masjid","lat":24.92646,"lng":67.139684,"addr":"Abul Asar Hafeez Jalandhari Road","type":"place_of_worship"},{"id":"xx248891_671523","name":"CAA Colony Masjid","lat":24.88914,"lng":67.152296,"addr":"P.I.A F.O Link Road","type":"place_of_worship"},{"id":"xx249291_671776","name":"Tipu Sultan Mosque","lat":24.929081,"lng":67.177638,"addr":"Malir Link to Super Hwy","type":"place_of_worship"},{"id":"xx249423_671589","name":"KESC Community Centre and Mosque","lat":24.942318,"lng":67.158865,"addr":"Khizar Ave","type":"place_of_worship"},{"id":"xx249345_671491","name":"Jame' Masjid Ta'aha","lat":24.934509,"lng":67.149113,"addr":"Gulistan e jauhar Malir Cantt Road","type":"place_of_worship"},{"id":"xx249283_671536","name":"Ashaab e sufha Masjid","lat":24.928327,"lng":67.153634,"addr":"Gulistan e jauhar Malir Cantt Road","type":"place_of_worship"},{"id":"xx248878_670692","name":"Quba Masjid","lat":24.887836,"lng":67.06922,"addr":"Suleman Bilwani Rd","type":"place_of_worship"},{"id":"xx248858_670725","name":"Na Khuda","lat":24.885821,"lng":67.072517,"addr":"Ameen Noorani Street","type":"place_of_worship"},{"id":"xx248732_670734","name":"Fatehpuri Mosque","lat":24.87318,"lng":67.073393,"addr":"Lal Muhammad Chaudary Rd","type":"place_of_worship"},{"id":"xx248737_670742","name":"Union Mosque","lat":24.873674,"lng":67.074186,"addr":"Shaheed-e-Millat Service Rd","type":"place_of_worship"},{"id":"xx248353_670721","name":"Al Rehman Masjid","lat":24.835327,"lng":67.072101,"addr":"Street No 4","type":"place_of_worship"},{"id":"xx248844_670579","name":"Pahardi Wali Masjid","lat":24.884443,"lng":67.057936,"addr":"Shaheed e Millat Road","type":"place_of_worship"},{"id":"xx248436_670400","name":"چھاؤنی اسٹیشن مسجد","lat":24.843561,"lng":67.039989,"addr":"کراچی","type":"place_of_worship"},{"id":"xx248809_670601","name":"Madni","lat":24.880861,"lng":67.060136,"addr":"Union Road No 3","type":"place_of_worship"},{"id":"xx249161_670998","name":"Jamia Masjid Gulzaar-e-Madina","lat":24.91612,"lng":67.099754,"addr":"Rashid Minhas Road","type":"place_of_worship"},{"id":"xx248841_670518","name":"Rehmania","lat":24.88407,"lng":67.051802,"addr":"M.A.Jinnah Road Extension","type":"place_of_worship"},{"id":"xx248837_670528","name":"Aqsa","lat":24.883723,"lng":67.052787,"addr":"M.A.Jinnah Road Extension","type":"place_of_worship"},{"id":"xx248798_670522","name":"Rehmania Masjid KMC","lat":24.879788,"lng":67.052204,"addr":"Aisha Aziz Road","type":"place_of_worship"},{"id":"xx248861_670513","name":"Laal","lat":24.886101,"lng":67.051306,"addr":"Jamshad Road","type":"place_of_worship"},{"id":"xx248856_670540","name":"Makkah","lat":24.885586,"lng":67.054006,"addr":"Achar Gali","type":"place_of_worship"},{"id":"xx248848_670538","name":"Memon","lat":24.884782,"lng":67.053772,"addr":"Achar Gali","type":"place_of_worship"},{"id":"xx248904_670510","name":"Faran Idara Al Faizan","lat":24.890421,"lng":67.050972,"addr":"Martin","type":"place_of_worship"},{"id":"xx248860_670285","name":"Makkah","lat":24.885983,"lng":67.028509,"addr":"Grace Street","type":"place_of_worship"},{"id":"xx248883_670283","name":"Masoom Shah","lat":24.888284,"lng":67.028342,"addr":"Lyari Expressway","type":"place_of_worship"},{"id":"xx248848_670323","name":"Fatima","lat":24.884754,"lng":67.032322,"addr":"Abraham St, Garden East","type":"place_of_worship"},{"id":"xx248839_670355","name":"Subhani","lat":24.88394,"lng":67.03554,"addr":", 491 Violet St, Garden East Patel Para,","type":"place_of_worship"},{"id":"xx248866_670478","name":"Ahmadia","lat":24.886643,"lng":67.04783,"addr":"Cummings Road","type":"place_of_worship"},{"id":"xx248888_670616","name":"Rehmania","lat":24.888769,"lng":67.061581,"addr":"Stadium Road","type":"place_of_worship"},{"id":"xx248901_670639","name":"صادق الاسلام","lat":24.890104,"lng":67.063948,"addr":"اسٹیڈیم روڈ","type":"place_of_worship"},{"id":"xx248987_670964","name":"Masjid-e-Jabal","lat":24.898709,"lng":67.096399,"addr":"Stadium Road","type":"place_of_worship"},{"id":"xx249000_670935","name":"Masjid-e-Umar","lat":24.899951,"lng":67.093526,"addr":"Stadium Road","type":"place_of_worship"},{"id":"xx249027_670980","name":"Zainab Masjid","lat":24.90265,"lng":67.098012,"addr":"Dalmia Road","type":"place_of_worship"},{"id":"xx249052_670999","name":"Char Minar Masjid","lat":24.905154,"lng":67.099932,"addr":"Dalmia Road","type":"place_of_worship"},{"id":"xx249045_670961","name":"Jamia Masjid Zia Ul Islam","lat":24.904498,"lng":67.096127,"addr":"Dalmia Road","type":"place_of_worship"},{"id":"xx249031_670969","name":"Madina Masjid","lat":24.903061,"lng":67.096871,"addr":"Dalmia Road","type":"place_of_worship"},{"id":"xx249070_670947","name":"Siduique Akbar","lat":24.906993,"lng":67.094656,"addr":"Gulshan e Iqbal Block 19","type":"place_of_worship"},{"id":"xx248978_670700","name":"Al Rizwan Masjid;Sindh Building Control Authority","lat":24.897784,"lng":67.069964,"addr":"University Road","type":"place_of_worship"},{"id":"xx248647_672929","name":"Jamia Masjid Faizan-e-Madina","lat":24.864676,"lng":67.292881,"addr":"National Highway","type":"place_of_worship"},{"id":"xx248561_672667","name":"Jamia Masjid Aqsa","lat":24.856123,"lng":67.266725,"addr":"National Highway","type":"place_of_worship"},{"id":"xx248503_672678","name":"Shuhada-e-Islam","lat":24.850295,"lng":67.267758,"addr":"National Highway","type":"place_of_worship"},{"id":"xx248515_672667","name":"Jamia Masjid Suleman","lat":24.851482,"lng":67.266736,"addr":"National Highway","type":"place_of_worship"},{"id":"xx248662_672828","name":"Madni Masjid","lat":24.866174,"lng":67.282782,"addr":"National Highway","type":"place_of_worship"},{"id":"xx248665_672807","name":"مسجد التوبة","lat":24.866543,"lng":67.280669,"addr":"National Highway","type":"place_of_worship"},{"id":"xx248413_672663","name":"Jaamia Muhammadi Masjid Ahel E Hadees Odh Basti","lat":24.841308,"lng":67.26629,"addr":"National Highway","type":"place_of_worship"},{"id":"xx248398_672668","name":"ALLAH wali masjid","lat":24.839817,"lng":67.266803,"addr":"Mehran Highway","type":"place_of_worship"},{"id":"xx248394_672659","name":"Jamia Masjid Bilal Ahle Hadees","lat":24.839368,"lng":67.265931,"addr":"Mehran Highway","type":"place_of_worship"},{"id":"xx248362_672567","name":"Islamic place","lat":24.836226,"lng":67.256698,"addr":"","type":"place_of_worship"},{"id":"xx248651_672653","name":"Abo Zar Ghafari Masjid","lat":24.865098,"lng":67.265251,"addr":"National Highway","type":"place_of_worship"},{"id":"xx248654_672636","name":"Umer Farooq Masjid","lat":24.865445,"lng":67.263618,"addr":"National Highway","type":"place_of_worship"},{"id":"xx248609_672617","name":"Darul Uloom Subhaniya Rahimiya","lat":24.86089,"lng":67.261678,"addr":"National Highway","type":"place_of_worship"},{"id":"xx248353_671536","name":"Tayyaba Mosque","lat":24.835294,"lng":67.153608,"addr":"Landhi Road","type":"place_of_worship"},{"id":"xx249153_670619","name":"Suffah","lat":24.915303,"lng":67.061872,"addr":"Hussainbad","type":"place_of_worship"},{"id":"xx247779_670897","name":"کریک وسٹا مسجد","lat":24.77794,"lng":67.089686,"addr":"کراچی","type":"place_of_worship"},{"id":"xx247951_670605","name":"Masjid-e-Ali","lat":24.795055,"lng":67.060522,"addr":"Khayaban e Muhafiz","type":"place_of_worship"},{"id":"xx247884_670496","name":"Masjid Jame ul Quran","lat":24.78837,"lng":67.04964,"addr":"34th Street","type":"place_of_worship"},{"id":"xx248025_670631","name":"Masjid e Saheem","lat":24.802457,"lng":67.063089,"addr":"Khayaban e Rahat","type":"place_of_worship"},{"id":"xx247933_670483","name":"Baqiyat Ullah Imam Bargah","lat":24.7933,"lng":67.048333,"addr":"Saba Ave","type":"place_of_worship"},{"id":"xx248199_670747","name":"Masjid-e-Bilal - Itehad","lat":24.819909,"lng":67.074686,"addr":"Khayaban e Seher","type":"place_of_worship"},{"id":"xx248182_670804","name":"Fatima Masjid","lat":24.818217,"lng":67.08045,"addr":"Khalid Commerial Street 1A","type":"place_of_worship"},{"id":"xx248222_670843","name":"Noor","lat":24.822219,"lng":67.08429,"addr":"Creek Avenue","type":"place_of_worship"},{"id":"xx248274_670784","name":"Ghausia","lat":24.827366,"lng":67.078411,"addr":"1st Street","type":"place_of_worship"},{"id":"xx248278_670810","name":"Madina","lat":24.827822,"lng":67.081039,"addr":"Korangi Road","type":"place_of_worship"},{"id":"xx248272_670820","name":"Muhammadi","lat":24.827198,"lng":67.081988,"addr":"Korangi Road","type":"place_of_worship"},{"id":"xx248254_670799","name":"Tayyaba","lat":24.825392,"lng":67.079948,"addr":"1st Street","type":"place_of_worship"},{"id":"xx248257_670837","name":"Sajawalia","lat":24.82566,"lng":67.08374,"addr":"Creek Avenue","type":"place_of_worship"},{"id":"xx248027_670534","name":"Masjid e Kabeer","lat":24.802692,"lng":67.05344,"addr":"20th Link Street","type":"place_of_worship"},{"id":"xx248011_670385","name":"Siddique Akbar Masjid","lat":24.801144,"lng":67.038461,"addr":"A Street","type":"place_of_worship"},{"id":"xx248772_670864","name":"مسجد مکہ","lat":24.877239,"lng":67.086376,"addr":"","type":"place_of_worship"},{"id":"xx248835_670814","name":"Al-Kibriya Masjid","lat":24.883521,"lng":67.081357,"addr":"Ghazi Salahuddin Rd","type":"place_of_worship"},{"id":"xx248863_670791","name":"Mustafa Masjid","lat":24.886348,"lng":67.079078,"addr":"Ghazi Salahuddin Rd","type":"place_of_worship"},{"id":"xx248876_670765","name":"Masjid-e-Habibia","lat":24.887615,"lng":67.076459,"addr":"Siral ud Dula Rd","type":"place_of_worship"},{"id":"xx248808_670814","name":"Jama Masjid Al Farooq","lat":24.880791,"lng":67.08139,"addr":"Johar Road","type":"place_of_worship"},{"id":"xx248773_670775","name":"Sultan Salahuddin Ayubi Masjid","lat":24.877261,"lng":67.077471,"addr":"Ameer Khusro Road","type":"place_of_worship"},{"id":"xx248763_670822","name":"Jamia Masjid Sabri","lat":24.876278,"lng":67.082171,"addr":"Street # 5","type":"place_of_worship"},{"id":"xx248780_670957","name":"Hamza Mosque","lat":24.878003,"lng":67.095659,"addr":"Karsaz Road","type":"place_of_worship"},{"id":"xx248134_670493","name":"Khadda Market","lat":24.813351,"lng":67.04927,"addr":"Stadium Lane 3","type":"place_of_worship"},{"id":"xx248239_670627","name":"Jama Masjid Ibrahim","lat":24.823896,"lng":67.062742,"addr":"11th Commercial Street","type":"place_of_worship"},{"id":"xx248224_670581","name":"Yasrab Imam Bargah","lat":24.822396,"lng":67.058109,"addr":"Commercial Avenue","type":"place_of_worship"},{"id":"xx248275_670543","name":"Jamia Masjid Baitul Salaam","lat":24.827456,"lng":67.054323,"addr":"Commercial Avenue","type":"place_of_worship"},{"id":"xx248260_670435","name":"Jamma Masjid Bab e Rehmat","lat":24.826033,"lng":67.043542,"addr":"Gizri Road","type":"place_of_worship"},{"id":"xx248261_670458","name":"Alfalah","lat":24.826116,"lng":67.045761,"addr":"Gizri Road","type":"place_of_worship"},{"id":"xx248293_670491","name":"Qamar-ul-Islam","lat":24.829347,"lng":67.049138,"addr":"Khayaban-e-Roomi","type":"place_of_worship"},{"id":"xx248348_670688","name":"Quran Markaz Phase 2","lat":24.834796,"lng":67.068762,"addr":"13th Commercial Street","type":"place_of_worship"},{"id":"xx248334_670688","name":"Mehmood Ayaz","lat":24.833393,"lng":67.068777,"addr":"18th Commercial Street","type":"place_of_worship"},{"id":"xx248313_670793","name":"Defence Residency Mosque","lat":24.831283,"lng":67.079338,"addr":"Defenceview Main Road","type":"place_of_worship"},{"id":"xx248334_670810","name":"Islamic place","lat":24.833358,"lng":67.081028,"addr":"Shaheed-e-Millat Express Way","type":"place_of_worship"},{"id":"xx248353_670810","name":"Ibrahim Mosque","lat":24.835276,"lng":67.080982,"addr":"Defenceview Main Road","type":"place_of_worship"},{"id":"xx248379_670816","name":"MASJID SIDDIQ E AKBAR","lat":24.837853,"lng":67.081574,"addr":"Defenceview Main Road","type":"place_of_worship"},{"id":"xx248448_670847","name":"Jamia Masjid Khulafa-e-Rashideen","lat":24.844758,"lng":67.084662,"addr":"Shaheed-e-Millat Express Way","type":"place_of_worship"},{"id":"xx248456_670865","name":"Jamia Masjid Usman Ghani","lat":24.845582,"lng":67.086457,"addr":"Shaheed-e-Millat Express Way","type":"place_of_worship"},{"id":"xx248496_670876","name":"Noor","lat":24.849576,"lng":67.087617,"addr":"Punjab Rd","type":"place_of_worship"},{"id":"xx248503_670885","name":"Maryam","lat":24.850332,"lng":67.088463,"addr":"Shaheed-e-Millat Express Way","type":"place_of_worship"},{"id":"xx248576_670897","name":"Jama Masjid Al-Arab-ul-Chishtiya","lat":24.857634,"lng":67.089725,"addr":"Shaheed-e-Millat Express Way","type":"place_of_worship"},{"id":"xx248537_670061","name":"Moti","lat":24.853665,"lng":67.006147,"addr":"M.A. Jinnah Road","type":"place_of_worship"},{"id":"xx248556_670102","name":"Islamic place","lat":24.85557,"lng":67.010224,"addr":"Dr. Ziauddin Road","type":"place_of_worship"},{"id":"xx248724_670363","name":"Khatm-e-Nabuwat","lat":24.872405,"lng":67.036264,"addr":"MA Jinnah Rd, Jacob Lines, Saddar Town,","type":"place_of_worship"},{"id":"xx248819_670498","name":"Farooqi","lat":24.88194,"lng":67.049777,"addr":"M.A.Jinnah Road Extension","type":"place_of_worship"},{"id":"xx248829_670519","name":"Siddiqiah Masjid","lat":24.882887,"lng":67.05186,"addr":"M.A.Jinnah Road Extension","type":"place_of_worship"},{"id":"xx248828_670520","name":"Jamia Masjid Faizan-e-Abul Qasim","lat":24.882786,"lng":67.051958,"addr":"M.A.Jinnah Road Extension","type":"place_of_worship"},{"id":"xx248833_670511","name":"Fatimi","lat":24.883298,"lng":67.051059,"addr":"M.A.Jinnah Road Extension","type":"place_of_worship"},{"id":"xx248924_670635","name":"Rehmania","lat":24.892355,"lng":67.063517,"addr":"University Road","type":"place_of_worship"},{"id":"xx248966_670648","name":"Ghausia","lat":24.896623,"lng":67.064838,"addr":"Essa Nagri","type":"place_of_worship"},{"id":"xx248977_670663","name":"Gulshan","lat":24.897698,"lng":67.066334,"addr":"University Road","type":"place_of_worship"},{"id":"xx248996_670706","name":"Mujaddid Alf Sani","lat":24.899555,"lng":67.070579,"addr":"University Road","type":"place_of_worship"},{"id":"xx248996_670722","name":"Civic Center Mosque","lat":24.899564,"lng":67.07219,"addr":"University Road","type":"place_of_worship"},{"id":"xx249229_671013","name":"Muaz  bin Jabal","lat":24.922916,"lng":67.101313,"addr":"Olympian Islah Uddin Road","type":"place_of_worship"},{"id":"xx249266_671063","name":"Markaz Taqwa","lat":24.926607,"lng":67.106296,"addr":"University Road","type":"place_of_worship"},{"id":"xx248308_670417","name":"Shamim Masjid","lat":24.830777,"lng":67.041711,"addr":"Khaleeq uz Zaman Road","type":"place_of_worship"},{"id":"xx248326_670393","name":"Faizan-e-Jeelan masjid","lat":24.83255,"lng":67.039281,"addr":"Khaleeq uz Zaman Road","type":"place_of_worship"},{"id":"xx248312_670366","name":"Moti Masjid","lat":24.831201,"lng":67.036626,"addr":"Iqbal Service Road","type":"place_of_worship"},{"id":"xx248144_670353","name":"Jamia Masjid Usman","lat":24.814385,"lng":67.035266,"addr":"Khayaban e Shujat","type":"place_of_worship"},{"id":"xx248222_670462","name":"Ali Masjid","lat":24.822217,"lng":67.046189,"addr":"Gizri Road","type":"place_of_worship"},{"id":"xx248210_670467","name":"Madni Masjid","lat":24.821023,"lng":67.046657,"addr":"Gizri Road","type":"place_of_worship"},{"id":"xx248434_670256","name":"Hashmi","lat":24.843391,"lng":67.025631,"addr":"Dr. Ziauddin Road","type":"place_of_worship"},{"id":"xx248441_670259","name":"Masjid Al Farooq","lat":24.844132,"lng":67.02595,"addr":"Dr. Ziauddin Road","type":"place_of_worship"},{"id":"xx248419_670288","name":"Kashmir Mujahid Colony","lat":24.841931,"lng":67.028791,"addr":"Dr. Ziauddin Road","type":"place_of_worship"},{"id":"xx248414_670322","name":"Gulzar","lat":24.841443,"lng":67.032239,"addr":"Dr. Ziauddin Road","type":"place_of_worship"},{"id":"xx248193_670439","name":"دار السلام","lat":24.819306,"lng":67.043895,"addr":"Gizri Avenue","type":"place_of_worship"},{"id":"xx248771_670463","name":"Masjid E Hasanain","lat":24.877115,"lng":67.046271,"addr":"Muhammad Farooq Motlani Road","type":"place_of_worship"},{"id":"xx249286_670979","name":"Akbar Masjid","lat":24.928574,"lng":67.097892,"addr":"Olympian Islah Uddin Road","type":"place_of_worship"},{"id":"xx249166_670811","name":"Masjid O Imam Bargha Jamia tus Sibtain","lat":24.916563,"lng":67.081079,"addr":"Allama Shabbir Ahmed Usmani near ibtain Imambargah, Block 1 Gulshan-e-Iqbal, ,","type":"place_of_worship"},{"id":"xx249196_670840","name":"Masjid Siddiq e Akbar","lat":24.919584,"lng":67.083999,"addr":"Allama Shabbir Ahmed Usmani Road","type":"place_of_worship"},{"id":"xx249149_670842","name":"Khulfa-e-Rasheedeen Masjid","lat":24.914931,"lng":67.084239,"addr":"W38M+3J3, E4, Block 13D-1 Block 13 D 1 Gulshan-e-Iqbal, Karachi,","type":"place_of_worship"},{"id":"xx249145_670812","name":"Madina","lat":24.914466,"lng":67.08122,"addr":"Sahba Akhter Road","type":"place_of_worship"},{"id":"xx249098_670792","name":"Jama Masjid Abrar","lat":24.909808,"lng":67.079159,"addr":"Abrar Mosque, Sehba Akhter Rd, Block 13 D 2 Gulshan-e-Iqbal, Karachi","type":"place_of_worship"},{"id":"xx249048_670704","name":"Masjid Al Ghazali","lat":24.904799,"lng":67.070354,"addr":", Sehba Akhter Rd, Block 13 A Gulshan-e-Iqbal, Karachi","type":"place_of_worship"},{"id":"xx248506_670759","name":"Hasnain Masjid","lat":24.850611,"lng":67.075937,"addr":"","type":"place_of_worship"},{"id":"xx249002_671157","name":"Masjid Al Hilal","lat":24.900179,"lng":67.115673,"addr":"Stadium Road","type":"mosque"},{"id":"xx248602_666637","name":"Madina Masjid","lat":24.860207,"lng":66.663708,"addr":"","type":"place_of_worship"},{"id":"xx248767_670655","name":"Riaz","lat":24.876729,"lng":67.065512,"addr":"Tariq Road","type":"place_of_worship"},{"id":"xx249232_671475","name":"Masjid Ameer Hamza","lat":24.923153,"lng":67.147489,"addr":"کراچی","type":"place_of_worship"},{"id":"xx249165_671324","name":"Masjid Salman Farsi","lat":24.916516,"lng":67.132382,"addr":"Karachi","type":"place_of_worship"},{"id":"xx249137_671410","name":"Masjid Muaavia","lat":24.913733,"lng":67.14104,"addr":"Karachi","type":"place_of_worship"},{"id":"xx249132_671395","name":"Jamia Masjid Ashraful Madaris","lat":24.913164,"lng":67.139522,"addr":"Karachi","type":"college"},{"id":"xx249128_671391","name":"Jamia Masjid Ashraful Madaris","lat":24.912813,"lng":67.139089,"addr":"Karachi","type":"place_of_worship"},{"id":"xx249103_671367","name":"Jamia Masjid Imdad","lat":24.910308,"lng":67.136743,"addr":"Karachi","type":"place_of_worship"},{"id":"xx249161_671376","name":"Masjid e Akhtar","lat":24.916127,"lng":67.13765,"addr":"Karachi","type":"place_of_worship"},{"id":"xx249275_671012","name":"Masjid e Qaba","lat":24.927498,"lng":67.101161,"addr":"University Road","type":"place_of_worship"},{"id":"xx249296_671020","name":"Huda Masjid","lat":24.929569,"lng":67.102024,"addr":"Karachi","type":"place_of_worship"},{"id":"xx249882_670609","name":"Jamia Masjid Rehmania Ahle Hadees","lat":24.988219,"lng":67.060869,"addr":"New Karachi Sector 5C4","type":"place_of_worship"},{"id":"xx249884_670650","name":"پاکستان اسٹیٹ آئل","lat":24.98838,"lng":67.064967,"addr":"Shahrah e Usman","type":"fuel"},{"id":"xx249887_670638","name":"Makki Masjid","lat":24.988688,"lng":67.0638,"addr":"New Karachi Sector 5C4","type":"place_of_worship"},{"id":"xx249896_670648","name":"Masjid e Ibrahim Khalil Ullah","lat":24.989575,"lng":67.064755,"addr":"New Karachi Sector 5C4","type":"place_of_worship"},{"id":"xx249880_670650","name":"Masjid e Quba","lat":24.988015,"lng":67.06497,"addr":"New Karachi Sector 5C4","type":"place_of_worship"},{"id":"xx249160_670283","name":"Jamia Masjid o Imam Bargah Noor e Iman","lat":24.91602,"lng":67.02825,"addr":"Nazimabad 3","type":"place_of_worship"},{"id":"xx249354_670391","name":"Dawoodi Bohra Hussani","lat":24.935438,"lng":67.039124,"addr":"Karachi","type":"place_of_worship"},{"id":"xx249444_670612","name":"Quba","lat":24.944369,"lng":67.061204,"addr":"North Nazimabad Block N","type":"place_of_worship"},{"id":"xx249653_671116","name":"Masjid Bilal","lat":24.96525,"lng":67.11164,"addr":"Suparco Road","type":"place_of_worship"},{"id":"xx249444_670685","name":"Toheed Masjid","lat":24.944422,"lng":67.068495,"addr":"Shah Jahan Avenue","type":"place_of_worship"},{"id":"xx249050_670912","name":"Siduique Akbar","lat":24.905012,"lng":67.091223,"addr":"Gulshan e Iqbal Block 19","type":"place_of_worship"},{"id":"xx249060_670947","name":"Faizan e Hamza","lat":24.905988,"lng":67.094702,"addr":"Gulshan e Iqbal Block 19","type":"place_of_worship"},{"id":"xx249758_671450","name":"Ghanwar Gabol Masjid","lat":24.975764,"lng":67.145037,"addr":"","type":"place_of_worship"},{"id":"xx248665_673525","name":"Masjid Al Tauheed","lat":24.866532,"lng":67.352457,"addr":"Gulshan e Hadeed","type":"place_of_worship"},{"id":"xx248716_673536","name":"Jama Masjid Quba","lat":24.871613,"lng":67.353592,"addr":"Gulshan e Hadeed","type":"place_of_worship"},{"id":"xx248691_673600","name":"Jama Masjid Muhammadi","lat":24.869121,"lng":67.359978,"addr":"Gulshan e Hadeed","type":"place_of_worship"},{"id":"xx248721_673618","name":"Ideal Public School & College","lat":24.872098,"lng":67.361798,"addr":"Gulshan e Hadeed","type":"school"},{"id":"xx248709_673585","name":"Government Girls College","lat":24.870863,"lng":67.358524,"addr":"Gulshan e Hadeed","type":"college"},{"id":"xx249093_670287","name":"Qudsia Masjid","lat":24.909284,"lng":67.028749,"addr":"Nazimabad 1","type":"place_of_worship"},{"id":"xx249099_670233","name":"Azizia","lat":24.90986,"lng":67.023291,"addr":"Nazimabad 1","type":"place_of_worship"},{"id":"xx249038_670244","name":"Madina Masjid - Nazimabad Block 1","lat":24.90379,"lng":67.024357,"addr":"Nazimabad 1","type":"place_of_worship"},{"id":"xx249050_670357","name":"Aqsa","lat":24.90498,"lng":67.035744,"addr":"Nazimabad 1","type":"place_of_worship"},{"id":"xx249069_670370","name":"Zamzam","lat":24.906932,"lng":67.036992,"addr":"Nazimabad 1","type":"place_of_worship"},{"id":"xx249191_670303","name":"Ahbab","lat":24.919139,"lng":67.030292,"addr":"Tabish Dehlavi Road","type":"place_of_worship"},{"id":"xx249178_670277","name":"Noor-ul-Islam","lat":24.917802,"lng":67.027673,"addr":"Nazimabad 3","type":"place_of_worship"},{"id":"xx249132_670272","name":"Agha Khan Jamat Khana","lat":24.913158,"lng":67.027236,"addr":"Nazimabad 3","type":"place_of_worship"},{"id":"xx249129_670259","name":"مسجد بلال","lat":24.912878,"lng":67.025917,"addr":"Nazimabad 3","type":"place_of_worship"},{"id":"xx249151_670332","name":"Jama Masjid Hadi Market","lat":24.915131,"lng":67.033176,"addr":"M Nasir Street","type":"place_of_worship"},{"id":"xx248787_670853","name":"Marium Masjid","lat":24.878679,"lng":67.085277,"addr":"Ghazi Salahuddin Road","type":"place_of_worship"},{"id":"xx249112_670291","name":"Islamic place","lat":24.911155,"lng":67.029125,"addr":"Karachi","type":"place_of_worship"},{"id":"xx249389_670828","name":"Noman Masjid","lat":24.938886,"lng":67.082788,"addr":"Karachi","type":"place_of_worship"},{"id":"xx249228_670595","name":"Karimabad Jamatkhana","lat":24.922815,"lng":67.059523,"addr":"Shahrah-e-Pakistan","type":"place_of_worship"},{"id":"xx249140_670563","name":"Usman Memorial Masjid","lat":24.914042,"lng":67.056327,"addr":"Shahrah Humayun","type":"place_of_worship"},{"id":"xx249659_670678","name":"Jamia Masjid Siddiq-e-Akbar","lat":24.965873,"lng":67.067837,"addr":"Shahrah Sher Shah Suri","type":"place_of_worship"},{"id":"xx249740_670656","name":"Hakimi","lat":24.974019,"lng":67.065586,"addr":"Shahrah Sher Shah Suri","type":"place_of_worship"},{"id":"xx249751_670638","name":"Tayyaba","lat":24.97509,"lng":67.063786,"addr":"Shahrah Sher Shah Suri","type":"place_of_worship"},{"id":"xx249848_670646","name":"Al-Huda Mosque","lat":24.984801,"lng":67.064582,"addr":"Power House Chowrangi","type":"place_of_worship"},{"id":"xx249170_670537","name":"Masjid Babar Square","lat":24.917042,"lng":67.053674,"addr":"Shahrah-e-Pakistan","type":"place_of_worship"},{"id":"xx249196_670598","name":"Memon","lat":24.919581,"lng":67.059816,"addr":"Hussainabad Street","type":"place_of_worship"},{"id":"xx249479_670537","name":"Usmania","lat":24.947851,"lng":67.053685,"addr":"North Nazimabad Block M","type":"place_of_worship"},{"id":"xx249221_671157","name":"Masjid Abdullah Apartments","lat":24.922109,"lng":67.115654,"addr":"Safari Road","type":"place_of_worship"},{"id":"xx249209_671167","name":"Masjid Ul Kibriya","lat":24.920856,"lng":67.116728,"addr":"Safari Road","type":"place_of_worship"},{"id":"xx249093_671260","name":"جوہر چوک مسجد","lat":24.909299,"lng":67.125963,"addr":"جوہر چورنگی روڈ","type":"place_of_worship"},{"id":"xx249076_671867","name":"Sultan Masjid","lat":24.907618,"lng":67.186703,"addr":"Karachi","type":"place_of_worship"},{"id":"xx249068_671890","name":"Masjid E Bilal Jafar Bagh Model Colony Karachi","lat":24.906826,"lng":67.188954,"addr":"Karachi","type":"place_of_worship"},{"id":"xx249058_671850","name":"Omer Mosque","lat":24.905832,"lng":67.185003,"addr":"Karachi","type":"place_of_worship"},{"id":"xx249456_670291","name":"Jama Masjid Bismillah (Near Katti Pahari)","lat":24.945567,"lng":67.029146,"addr":"Karachi","type":"place_of_worship"},{"id":"xx249476_670263","name":"Jamia Ayesha tul Binat","lat":24.947568,"lng":67.026327,"addr":"Karachi","type":"place_of_worship"},{"id":"xx249450_670206","name":"Rabbani Masjid","lat":24.94497,"lng":67.020622,"addr":"Karachi","type":"place_of_worship"},{"id":"xx249389_670165","name":"Toheed","lat":24.938878,"lng":67.016505,"addr":"Shahrah e Qaddafi","type":"place_of_worship"},{"id":"xx249402_670165","name":"Islamic place","lat":24.940247,"lng":67.016451,"addr":"Orangi Town","type":"place_of_worship"},{"id":"xx249405_670151","name":"Kaali Pahari","lat":24.940462,"lng":67.015129,"addr":"Orangi Town","type":"place_of_worship"},{"id":"xx249416_670107","name":"Jamia Masjid Al Muslimeen","lat":24.941632,"lng":67.010748,"addr":"Shahrah e Qaddafi","type":"place_of_worship"},{"id":"xx249450_670061","name":"Noor Ali Shah Bukhari Mosque","lat":24.944992,"lng":67.006116,"addr":"Orangi Town","type":"place_of_worship"},{"id":"xx249446_670042","name":"Tauheed","lat":24.944573,"lng":67.004194,"addr":"Shahrah e Qaddafi","type":"place_of_worship"},{"id":"xx249486_670061","name":"Madani","lat":24.948571,"lng":67.006125,"addr":"Karachi","type":"place_of_worship"},{"id":"xx248979_671802","name":"Jama Masjid Hawwa","lat":24.897944,"lng":67.180245,"addr":"Karachi","type":"place_of_worship"},{"id":"xx248954_671806","name":"Noori Masjid","lat":24.895411,"lng":67.180627,"addr":"Karachi","type":"place_of_worship"},{"id":"xx249378_670057","name":"Markazi Masjid Wa ImamBargah Haider-e-Karrar","lat":24.937795,"lng":67.005665,"addr":"Karachi","type":"place_of_worship"},{"id":"xx249345_670105","name":"Khaybar Masjid","lat":24.93445,"lng":67.010493,"addr":"Orangi Road","type":"place_of_worship"},{"id":"xx248834_669759","name":"Islamic place","lat":24.883444,"lng":66.97593,"addr":"Estate Avenue","type":"place_of_worship"},{"id":"xx248765_669619","name":"Makkah Masjid","lat":24.876528,"lng":66.961939,"addr":"Hawks Bay Road","type":"place_of_worship"},{"id":"xx248677_669338","name":"Jama Masjid Hanfia","lat":24.867698,"lng":66.933838,"addr":"Hawks Bay Road","type":"place_of_worship"},{"id":"xx248682_669308","name":"Islamic place","lat":24.868242,"lng":66.930847,"addr":"","type":"place_of_worship"},{"id":"xx248703_669241","name":"JamA Masjid Madina","lat":24.870311,"lng":66.924094,"addr":"Hawks Bay Road","type":"place_of_worship"},{"id":"xx248686_669186","name":"Jama Masjid Quwwat ul Islam","lat":24.868612,"lng":66.918587,"addr":"Hawks Bay Road","type":"place_of_worship"},{"id":"xx248701_669168","name":"مسجد بلال","lat":24.870056,"lng":66.916781,"addr":"Hawks Bay Road","type":"place_of_worship"},{"id":"xx248703_669146","name":"Bilali Masjid","lat":24.870304,"lng":66.914584,"addr":"Hawks Bay Road","type":"place_of_worship"},{"id":"xx248730_669118","name":"Masjid e Nimra","lat":24.872982,"lng":66.911772,"addr":"Hawks Bay Road","type":"place_of_worship"},{"id":"xx248749_669097","name":"Masjid e Haaza","lat":24.874862,"lng":66.909674,"addr":"Hawks Bay Road","type":"place_of_worship"},{"id":"xx248829_669808","name":"شیر شاہ قبرستان","lat":24.882895,"lng":66.980842,"addr":"اسٹیٹ ایونیو","type":"grave_yard"},{"id":"xx248920_669872","name":"Masjid Ghausia","lat":24.892034,"lng":66.987238,"addr":"Estate Avenue","type":"place_of_worship"},{"id":"xx249072_669987","name":"Masjid e Haleemi","lat":24.907155,"lng":66.998686,"addr":"Fakhruddin Valika Road","type":"place_of_worship"},{"id":"xx249080_669957","name":"Jama Binoria Aalimiyah","lat":24.908047,"lng":66.995679,"addr":"Fakhruddin Valika Road","type":"place_of_worship"},{"id":"xx249157_670107","name":"Masjid e Ayyubi","lat":24.915743,"lng":67.010716,"addr":"Fakhruddin Valika Road","type":"place_of_worship"},{"id":"xx249513_670037","name":"Mosque","lat":24.951287,"lng":67.003677,"addr":"Karachi","type":"place_of_worship"},{"id":"xx249510_670060","name":"Grid Station Mosque","lat":24.951035,"lng":67.005968,"addr":"Karachi","type":"place_of_worship"},{"id":"xx249505_670081","name":"Gulzar-e-Madina","lat":24.950519,"lng":67.008147,"addr":"Karachi","type":"place_of_worship"},{"id":"xx249530_669981","name":"Mohammadia","lat":24.952981,"lng":66.998128,"addr":"Karachi","type":"place_of_worship"},{"id":"xx248278_670597","name":"Masjid Saad Bin Abi Waqqas","lat":24.827808,"lng":67.059713,"addr":"Karachi","type":"place_of_worship"},{"id":"xx249529_669951","name":"Shrine of Shah Ghazi","lat":24.952899,"lng":66.995063,"addr":"Karachi","type":"place_of_worship"},{"id":"xx249542_669963","name":"Islamia Jama Masjid & Eid Gah","lat":24.954216,"lng":66.996346,"addr":"Shahrah e Qaddafi","type":"place_of_worship"},{"id":"xx249566_669955","name":"Jama Masjid Halima Sadia","lat":24.956646,"lng":66.995462,"addr":"Karach","type":"place_of_worship"},{"id":"xx248109_670583","name":"Sultan Masjid","lat":24.810912,"lng":67.058319,"addr":"Khayaban e Hafiz","type":"place_of_worship"},{"id":"xx249631_669944","name":"Awais Karni Masjid","lat":24.963089,"lng":66.994435,"addr":"Shahrah e Qaddafi","type":"place_of_worship"},{"id":"xx249654_669929","name":"Masjid Gulshan E attar","lat":24.965359,"lng":66.992879,"addr":"Shahrah e Qaddafi","type":"place_of_worship"},{"id":"xx248021_670775","name":"Masjid Ayesha","lat":24.802132,"lng":67.07751,"addr":"Khayaban e Ittehad","type":"place_of_worship"},{"id":"xx249741_669917","name":"Masjid E Aqsa","lat":24.97408,"lng":66.99169,"addr":"Shahrah e Qaddafi","type":"place_of_worship"},{"id":"xx249752_669936","name":"Arkania Masjid","lat":24.975181,"lng":66.993597,"addr":"Shahrah e Qaddafi","type":"place_of_worship"},{"id":"xx249774_669907","name":"Jama Khalilia","lat":24.977444,"lng":66.990666,"addr":"Shahrah e Qaddafi","type":"place_of_worship"},{"id":"xx248845_670484","name":"Faiz-e-Raza","lat":24.884493,"lng":67.048449,"addr":"Jamshed Road","type":"place_of_worship"},{"id":"xx248862_670515","name":"Baitus Salam","lat":24.886198,"lng":67.051538,"addr":"Jamshed Road","type":"place_of_worship"},{"id":"xx249916_669886","name":"JAMA MASJID AL REHMAN","lat":24.991596,"lng":66.988586,"addr":"Karachi","type":"place_of_worship"},{"id":"xx249892_669847","name":"Masjid Al Khaliq","lat":24.989217,"lng":66.984676,"addr":"Karachi","type":"place_of_worship"},{"id":"xx249876_669839","name":"Masjid Al Rahman","lat":24.987624,"lng":66.98395,"addr":"Karachi","type":"place_of_worship"},{"id":"xx249839_669844","name":"Masjid Al Shams Eidgah","lat":24.983911,"lng":66.984445,"addr":"Karachi","type":"place_of_worship"},{"id":"xx249815_669868","name":"Tayyaba Jama Masjid","lat":24.981474,"lng":66.986848,"addr":"Northern ByPass Orangi Link Road Karachi Pakistan","type":"place_of_worship"},{"id":"xx249761_669891","name":"Jama Masjid Ghosia","lat":24.97615,"lng":66.989119,"addr":"Karachi","type":"place_of_worship"},{"id":"xx249747_669882","name":"Norani Masjid","lat":24.974745,"lng":66.98818,"addr":"Karachi","type":"place_of_worship"},{"id":"xx249691_669893","name":"Muhammadi","lat":24.969087,"lng":66.989269,"addr":"Karachi","type":"place_of_worship"},{"id":"xx249658_669882","name":"Islamic place","lat":24.965802,"lng":66.988227,"addr":"","type":"place_of_worship"},{"id":"xx249641_669884","name":"Qutub-ud-Din","lat":24.964138,"lng":66.988377,"addr":"Karachi","type":"place_of_worship"},{"id":"xx249630_669869","name":"Sagheer Hashmi","lat":24.962963,"lng":66.986898,"addr":"Karachi","type":"place_of_worship"},{"id":"xx249636_669853","name":"Abu Hurairah","lat":24.963615,"lng":66.985296,"addr":"Karachi","type":"place_of_worship"},{"id":"xx249598_669865","name":"Al-Habib","lat":24.959806,"lng":66.986469,"addr":"Karachi","type":"place_of_worship"},{"id":"xx249613_669844","name":"Lal","lat":24.961293,"lng":66.984402,"addr":"Karachi","type":"place_of_worship"},{"id":"xx249584_669833","name":"ابو ذر غفاری","lat":24.958421,"lng":66.983348,"addr":"پاکستان بازار روڈ","type":"place_of_worship"},{"id":"xx249584_669808","name":"Bahar-e- Madina","lat":24.958412,"lng":66.98079,"addr":"","type":"place_of_worship"},{"id":"xx249552_669732","name":"Tayyeba","lat":24.955163,"lng":66.973245,"addr":"Karachi","type":"place_of_worship"},{"id":"xx249518_669749","name":"Makka Masjid  Mosque","lat":24.951817,"lng":66.97487,"addr":"Karachi","type":"place_of_worship"},{"id":"xx249513_669789","name":"Bait-ul-Mukarram","lat":24.95126,"lng":66.978883,"addr":"","type":"place_of_worship"},{"id":"xx249490_669828","name":"Masjid e Quba","lat":24.949026,"lng":66.982786,"addr":"Karachi","type":"place_of_worship"},{"id":"xx249476_669878","name":"Hadees-ul-Islam","lat":24.947581,"lng":66.987777,"addr":"Karachi","type":"place_of_worship"},{"id":"xx249438_669886","name":"Raza-e-Mustafa","lat":24.943775,"lng":66.988645,"addr":"Orangi Town","type":"place_of_worship"},{"id":"xx249411_669870","name":"Miraj-un-Nabi","lat":24.941066,"lng":66.986958,"addr":"Fareed Colony Gulshan e Ghazi Road","type":"place_of_worship"},{"id":"xx249412_669856","name":"Jama masjid Farooqi","lat":24.941241,"lng":66.985551,"addr":"Orangi Town","type":"place_of_worship"},{"id":"xx249380_669846","name":"Oliya","lat":24.93805,"lng":66.984619,"addr":"Orangi Town","type":"place_of_worship"},{"id":"xx249361_669808","name":"Ibrahimi","lat":24.936122,"lng":66.980838,"addr":"Orangi Town","type":"place_of_worship"},{"id":"xx248918_670822","name":"Jama Masjid Al Noor","lat":24.89184,"lng":67.082154,"addr":"Stadium Road","type":"place_of_worship"},{"id":"xx248980_670782","name":"Usman","lat":24.897996,"lng":67.078235,"addr":"Habib Ibrahim Rahimtoola Road","type":"place_of_worship"},{"id":"xx248977_670769","name":"Tayyaba","lat":24.897706,"lng":67.076934,"addr":"Habib Ibrahim Rahimtoola Road","type":"place_of_worship"},{"id":"xx248990_670767","name":"EXPO Mosque","lat":24.898999,"lng":67.076747,"addr":"Sir Shah Muhammad Suleman Road","type":"place_of_worship"},{"id":"xx248357_672309","name":"Bait ul Noor","lat":24.835707,"lng":67.230938,"addr":"D7 Road","type":"place_of_worship"},{"id":"xx248361_672266","name":"Jama Masjid Abu Hanifa","lat":24.836087,"lng":67.226602,"addr":"","type":"place_of_worship"},{"id":"xx249328_671409","name":"Aamna Majid","lat":24.93278,"lng":67.140894,"addr":"Johar Road","type":"place_of_worship"},{"id":"xx248343_670793","name":"Marium Masjid","lat":24.834304,"lng":67.079322,"addr":"Karachi","type":"place_of_worship"},{"id":"xx248460_672041","name":"Jama Masjid Ghousia","lat":24.846029,"lng":67.20407,"addr":"Landhi","type":"place_of_worship"},{"id":"xx248380_672065","name":"Usman Bin Affan","lat":24.837967,"lng":67.206536,"addr":"Mehran Highway","type":"place_of_worship"},{"id":"xx248388_672156","name":"Jama Masjid Rehmania","lat":24.838804,"lng":67.215642,"addr":"Mehran Highway","type":"place_of_worship"},{"id":"xx248369_672209","name":"Jama Masjid Gulzar","lat":24.836923,"lng":67.220899,"addr":"Mehran Highway","type":"place_of_worship"},{"id":"xx248366_672222","name":"Jama Masjid Madina","lat":24.836617,"lng":67.222212,"addr":"Mehran Highway","type":"place_of_worship"},{"id":"xx248356_672360","name":"Bait ul Mukarram","lat":24.835552,"lng":67.235953,"addr":"Mehran Highway","type":"place_of_worship"},{"id":"xx248355_672391","name":"Muhammadi","lat":24.835467,"lng":67.239081,"addr":"Mehran Highway","type":"place_of_worship"},{"id":"xx249309_671381","name":"Halima Masjid","lat":24.93087,"lng":67.138099,"addr":"Johar Road","type":"place_of_worship"},{"id":"xx248355_672609","name":"Gol Masjid","lat":24.835493,"lng":67.260883,"addr":"Mehran Highway","type":"place_of_worship"},{"id":"xx248585_672098","name":"Masjid Asab e Kahaf","lat":24.85853,"lng":67.209826,"addr":"National Highway","type":"place_of_worship"},{"id":"xx248165_671297","name":"Jama Masjid Ibrahim","lat":24.816522,"lng":67.129685,"addr":"Karachi","type":"place_of_worship"},{"id":"xx248605_670183","name":"Islamic place","lat":24.860544,"lng":67.018286,"addr":"Rāmchāndra Temple Road","type":"place_of_worship"},{"id":"xx248577_670191","name":"Green","lat":24.857709,"lng":67.019097,"addr":"Shahrah-e-Liaquat,","type":"place_of_worship"},{"id":"xx249369_670754","name":"Masjid Usmania","lat":24.936887,"lng":67.075357,"addr":"Shah Jahan Avenue","type":"place_of_worship"},{"id":"xx249390_670796","name":"Islamic place","lat":24.938965,"lng":67.079619,"addr":"Shahrah e Pakistan","type":"place_of_worship"},{"id":"xx249439_670808","name":"Khair-ul-Amal","lat":24.943872,"lng":67.080845,"addr":"Khairul Amal Road","type":"place_of_worship"},{"id":"xx249442_670814","name":"Imambargah Shuhada-e-Karbala","lat":24.944233,"lng":67.081404,"addr":"Khairul Amal Road","type":"place_of_worship"},{"id":"xx249456_670832","name":"Gulshan-e-Umer","lat":24.945638,"lng":67.083165,"addr":"Rashid Minhas Road","type":"place_of_worship"},{"id":"xx249480_670884","name":"Rahman","lat":24.947973,"lng":67.088414,"addr":"Lyari Express Way","type":"place_of_worship"},{"id":"xx249480_670906","name":"Suhrab Goth Mosque","lat":24.947998,"lng":67.090635,"addr":"Super Highway","type":"place_of_worship"},{"id":"xx249501_670764","name":"Islamic place","lat":24.95008,"lng":67.076408,"addr":"Rashid Minhas Road","type":"place_of_worship"},{"id":"xx249454_670775","name":"Noorani Masjid","lat":24.945363,"lng":67.077535,"addr":"Samnabad Road","type":"place_of_worship"},{"id":"xx249275_670635","name":"IIRC Imam Bargha","lat":24.927473,"lng":67.06347,"addr":"Ayesha Manzil Fly Over","type":"place_of_worship"},{"id":"xx248748_671957","name":"Jama Masjid Allahwali","lat":24.87481,"lng":67.195717,"addr":"Malir Town","type":"place_of_worship"},{"id":"xx248164_670713","name":"Faizan e Islam Dawat e Islami","lat":24.816354,"lng":67.071288,"addr":"Khayaban e Seher","type":"place_of_worship"},{"id":"xx248795_671790","name":"Ghareeb Shah Masjid","lat":24.879472,"lng":67.178956,"addr":"National Highway","type":"place_of_worship"},{"id":"xx249590_670754","name":"\\Bismillah","lat":24.958953,"lng":67.075442,"addr":"Rashid Minhas Road","type":"place_of_worship"},{"id":"xx249195_670454","name":"Jama Masid Ghosia - FC Area","lat":24.919451,"lng":67.045357,"addr":"Karachi","type":"place_of_worship"},{"id":"xx248184_670067","name":"Bismillah  Masjid","lat":24.818391,"lng":67.00667,"addr":"Shahrah e Ghalib","type":"place_of_worship"},{"id":"xx248177_670050","name":"Islamic place","lat":24.817722,"lng":67.005018,"addr":"","type":"place_of_worship"},{"id":"xx248184_670023","name":"Jama Masjid Mohammadi","lat":24.818362,"lng":67.00225,"addr":"Shahrah e Ghalib","type":"place_of_worship"},{"id":"xx248191_669999","name":"Hamza Masjid","lat":24.819132,"lng":66.999853,"addr":"Shahrah e Ghalib","type":"place_of_worship"},{"id":"xx248191_669966","name":"Allah Wali Masjid","lat":24.819131,"lng":66.996564,"addr":"Shahrah e Ghalib","type":"place_of_worship"},{"id":"xx248207_669949","name":"Saedya Masjid","lat":24.820697,"lng":66.994914,"addr":"Karachi","type":"place_of_worship"},{"id":"xx248762_670211","name":"Auliya","lat":24.876238,"lng":67.021071,"addr":"Nishtar Road","type":"place_of_worship"},{"id":"xx248752_670209","name":"Sabri","lat":24.875224,"lng":67.02093,"addr":", Murad Khan Rd, Millat Nagar Hashim Khan Haq Nagri,","type":"place_of_worship"},{"id":"xx248709_670157","name":"Faizan e ajmer Mosque","lat":24.870889,"lng":67.015689,"addr":"Olive Street","type":"place_of_worship"},{"id":"xx248082_670229","name":"Bin Qasim Masjid","lat":24.808172,"lng":67.022946,"addr":"Marine Promenade","type":"place_of_worship"},{"id":"xx248591_670039","name":"Masjid and Imambargah Zainabia","lat":24.859121,"lng":67.00391,"addr":"کراچی","type":"place_of_worship"},{"id":"xx248554_670047","name":"Al-Rehmat","lat":24.855398,"lng":67.004651,"addr":"Napier Road","type":"place_of_worship"},{"id":"xx248459_670315","name":"Muhammadi Masjid - Marriot Hotel","lat":24.845863,"lng":67.031488,"addr":"Abdullah Haroon Road","type":"place_of_worship"},{"id":"xx248596_670064","name":"Islamic place","lat":24.859568,"lng":67.006383,"addr":"Bembridge Road","type":"mosque"},{"id":"xx248601_670032","name":"Rehmat","lat":24.860079,"lng":67.003177,"addr":"Rehman Masjid Street","type":"place_of_worship"},{"id":"xx248613_670040","name":"Mairaj-un-Nabi","lat":24.861287,"lng":67.00403,"addr":"Police Line Road","type":"place_of_worship"},{"id":"xx248601_670024","name":"Khatri Jamaat Khana","lat":24.860113,"lng":67.002358,"addr":"Khatri Jamaat Khana Road","type":"place_of_worship"},{"id":"xx248608_670017","name":"Khatri","lat":24.860835,"lng":67.00171,"addr":"Siddiq wahab Road","type":"place_of_worship"},{"id":"xx248613_670013","name":"Farooq e Azam Masjid - Lee Market","lat":24.861263,"lng":67.001283,"addr":"Siddiq wahab Road","type":"place_of_worship"},{"id":"xx249056_670511","name":"مسجد قبا","lat":24.905635,"lng":67.051072,"addr":"کراچی","type":"place_of_worship"},{"id":"xx249066_670527","name":"جامع مسجد قوۃ الاسلام","lat":24.906565,"lng":67.052727,"addr":"کراچی","type":"place_of_worship"},{"id":"xx249019_670517","name":"Farooq e Azam Masjid","lat":24.901898,"lng":67.051685,"addr":"Liaquatabad","type":"place_of_worship"},{"id":"xx249044_670524","name":"قادری مسجد","lat":24.904363,"lng":67.052428,"addr":"کراچی","type":"place_of_worship"},{"id":"xx249034_670549","name":"لیاقت آباد","lat":24.903409,"lng":67.054852,"addr":"کراچی","type":"place_of_worship"},{"id":"xx249032_670564","name":"Masjid Darussalam Ahle Hadees Qasimabad","lat":24.903231,"lng":67.056412,"addr":"Liaquatabad","type":"place_of_worship"},{"id":"xx249037_670594","name":"مسجد مصطفی","lat":24.903653,"lng":67.059414,"addr":"کراچی","type":"place_of_worship"},{"id":"xx249071_670588","name":"Sulemania Masjid","lat":24.907116,"lng":67.058769,"addr":"Liaquatabad","type":"place_of_worship"},{"id":"xx249080_670627","name":"Jama Masjid Gharibabad","lat":24.908038,"lng":67.062688,"addr":"Liaquatabad","type":"place_of_worship"},{"id":"xx249302_670159","name":"Shahi","lat":24.930174,"lng":67.01593,"addr":"Manghopir Road","type":"place_of_worship"},{"id":"xx249277_670150","name":"Noor Elahi","lat":24.927671,"lng":67.015047,"addr":"Manghopir Road","type":"place_of_worship"},{"id":"xx248447_671967","name":"Noor Masjid - Landhi","lat":24.844669,"lng":67.196696,"addr":"Landhi Road","type":"place_of_worship"},{"id":"xx249024_670231","name":"Masjid Ibrahim Ahle Hadees","lat":24.902407,"lng":67.023086,"addr":"Altaf Ali Berelvi Road","type":"place_of_worship"},{"id":"xx249659_671720","name":"Masjid e Umar","lat":24.965936,"lng":67.172025,"addr":"Super Link Road","type":"place_of_worship"},{"id":"xx248279_671590","name":"Jama Masjid Ahmed Raza","lat":24.827898,"lng":67.158997,"addr":"Landhi Road","type":"place_of_worship"},{"id":"xx248250_671457","name":"Hussaini Imam Bargah - Korangi","lat":24.825006,"lng":67.14572,"addr":"Landhi Road","type":"place_of_worship"},{"id":"xx249035_670178","name":"Toheed","lat":24.903548,"lng":67.017805,"addr":"Altaf Ali Barelvi Road","type":"place_of_worship"},{"id":"xx249107_670177","name":"Mosque and Madrasa","lat":24.910684,"lng":67.017652,"addr":"Nazimabad Underpass","type":"place_of_worship"},{"id":"xx249097_670211","name":"Ibrahim Ali Bhai School","lat":24.909664,"lng":67.021141,"addr":"Nazimabad No 1","type":"place_of_worship"},{"id":"xx249092_670211","name":"Nizamia","lat":24.909167,"lng":67.02111,"addr":"Nazimabad No 1","type":"place_of_worship"},{"id":"xx249086_670191","name":"Rehmania Bagh Wale","lat":24.908609,"lng":67.019137,"addr":"Nazimabad No 1","type":"place_of_worship"},{"id":"xx249072_670219","name":"مسجد بلال","lat":24.907221,"lng":67.021861,"addr":"Nazimabad 1","type":"place_of_worship"},{"id":"xx248571_670018","name":"Khatri","lat":24.857062,"lng":67.001847,"addr":"Ali Akbar Street","type":"place_of_worship"},{"id":"xx249051_670226","name":"Al-Farooq","lat":24.905111,"lng":67.02263,"addr":"Nazimabad","type":"place_of_worship"},{"id":"xx249060_670268","name":"Jama","lat":24.905961,"lng":67.026826,"addr":"Nazimabad 1","type":"place_of_worship"},{"id":"xx249050_670269","name":"Jama MasJid Faizan E Makkah","lat":24.904989,"lng":67.026929,"addr":"Nazimabad 1","type":"place_of_worship"},{"id":"xx249138_670297","name":"Tayyaba Masjid","lat":24.913797,"lng":67.029746,"addr":"Nazimabad 2","type":"place_of_worship"},{"id":"xx248432_670023","name":"Bahria Majid","lat":24.843154,"lng":67.002319,"addr":"Port Ship Road","type":"place_of_worship"},{"id":"xx249115_670260","name":"Jama Masjid Ameer e Hamza R A","lat":24.911529,"lng":67.025969,"addr":"Nazimabad 3","type":"place_of_worship"},{"id":"xx249203_670513","name":"مسجد بلال","lat":24.92027,"lng":67.051335,"addr":"Shahrah Humayun","type":"place_of_worship"},{"id":"xx249154_670241","name":"Amma Ayesha Masjid Ahle Hadees","lat":24.915374,"lng":67.024122,"addr":"Nazimabad 3","type":"place_of_worship"},{"id":"xx249008_670810","name":"Umar","lat":24.900807,"lng":67.081008,"addr":"Rae Avenue","type":"place_of_worship"},{"id":"xx249142_670202","name":"Aqsa","lat":24.914238,"lng":67.020235,"addr":"Nazimabad 3","type":"place_of_worship"},{"id":"xx249139_670194","name":"Siddiqia Masjid","lat":24.913869,"lng":67.019407,"addr":"Nazimabad 3","type":"place_of_worship"},{"id":"xx249125_670193","name":"Tauheed","lat":24.912506,"lng":67.019284,"addr":"Nazimabad 3","type":"place_of_worship"},{"id":"xx249205_670268","name":"Noor Masjid","lat":24.920452,"lng":67.026781,"addr":"Nazimabad 5","type":"place_of_worship"},{"id":"xx248852_669908","name":"Hanafia","lat":24.88524,"lng":66.990815,"addr":"SITE","type":"place_of_worship"},{"id":"xx248417_671925","name":"Alamgir Masjid","lat":24.841704,"lng":67.192485,"addr":"Landhi Road","type":"place_of_worship"},{"id":"xx249224_670234","name":"Usmania","lat":24.922393,"lng":67.023442,"addr":"Nazimabad 5","type":"place_of_worship"},{"id":"xx249133_669732","name":"Jamiya Masjid Amir-e-Hamza","lat":24.913345,"lng":66.973158,"addr":"Rasheedabad Rd","type":"place_of_worship"},{"id":"xx249326_670991","name":"Jamia Masjid Rabbani","lat":24.932623,"lng":67.099108,"addr":"Allama Shabbir Ahmed Usmani Road","type":"place_of_worship"},{"id":"xx248832_670853","name":"Islamic place","lat":24.883188,"lng":67.085274,"addr":"Ameer Khusro Road","type":"place_of_worship"},{"id":"xx249442_670760","name":"Mustafa Jama Masjid","lat":24.944176,"lng":67.076012,"addr":"Street 9","type":"place_of_worship"},{"id":"xx249474_670734","name":"Jamia Masjid Samanabad","lat":24.947359,"lng":67.073411,"addr":"Samnabad Road","type":"place_of_worship"},{"id":"xx249157_670502","name":"Rahmat Qadria Mosque","lat":24.915682,"lng":67.050221,"addr":"Liaquatabad Flyover","type":"place_of_worship"},{"id":"xx248806_671418","name":"Madina Majid","lat":24.880636,"lng":67.14182,"addr":"Azeempura Road","type":"place_of_worship"},{"id":"xx248396_671854","name":"Noorani Masjid","lat":24.839607,"lng":67.185387,"addr":"Landhi Road","type":"place_of_worship"},{"id":"xx248408_671890","name":"Baitullah Jama Masjid","lat":24.840825,"lng":67.189024,"addr":"Landhi Road","type":"place_of_worship"},{"id":"xx248717_669889","name":"Jama Masjid Gulzare Madinah","lat":24.871687,"lng":66.988897,"addr":"Tannery Road","type":"place_of_worship"},