[{"id":"xx211474_791038","name":"Mosque","lat":21.14736,"lng":79.103789,"addr":"","type":"place_of_worship"},{"id":"xx229665_760537","name":"Eidgah Masjid (Junior)","lat":22.966528,"lng":76.053708,"addr":"","type":"place_of_worship"},{"id":"xx211802_790554","name":"Bhupesh Nagar Masjid","lat":21.18017,"lng":79.055353,"addr":"","type":"place_of_worship"},{"id":"xx211600_790948","name":"Abu Miya Masjid","lat":21.160043,"lng":79.094775,"addr":"","type":"place_of_worship"},{"id":"xx211147_791232","name":"Hajrat Baba Sayyad Rahman Shah Darga","lat":21.114669,"lng":79.12317,"addr":"Umred Rd, Motha Taj Bagh Dargah, Motha Taj Bagh","type":"place_of_worship"},{"id":"xx202961_756579","name":"Islamic place","lat":20.296062,"lng":75.657948,"addr":"","type":"place_of_worship"},{"id":"xx200051_751915","name":"Tomb of Sufi Saint Bahar-ud-din","lat":20.005113,"lng":75.191474,"addr":"","type":"tomb"},{"id":"xx232451_773768","name":"Sah Ali shah  upper lake","lat":23.245143,"lng":77.376793,"addr":"","type":"place_of_worship"},{"id":"xx231494_799002","name":"Islamic place","lat":23.149429,"lng":79.900164,"addr":"","type":"place_of_worship"},{"id":"xx211257_790942","name":"Hazrat Baba Sayyad Dargah","lat":21.125656,"lng":79.094187,"addr":"","type":"place_of_worship"},{"id":"xx209780_790270","name":"Islamic place","lat":20.977986,"lng":79.027041,"addr":"","type":"place_of_worship"},{"id":"xx211482_790851","name":"Islamic place","lat":21.148198,"lng":79.085099,"addr":"","type":"place_of_worship"},{"id":"xx205502_788329","name":"Khoja Masjid","lat":20.550187,"lng":78.832883,"addr":"","type":"place_of_worship"},{"id":"xx206144_798557","name":"Islamic place","lat":20.61444,"lng":79.855743,"addr":"","type":"place_of_worship"},{"id":"xx227088_758449","name":"dargah sarif","lat":22.70881,"lng":75.844933,"addr":"indore","type":"place_of_worship"},{"id":"xx247453_788342","name":"Nazarbag Dargah","lat":24.745257,"lng":78.834193,"addr":"","type":"place_of_worship"},{"id":"xx218836_787321","name":"Mosque","lat":21.883563,"lng":78.732142,"addr":"","type":"place_of_worship"},{"id":"xx216599_794109","name":"Hazrat Sakhi Peer Baba","lat":21.659938,"lng":79.410852,"addr":"","type":"place_of_worship"},{"id":"xx211706_796504","name":"Dargah Hazrat Sayyed Shah","lat":21.170627,"lng":79.650409,"addr":"","type":"place_of_worship"},{"id":"xx211699_796509","name":"Dargah Baba Muradshah","lat":21.169905,"lng":79.65091,"addr":"","type":"place_of_worship"},{"id":"xx211701_796526","name":"Khamtalao Noori Masjid","lat":21.17015,"lng":79.652603,"addr":"","type":"place_of_worship"},{"id":"xx211786_796616","name":"Namaj Masjid Nav Talab","lat":21.178582,"lng":79.661643,"addr":"","type":"place_of_worship"},{"id":"xx214688_782671","name":"Aalamgir Masjid","lat":21.468782,"lng":78.267119,"addr":"","type":"mosque"},{"id":"xx214724_782670","name":"Madina Masjid","lat":21.472351,"lng":78.267016,"addr":"","type":"place_of_worship"},{"id":"xx203909_781339","name":"Jama Masjid","lat":20.390912,"lng":78.133915,"addr":"","type":"place_of_worship"},{"id":"xx203919_781376","name":"Al Raza Masjid","lat":20.391885,"lng":78.137582,"addr":"","type":"place_of_worship"},{"id":"xx232563_774191","name":"Masjid Ashbagh","lat":23.256333,"lng":77.419079,"addr":"","type":"place_of_worship"},{"id":"xx203899_781381","name":"Gausiya Masjid","lat":20.389936,"lng":78.138132,"addr":"","type":"place_of_worship"},{"id":"xx203905_781444","name":"Usmaniya Masjeed-Alsami Nagar Ytl ","lat":20.390482,"lng":78.144354,"addr":"","type":"place_of_worship"},{"id":"xx203925_781506","name":"Tahir Nagar(Tayade Nagar) masjid ","lat":20.392483,"lng":78.150609,"addr":"","type":"place_of_worship"},{"id":"xx203839_781418","name":"Masjid-e-Furqan","lat":20.38387,"lng":78.141825,"addr":"","type":"place_of_worship"},{"id":"xx203790_781468","name":"Memon Colony Masjid ","lat":20.379012,"lng":78.146784,"addr":"","type":"place_of_worship"},{"id":"xx203870_781462","name":"Kohinoor Masjid","lat":20.387042,"lng":78.146168,"addr":"","type":"place_of_worship"},{"id":"xx203865_781426","name":"KGN Masjid","lat":20.386454,"lng":78.142622,"addr":"","type":"place_of_worship"},{"id":"xx203758_781093","name":"Sunni Jama Masjid","lat":20.375815,"lng":78.10931,"addr":"","type":"place_of_worship"},{"id":"xx208652_777358","name":"Markaz Masjid Badnera","lat":20.865178,"lng":77.735757,"addr":"","type":"place_of_worship"},{"id":"xx208650_777343","name":"JAMA MASJID JUNI BASTI BADNERA","lat":20.865002,"lng":77.734277,"addr":"","type":"place_of_worship"},{"id":"xx208679_777377","name":"Harmain Masjid","lat":20.867858,"lng":77.737717,"addr":"","type":"place_of_worship"},{"id":"xx208669_777350","name":"Dargah Shariff","lat":20.866884,"lng":77.734979,"addr":"","type":"place_of_worship"},{"id":"xx208667_777350","name":"Masjid E Almas Badnera","lat":20.866681,"lng":77.734963,"addr":"","type":"place_of_worship"},{"id":"xx209334_777530","name":"Islamic place","lat":20.93335,"lng":77.752969,"addr":"","type":"place_of_worship"},{"id":"xx209329_777503","name":"Sayad Baba Dargah","lat":20.932894,"lng":77.7503,"addr":"","type":"place_of_worship"},{"id":"xx209332_777452","name":"Ajmer Masjid","lat":20.933195,"lng":77.745209,"addr":"","type":"place_of_worship"},{"id":"xx209335_777461","name":"Bohra Masjid","lat":20.933535,"lng":77.746102,"addr":"","type":"place_of_worship"},{"id":"xx209345_777407","name":"Mosque","lat":20.934481,"lng":77.740684,"addr":"","type":"place_of_worship"},{"id":"xx209719_777548","name":"Navab Masjid","lat":20.97195,"lng":77.754802,"addr":"","type":"place_of_worship"},{"id":"xx209538_777434","name":"Majid-E-Fatema","lat":20.953847,"lng":77.743409,"addr":"","type":"place_of_worship"},{"id":"xx209510_777434","name":"Masjid-E-Khizra","lat":20.950997,"lng":77.74341,"addr":"","type":"place_of_worship"},{"id":"xx209500_777400","name":"Hazrat Gaibi Shah Baba Dargah Sharif","lat":20.94996,"lng":77.740026,"addr":"","type":"place_of_worship"},{"id":"xx209505_777389","name":"Noornagar Masjid","lat":20.950548,"lng":77.738922,"addr":"","type":"place_of_worship"},{"id":"xx209476_777446","name":"Wahadat Masjid","lat":20.947585,"lng":77.744602,"addr":"","type":"place_of_worship"},{"id":"xx209531_777504","name":"Mosque","lat":20.95309,"lng":77.750355,"addr":"","type":"place_of_worship"},{"id":"xx209525_777515","name":"Hazrat Sufi Basheer Ahmed Qadree (Reh.) Dargah Shareef","lat":20.952547,"lng":77.751489,"addr":"","type":"place_of_worship"},{"id":"xx209412_777458","name":"Masjid Siddique","lat":20.941182,"lng":77.745836,"addr":"","type":"place_of_worship"},{"id":"xx209438_777452","name":"Mosque","lat":20.943823,"lng":77.745158,"addr":"","type":"place_of_worship"},{"id":"xx209436_777469","name":"Masjid Zakariya","lat":20.943616,"lng":77.746862,"addr":"","type":"place_of_worship"},{"id":"xx209367_777491","name":"Ratanganj Masjid","lat":20.936656,"lng":77.749118,"addr":"","type":"place_of_worship"},{"id":"xx209578_777327","name":"Usmaan Masjid Sufiyan Nagar","lat":20.957781,"lng":77.732742,"addr":"","type":"place_of_worship"},{"id":"xx209487_777359","name":"Masjid e Salman Farsi Raz","lat":20.948732,"lng":77.735923,"addr":"","type":"place_of_worship"},{"id":"xx209505_777361","name":"AnwaareRaza Masjid","lat":20.950469,"lng":77.736105,"addr":"","type":"place_of_worship"},{"id":"xx209456_777378","name":"Masjid Shah Bahlool","lat":20.945604,"lng":77.737806,"addr":"","type":"place_of_worship"},{"id":"xx209455_777389","name":"Masjid E Chishtiya Quadriya","lat":20.945476,"lng":77.738927,"addr":"","type":"place_of_worship"},{"id":"xx209423_777396","name":"Rasheediya Masjid","lat":20.942302,"lng":77.739604,"addr":"","type":"place_of_worship"},{"id":"xx209441_777421","name":"Masjid-E-Mohammadia","lat":20.944129,"lng":77.74212,"addr":"","type":"place_of_worship"},{"id":"xx209430_777384","name":"Masjid-E-Ayesha","lat":20.943036,"lng":77.738414,"addr":"","type":"place_of_worship"},{"id":"xx209419_777418","name":"masjide quba","lat":20.94187,"lng":77.741822,"addr":"","type":"place_of_worship"},{"id":"xx209410_777410","name":"Mahdavia-masjid-e-jamat khana","lat":20.941018,"lng":77.741002,"addr":"","type":"place_of_worship"},{"id":"xx209402_777404","name":"AQSA Masjid","lat":20.940163,"lng":77.74038,"addr":"","type":"place_of_worship"},{"id":"xx209387_777396","name":"Masjid E Arafat مسجد عرفات","lat":20.93868,"lng":77.739564,"addr":"","type":"place_of_worship"},{"id":"xx209381_777415","name":"Masjid Siddique-E-Akbar","lat":20.938123,"lng":77.741465,"addr":"","type":"place_of_worship"},{"id":"xx209350_777389","name":"Madina Masjed","lat":20.934993,"lng":77.738933,"addr":"","type":"place_of_worship"},{"id":"xx209361_777376","name":"Nagina Masjid","lat":20.936087,"lng":77.73756,"addr":"","type":"place_of_worship"},{"id":"xx209396_777381","name":"Mosque","lat":20.939629,"lng":77.738065,"addr":"","type":"place_of_worship"},{"id":"xx209439_777301","name":"Tarkheda Masjid","lat":20.94386,"lng":77.730088,"addr":"","type":"place_of_worship"},{"id":"xx209430_777354","name":"NIZAMIYA MASJID","lat":20.942996,"lng":77.73537,"addr":"","type":"place_of_worship"},{"id":"xx209396_777432","name":"Masjid-E-Noor","lat":20.939629,"lng":77.743163,"addr":"","type":"place_of_worship"},{"id":"xx209465_777335","name":"Azizia Masjid","lat":20.946456,"lng":77.733537,"addr":"","type":"place_of_worship"},{"id":"xx209358_777416","name":"Mosque","lat":20.935848,"lng":77.741593,"addr":"","type":"place_of_worship"},{"id":"xx209303_777487","name":"Jama Masjid Markaz","lat":20.930308,"lng":77.748706,"addr":"","type":"place_of_worship"},{"id":"xx209307_777482","name":"Sagunpuar Mosque","lat":20.930687,"lng":77.748155,"addr":"","type":"place_of_worship"},{"id":"xx209357_777540","name":"Hara Ratha Masjid","lat":20.935736,"lng":77.753985,"addr":"","type":"place_of_worship"},{"id":"xx209239_777721","name":"Choti Alimgir Masjid","lat":20.923928,"lng":77.772126,"addr":"Amaravati","type":"place_of_worship"},{"id":"xx209140_777490","name":"Pahelwanbaba Shah","lat":20.914001,"lng":77.749039,"addr":"Amaravti","type":"place_of_worship"},{"id":"xx216605_794104","name":"Islamic place","lat":21.660455,"lng":79.410392,"addr":"","type":"place_of_worship"},{"id":"xx216604_794108","name":"Madarsa Faizane Sakhi Sarkar","lat":21.66043,"lng":79.410827,"addr":"","type":"school"},{"id":"xx226800_772665","name":"Jama masjid","lat":22.680015,"lng":77.266538,"addr":"","type":"place_of_worship"},{"id":"xx228119_772265","name":"Mohammadi Masjid","lat":22.811917,"lng":77.226541,"addr":"","type":"place_of_worship"},{"id":"xx228106_772270","name":"Jama Masjiz","lat":22.810633,"lng":77.227009,"addr":"","type":"place_of_worship"},{"id":"xx226969_758546","name":"Gulzar colony masjid (mosque)","lat":22.696947,"lng":75.854593,"addr":"","type":"place_of_worship"},{"id":"xx215876_793707","name":"Dargah","lat":21.587581,"lng":79.370668,"addr":"","type":"place_of_worship"},{"id":"xx227301_758944","name":"Sri Nagar Colony Masjid","lat":22.730063,"lng":75.894396,"addr":"","type":"place_of_worship"},{"id":"xx211698_790796","name":"Chaoni Mosque","lat":21.169784,"lng":79.079647,"addr":"","type":"place_of_worship"},{"id":"xx211516_790786","name":"Meetha Neem Dargah","lat":21.151608,"lng":79.078552,"addr":"","type":"place_of_worship"},{"id":"xx212096_791846","name":"Hazrat Baba Hazi Peer Sheikh Mohiuddin Qadri","lat":21.209583,"lng":79.184551,"addr":"","type":"place_of_worship"},{"id":"xx230179_767217","name":"Sikandar bazaar maszid","lat":23.017934,"lng":76.721741,"addr":"","type":"place_of_worship"},{"id":"xx213686_790451","name":"Waki Darbar Highcourt","lat":21.368594,"lng":79.045062,"addr":"","type":"place_of_worship"},{"id":"xx211661_791178","name":"Mahdibagh Masjid","lat":21.166052,"lng":79.117827,"addr":"","type":"place_of_worship"},{"id":"xx205074_789797","name":"Dargah","lat":20.507403,"lng":78.979718,"addr":"","type":"place_of_worship"},{"id":"xx202315_790017","name":"Dargah","lat":20.231481,"lng":79.001747,"addr":"","type":"place_of_worship"},{"id":"xx202306_790032","name":"Hazrat Baba Chindishah Dargah","lat":20.230593,"lng":79.003209,"addr":"","type":"place_of_worship"},{"id":"xx202310_790027","name":"Kachchhi Masjid","lat":20.230978,"lng":79.002659,"addr":"","type":"place_of_worship"},{"id":"xx207794_765103","name":"Dargah","lat":20.77944,"lng":76.510327,"addr":"","type":"place_of_worship"},{"id":"xx208084_765196","name":"Islamic place","lat":20.80844,"lng":76.519582,"addr":"","type":"place_of_worship"},{"id":"xx202429_790074","name":"Eidgah Sharif","lat":20.242927,"lng":79.007383,"addr":"","type":"place_of_worship"},{"id":"xx206595_791048","name":"Baba Farid Dargah","lat":20.659492,"lng":79.104837,"addr":"","type":"place_of_worship"},{"id":"xx202450_790064","name":"Islamic place","lat":20.244998,"lng":79.006414,"addr":"","type":"place_of_worship"},{"id":"xx211488_791057","name":"Islamic place","lat":21.148753,"lng":79.105732,"addr":"","type":"place_of_worship"},{"id":"xx210223_755552","name":"Peri peri house","lat":21.022326,"lng":75.55523,"addr":"Radhakrishna Nagar","type":"place_of_worship"},{"id":"xx216837_797282","name":"Sunni Jama Masjid Tirodi","lat":21.683738,"lng":79.728181,"addr":"","type":"place_of_worship"},{"id":"xx211588_791214","name":"Hakimi Masjid","lat":21.158808,"lng":79.121436,"addr":"","type":"place_of_worship"},{"id":"xx206827_769079","name":"Hazrat Baba Wali Shah Dargah","lat":20.682703,"lng":76.907902,"addr":"","type":"place_of_worship"},{"id":"xx211315_786735","name":"Dargah Motizira Tekdi","lat":21.131511,"lng":78.673541,"addr":"","type":"place_of_worship"},{"id":"xx207324_786004","name":"Sayyad Sha Pir Baba Dargah","lat":20.732393,"lng":78.600411,"addr":"","type":"place_of_worship"},{"id":"xx209289_777710","name":"Dargah","lat":20.928947,"lng":77.77096,"addr":"","type":"place_of_worship"},{"id":"xx227571_783557","name":"Jama Masjid","lat":22.757066,"lng":78.35565,"addr":"Pipariya Road","type":"place_of_worship"},{"id":"xx224741_784349","name":"Jama Masjid, Pachmarhi","lat":22.47407,"lng":78.434944,"addr":"","type":"place_of_worship"},{"id":"xx218660_759744","name":"Maszid","lat":21.865986,"lng":75.974382,"addr":"","type":"place_of_worship"},{"id":"xx235249_778236","name":"Islamic place","lat":23.524903,"lng":77.82356,"addr":"","type":"place_of_worship"},{"id":"xx238382_787455","name":"Mosque","lat":23.838231,"lng":78.745542,"addr":"Sagar","type":"place_of_worship"},{"id":"xx237098_770906","name":"Jama Masjid","lat":23.709757,"lng":77.090582,"addr":"","type":"place_of_worship"},{"id":"xx240441_789639","name":"JAMA MASJID BANDA","lat":24.044084,"lng":78.963949,"addr":"Banda","type":"place_of_worship"},{"id":"xx237916_790707","name":"Markaz Rahmania Masjid","lat":23.791646,"lng":79.070716,"addr":"Parasiya","type":"place_of_worship"},{"id":"xx238692_787356","name":"Mosque","lat":23.869169,"lng":78.735617,"addr":"Sagar","type":"place_of_worship"},{"id":"xx227520_783566","name":"Irani Shia Masjid","lat":22.752033,"lng":78.356569,"addr":"Pipariya","type":"place_of_worship"},{"id":"xx221754_756587","name":"masjid","lat":22.175355,"lng":75.658705,"addr":"","type":"place_of_worship"},{"id":"xx246897_784155","name":"Lalitpur Eid Gaah (Eid-e-khaas)","lat":24.689741,"lng":78.415465,"addr":"","type":"place_of_worship"},{"id":"xx246970_784089","name":"Baba Sadan Shah tomb","lat":24.696965,"lng":78.408935,"addr":"","type":"place_of_worship"},{"id":"xx211818_791297","name":"namaze janaza ground","lat":21.181813,"lng":79.129694,"addr":"","type":"monastery"},{"id":"xx207399_786030","name":"Jama Masjid","lat":20.739871,"lng":78.603,"addr":"Jama Masjid Square, Mahadeopura","type":"place_of_worship"},{"id":"xx227308_759133","name":"Ayesha Masjid","lat":22.730848,"lng":75.913278,"addr":"","type":"place_of_worship"},{"id":"xx227523_783572","name":"Madina Masjid","lat":22.752279,"lng":78.357185,"addr":"Pipariya","type":"place_of_worship"},{"id":"xx209293_777622","name":"Usmania Masjid","lat":20.929258,"lng":77.762196,"addr":"","type":"place_of_worship"},{"id":"xx200154_751828","name":"Auliya Masjid","lat":20.01537,"lng":75.182755,"addr":"","type":"mosque"},{"id":"xx223484_753973","name":"Jami Masjid","lat":22.348404,"lng":75.39727,"addr":"","type":"place_of_worship"},{"id":"xx211759_790878","name":"Muslim Kabristan","lat":21.175928,"lng":79.087838,"addr":"","type":"mosque"},{"id":"xx200153_751828","name":"Auliya Masjid","lat":20.015333,"lng":75.182752,"addr":"","type":"mosque"},{"id":"xx211758_790878","name":"Muslim Kabristan","lat":21.175794,"lng":79.087837,"addr":"","type":"mosque"},{"id":"xx227506_759258","name":"Muslim Graveyard (Kabristan)","lat":22.750578,"lng":75.925842,"addr":"Badal Chand Mehta Road","type":"mosque"},{"id":"xx244790_751423","name":"Bohra Mazjid","lat":24.479031,"lng":75.1423,"addr":"Bada Bagela Street 2","type":"yes"},{"id":"xx232587_774021","name":"Jama Masjid","lat":23.258658,"lng":77.402063,"addr":"","type":"mosque"},{"id":"xx232556_773994","name":"Moti Masjid","lat":23.25562,"lng":77.399404,"addr":"bhopal","type":"place_of_worship"},{"id":"xx232538_773981","name":"Islamic place","lat":23.253846,"lng":77.398113,"addr":"","type":"place_of_worship"},{"id":"xx211224_791121","name":"Chhota Tajbagh","lat":21.122436,"lng":79.112081,"addr":"","type":"place_of_worship"},{"id":"xx206103_798606","name":"Hanfiya Masjid","lat":20.610299,"lng":79.860621,"addr":"","type":"place_of_worship"},{"id":"xx213979_793206","name":"Kasim Shah Dargah","lat":21.397899,"lng":79.320647,"addr":"","type":"place_of_worship"},{"id":"xx207377_786016","name":"Mosque","lat":20.737693,"lng":78.601635,"addr":"","type":"place_of_worship"},{"id":"xx227505_759258","name":"Muslim Graveyard (Kabristan)","lat":22.750542,"lng":75.92582,"addr":"Badal Chand Mehta Road","type":"mosque"},{"id":"xx232556_773992","name":"Moti Masjid","lat":23.255574,"lng":77.399224,"addr":"bhopal","type":"place_of_worship"},{"id":"xx232538_773980","name":"Islamic place","lat":23.253819,"lng":77.398037,"addr":"","type":"place_of_worship"},{"id":"xx232634_773725","name":"Sufia Masjid","lat":23.263411,"lng":77.372526,"addr":"Ahmedabad Palace Road","type":"yes"},{"id":"xx215924_785269","name":"A Mosque","lat":21.592387,"lng":78.52694,"addr":"","type":"mosque"},{"id":"xx211716_790809","name":"Shi'a Imami Ismaili Jamatkhana","lat":21.171581,"lng":79.080936,"addr":"","type":"yes"},{"id":"xx226965_758568","name":"Bohra Mosque","lat":22.696495,"lng":75.856768,"addr":"A B Road","type":"place_of_worship"},{"id":"xx206186_799545","name":"Islamic place","lat":20.618592,"lng":79.954458,"addr":"","type":"mosque"},{"id":"xx206141_798522","name":"Kabrastan","lat":20.614083,"lng":79.85225,"addr":"","type":"mosque"},{"id":"xx211321_790997","name":"Islamic place","lat":21.132104,"lng":79.099654,"addr":"","type":"mosque"},{"id":"xx208329_764535","name":"Sofi Bagh","lat":20.832883,"lng":76.453506,"addr":"","type":"mosque"},{"id":"xx211549_790959","name":"Islamic place","lat":21.154936,"lng":79.095943,"addr":"","type":"yes"},{"id":"xx226965_758566","name":"Bohra Mosque","lat":22.696495,"lng":75.856584,"addr":"A B Road","type":"place_of_worship"},{"id":"xx206140_798522","name":"Kabrastan","lat":20.614028,"lng":79.852237,"addr":"","type":"mosque"},{"id":"xx208328_764535","name":"Sofi Bagh","lat":20.832842,"lng":76.453495,"addr":"","type":"mosque"},{"id":"xx223303_754020","name":"Mosque of Malik Mughis","lat":22.330259,"lng":75.402038,"addr":"","type":"yes"},{"id":"xx247103_781350","name":"Jama Masjid","lat":24.710265,"lng":78.135032,"addr":"Chanderi","type":"place_of_worship"},{"id":"xx209527_764639","name":"Islamic place","lat":20.952728,"lng":76.463883,"addr":"","type":"yes"},{"id":"xx211550_790173","name":"Dargah","lat":21.154989,"lng":79.017323,"addr":"","type":"yes"},{"id":"xx228479_764835","name":"Islamic place","lat":22.847892,"lng":76.483483,"addr":"","type":"yes"},{"id":"xx213733_790474","name":"Waki Dargah","lat":21.373314,"lng":79.047417,"addr":"","type":"yes"},{"id":"xx210855_790943","name":"Islamic place","lat":21.08552,"lng":79.094342,"addr":"","type":"yes"},{"id":"xx232630_773925","name":"Taj-ul-Masajid","lat":23.262961,"lng":77.392513,"addr":"Bhopal","type":"place_of_worship"},{"id":"xx231755_799244","name":"Islamic place","lat":23.175517,"lng":79.924362,"addr":"","type":"yes"},{"id":"xx232629_773925","name":"Taj-ul-Masajid","lat":23.262948,"lng":77.39251,"addr":"Bhopal","type":"place_of_worship"},{"id":"xx231755_799243","name":"Islamic place","lat":23.175451,"lng":79.924346,"addr":"","type":"yes"},{"id":"xx212164_775213","name":"Ashoorkhana Achalpur","lat":21.216449,"lng":77.521279,"addr":"","type":"mosque"},{"id":"xx206173_799547","name":"Sunni Eidgah","lat":20.617348,"lng":79.954711,"addr":"","type":"place_of_worship"},{"id":"xx211602_790970","name":"Muslim Kabrastan","lat":21.160246,"lng":79.096952,"addr":"","type":"grave_yard"},{"id":"xx212164_775209","name":"Ashoorkhana Achalpur","lat":21.21638,"lng":77.520903,"addr":"","type":"mosque"},{"id":"xx206172_799547","name":"Sunni Eidgah","lat":20.617245,"lng":79.954701,"addr":"","type":"place_of_worship"},{"id":"xx211603_790968","name":"Muslim Kabrastan","lat":21.16033,"lng":79.096803,"addr":"","type":"grave_yard"},{"id":"xx211340_782511","name":"Dargah","lat":21.133967,"lng":78.251072,"addr":"","type":"yes"},{"id":"xx211474_791037","name":"Islamic place","lat":21.147405,"lng":79.103698,"addr":"","type":"yes"},{"id":"xx224834_784476","name":"Khamosh Basti","lat":22.483358,"lng":78.447624,"addr":"","type":"mosque"},{"id":"xx227478_783609","name":"Kabristan","lat":22.747764,"lng":78.360859,"addr":"","type":"mosque"},{"id":"xx227241_758867","name":"Islamic place","lat":22.724056,"lng":75.886673,"addr":"","type":"yes"},{"id":"xx227477_783609","name":"Kabristan","lat":22.747709,"lng":78.360853,"addr":"","type":"mosque"}]