[{"id":"xx238643_903936","name":"Islamic place","lat":23.86431,"lng":90.393602,"addr":"","type":"place_of_worship"},{"id":"xx237553_903707","name":"Minar Mosque/Lalamatia C Block Jame Masjid","lat":23.755332,"lng":90.370736,"addr":"","type":"place_of_worship"},{"id":"xx237542_903763","name":"Sobhanbagh Mosque","lat":23.754206,"lng":90.376278,"addr":"Dhaka","type":"place_of_worship"},{"id":"xx238021_903503","name":"Masjidul Akbar","lat":23.802107,"lng":90.350306,"addr":"","type":"place_of_worship"},{"id":"xx237707_903888","name":"BAF Base Bashar Central Mosque","lat":23.770657,"lng":90.388795,"addr":"","type":"place_of_worship"},{"id":"xx237454_904119","name":"Siddeshwari Mosque","lat":23.745373,"lng":90.411876,"addr":"","type":"place_of_worship"},{"id":"xx238488_902575","name":"Savar Bazar Jame Mosque","lat":23.848763,"lng":90.257514,"addr":"","type":"place_of_worship"},{"id":"xx238553_902625","name":"Dogarmura Jame Mosque","lat":23.855278,"lng":90.262482,"addr":"C R P Road","type":"place_of_worship"},{"id":"xx249022_918664","name":"Mazar of Hazrat Shahjalal","lat":24.902189,"lng":91.866367,"addr":"","type":"place_of_worship"},{"id":"xx238023_904048","name":"নৌবাহিনী সদর দপ্তর মসজিদ","lat":23.802341,"lng":90.40482,"addr":"","type":"place_of_worship"},{"id":"xx236272_905052","name":"Khanpur Lal Mosque","lat":23.627231,"lng":90.505226,"addr":"","type":"mosque"},{"id":"xx237300_904040","name":"জাতীয় ঈদগাহ","lat":23.72999,"lng":90.403969,"addr":"Dhaka","type":"place_of_worship"},{"id":"xx245231_910925","name":"The GAYEBANA Masjid","lat":24.523077,"lng":91.092452,"addr":"","type":"place_of_worship"},{"id":"xx230040_910931","name":"Bazra masjid","lat":23.004028,"lng":91.09305,"addr":"","type":"place_of_worship"},{"id":"xx228649_910987","name":"Noakhali Zila Jama Masjid","lat":22.864908,"lng":91.098666,"addr":"","type":"place_of_worship"},{"id":"xx237239_903922","name":"বুয়েট কেন্দ্রীয় জামে‌ মসজিদ","lat":23.723932,"lng":90.392205,"addr":"","type":"place_of_worship"},{"id":"xx237062_904155","name":"Singtola Mosque","lat":23.706181,"lng":90.415547,"addr":"","type":"place_of_worship"},{"id":"xx237065_904133","name":"Srishdas Lane Mosque","lat":23.706512,"lng":90.413346,"addr":"","type":"place_of_worship"},{"id":"xx237061_904146","name":"Mosque","lat":23.706056,"lng":90.414625,"addr":"","type":"place_of_worship"},{"id":"xx238505_904115","name":"হাজী ক্যাম্প","lat":23.850526,"lng":90.411522,"addr":"Hazi camp road","type":"place_of_worship"},{"id":"xx238722_903955","name":"বায়তুল আমান জামে মসজিদ","lat":23.872242,"lng":90.395474,"addr":"","type":"place_of_worship"},{"id":"xx238698_903975","name":"উত্তরা সেক্টর ৭ মসজিদ","lat":23.869773,"lng":90.39752,"addr":"","type":"place_of_worship"},{"id":"xx234624_911729","name":"Bagichagoan Boro Mosque","lat":23.462438,"lng":91.172883,"addr":"","type":"place_of_worship"},{"id":"xx237402_903787","name":"Islamic place","lat":23.740181,"lng":90.378731,"addr":"","type":"place_of_worship"},{"id":"xx235498_905359","name":"Islamic place","lat":23.54982,"lng":90.535866,"addr":"","type":"place_of_worship"},{"id":"xx237813_904090","name":"Gausul Azam Masjid","lat":23.781266,"lng":90.409041,"addr":"Mohakhali","type":"place_of_worship"},{"id":"xx214490_919682","name":"Airport Mosque (Biman Bandar Jame Masjid)","lat":21.448973,"lng":91.968176,"addr":"","type":"place_of_worship"},{"id":"xx214433_919709","name":"Jhaotola Jame Masjid","lat":21.443285,"lng":91.97089,"addr":"","type":"place_of_worship"},{"id":"xx214458_919733","name":"Badar Mokam Jame Masjid","lat":21.445782,"lng":91.97329,"addr":"","type":"place_of_worship"},{"id":"xx214440_919748","name":"Laldighi Jame Masjid","lat":21.44396,"lng":91.97476,"addr":"","type":"place_of_worship"},{"id":"xx214267_919733","name":"Laboni Point Masjid","lat":21.42671,"lng":91.97332,"addr":"","type":"place_of_worship"},{"id":"xx237177_903894","name":"Lalbagh Shahi Masjid","lat":23.717686,"lng":90.389445,"addr":"","type":"place_of_worship"},{"id":"xx237160_903957","name":"চকবাজার শাহী মসজিদ","lat":23.715977,"lng":90.395689,"addr":"","type":"yes"},{"id":"xx237717_903632","name":"Islamic place","lat":23.771683,"lng":90.363177,"addr":"","type":"place_of_worship"},{"id":"xx223596_918223","name":"O R Nizam Road Mosque","lat":22.359647,"lng":91.822264,"addr":"Chittagong","type":"mosque"},{"id":"xx245747_917223","name":"Kazirbazar Eidgah","lat":24.574724,"lng":91.722316,"addr":"","type":"place_of_worship"},{"id":"xx245773_917199","name":"Jamunia Puraton Masjid","lat":24.577258,"lng":91.719879,"addr":"","type":"place_of_worship"},{"id":"xx224499_918176","name":"Mosque","lat":22.449867,"lng":91.817618,"addr":"","type":"yes"},{"id":"xx224539_918171","name":"Akbariya Jame Mosjid","lat":22.453896,"lng":91.817114,"addr":"","type":"place_of_worship"},{"id":"xx224610_918166","name":"Uttor Fatehabad Islamia Jame Masjjid","lat":22.460977,"lng":91.816631,"addr":"","type":"yes"},{"id":"xx224670_918165","name":"Fatepur Madrasha masjid, Hathazari, Chittagong - Rangamati-Khagrachhari Rd, Chattogram","lat":22.467021,"lng":91.816512,"addr":"","type":"place_of_worship"},{"id":"xx224688_918162","name":"Baitul Bari Jame Masjid, Hathazari, Chittagong - Rangamati-Khagrachhari Rd, Chattogram","lat":22.468761,"lng":91.816241,"addr":"","type":"place_of_worship"},{"id":"xx223648_918208","name":"Baitul Falah Mosque","lat":22.364763,"lng":91.820772,"addr":"","type":"place_of_worship"},{"id":"xx223585_918374","name":"Oli Kha Mosque","lat":22.3585,"lng":91.837367,"addr":"","type":"yes"},{"id":"xx224206_918198","name":"Aman Bazar Jame Mosque","lat":22.420649,"lng":91.819781,"addr":"","type":"yes"},{"id":"xx224245_918195","name":"Laliarhat Jame Masjid, Chattogram Hathajari Highway, Chattogram","lat":22.424541,"lng":91.819548,"addr":"","type":"yes"},{"id":"xx223620_918280","name":"Mokki Mosjid","lat":22.361951,"lng":91.828027,"addr":"Chittagong","type":"yes"},{"id":"xx223736_918333","name":"Tayebia Jame Mosjid","lat":22.373601,"lng":91.833322,"addr":"","type":"place_of_worship"},{"id":"xx223890_918247","name":"Fakirtila jame Mosque","lat":22.388998,"lng":91.824663,"addr":"Fakirtila, Roufabad","type":"place_of_worship"},{"id":"xx223400_918277","name":"Enayet Bazar Jame  Mosque","lat":22.340009,"lng":91.827719,"addr":"","type":"place_of_worship"},{"id":"xx223347_918330","name":"Baitul Ikram Jame Masjid","lat":22.334729,"lng":91.832992,"addr":"","type":"place_of_worship"},{"id":"xx223286_918299","name":"Daroga Hat Jame Masjiid, Darogha Hat Road, Chattogram","lat":22.328609,"lng":91.829929,"addr":"","type":"place_of_worship"},{"id":"xx223290_918269","name":"Maloom Masjid","lat":22.329048,"lng":91.826863,"addr":"","type":"place_of_worship"},{"id":"xx223280_918158","name":"Agrabad Jame Masjid, Agrabad, Chattogram","lat":22.327985,"lng":91.815808,"addr":"","type":"yes"},{"id":"xx223277_918100","name":"Agrabad T&T Colony Jame Masjid","lat":22.327678,"lng":91.809955,"addr":"","type":"place_of_worship"},{"id":"xx223384_918138","name":"Dewanhut Jame Masjid, Halishahar Rd, Chattogram","lat":22.338375,"lng":91.813829,"addr":"","type":"place_of_worship"},{"id":"xx223427_918149","name":"Mama Bhagina Jame Masjid","lat":22.342739,"lng":91.814928,"addr":"","type":"yes"},{"id":"xx223570_918125","name":"South Khulshi Jame Mosque","lat":22.357019,"lng":91.812511,"addr":"","type":"place_of_worship"},{"id":"xx223726_918153","name":"পূর্ব নাসিরাবাদ জামে মসজিদ","lat":22.372639,"lng":91.815322,"addr":"","type":"yes"},{"id":"xx223911_918114","name":"Daarul Huda Jame Masjid","lat":22.391071,"lng":91.811392,"addr":"","type":"place_of_worship"},{"id":"xx243308_900284","name":"Bolla Jame Masjid","lat":24.330778,"lng":90.028419,"addr":"","type":"yes"},{"id":"xx223633_918372","name":"Shayesta Khan Mosque","lat":22.363316,"lng":91.83719,"addr":"Chittagong","type":"yes"},{"id":"xx223281_918033","name":"Bepari Para Jame Mosjid, Halishahar Rd, Chattogram","lat":22.328072,"lng":91.803318,"addr":"","type":"place_of_worship"},{"id":"xx248743_909821","name":"Eidgah","lat":24.874269,"lng":90.982118,"addr":"","type":"yes"},{"id":"xx249691_901771","name":"Markaz Masjid","lat":24.969117,"lng":90.177116,"addr":"","type":"yes"},{"id":"xx248835_907334","name":"Boro Bazar Mosque","lat":24.883475,"lng":90.733448,"addr":"","type":"yes"},{"id":"xx237209_904059","name":"Siddik Bazar Masjid","lat":23.720934,"lng":90.405931,"addr":"","type":"mosque"},{"id":"xx232096_903486","name":"Shariatpur Central Eidgah","lat":23.209595,"lng":90.348598,"addr":"","type":"place_of_worship"},{"id":"xx232243_906580","name":"Begum Mosjid","lat":23.224258,"lng":90.65796,"addr":"","type":"yes"},{"id":"xx237787_903707","name":"Baitul Aman Jame Mosque","lat":23.778677,"lng":90.370662,"addr":"","type":"yes"},{"id":"xx223467_918338","name":"PDB Colony Jame Masjid","lat":22.34673,"lng":91.833813,"addr":"Chittagong","type":"mosque"},{"id":"xx237216_904037","name":"Agamasi Lane Vanga Mosque","lat":23.721648,"lng":90.403706,"addr":"","type":"place_of_worship"},{"id":"xx238019_903535","name":"Masjidul Akbar Eidgah","lat":23.801894,"lng":90.353481,"addr":"Zoo Road","type":"place_of_worship"},{"id":"xx237214_904040","name":"Agamasi lane zam-e-mosque","lat":23.721402,"lng":90.403977,"addr":"","type":"place_of_worship"},{"id":"xx237188_903987","name":"Islamic place","lat":23.718791,"lng":90.398736,"addr":"","type":"place_of_worship"},{"id":"xx235891_911157","name":"Shahebbazar Eidgah","lat":23.589085,"lng":91.115717,"addr":"","type":"yes"},{"id":"xx237047_903910","name":"Hauli Kabarasthan","lat":23.704718,"lng":90.391048,"addr":"","type":"grave_yard"},{"id":"xx241580_906588","name":"Al-Menon Mosque","lat":24.158021,"lng":90.658829,"addr":"","type":"place_of_worship"},{"id":"xx241535_906734","name":"Ghagotia Mosque","lat":24.153508,"lng":90.673351,"addr":"","type":"place_of_worship"},{"id":"xx237172_903986","name":"Begum Bazar Shahi Masjid","lat":23.717197,"lng":90.398578,"addr":"","type":"place_of_worship"},{"id":"xx237168_903998","name":"Golam Mostafa Lane Jame Mosque","lat":23.71682,"lng":90.39984,"addr":"","type":"place_of_worship"},{"id":"xx237177_904007","name":"Satrowza Khaze Nehal Jame Mosque","lat":23.717723,"lng":90.400666,"addr":"","type":"place_of_worship"},{"id":"xx237228_904054","name":"Central Vetenary Hospital Jame Mosque","lat":23.722849,"lng":90.405438,"addr":"","type":"place_of_worship"},{"id":"xx223615_918367","name":"Moulvi Bashir Ullah Masjid","lat":22.361528,"lng":91.836686,"addr":"Chittagong","type":"yes"},{"id":"xx237202_904009","name":"Islamic place","lat":23.720231,"lng":90.400911,"addr":"","type":"place_of_worship"},{"id":"xx223654_917683","name":"Bishwaspara Jaame Masjid","lat":22.365439,"lng":91.768279,"addr":"Chittagong","type":"yes"},{"id":"xx238804_903956","name":"Baitunnur Jame Maszid","lat":23.880437,"lng":90.395579,"addr":"Ashulia Road","type":"yes"},{"id":"xx237168_904034","name":"Islamic place","lat":23.716801,"lng":90.403434,"addr":"","type":"place_of_worship"},{"id":"xx237107_904048","name":"Islamic place","lat":23.710669,"lng":90.404764,"addr":"","type":"place_of_worship"},{"id":"xx237185_904049","name":"Baitul Aman Jame Masque","lat":23.718493,"lng":90.404947,"addr":"","type":"place_of_worship"},{"id":"xx237201_904055","name":"Chan Kha Jame Masque","lat":23.720097,"lng":90.4055,"addr":"","type":"place_of_worship"},{"id":"xx237527_903831","name":"Paschim Pantha Path jame Masjid","lat":23.752694,"lng":90.383067,"addr":"","type":"place_of_worship"},{"id":"xx223600_918410","name":"Kapash Gola Jamtola Jame masjid","lat":22.359993,"lng":91.841004,"addr":"","type":"place_of_worship"},{"id":"xx223589_918370","name":"Baitul Baseth Masjid","lat":22.358917,"lng":91.83697,"addr":"","type":"place_of_worship"},{"id":"xx223763_917606","name":"Kaderia Jame Masjid, Bohoddar Bari Rd, Salimpur, Salimpur Union, Chattogram","lat":22.376318,"lng":91.760597,"addr":"","type":"place_of_worship"},{"id":"xx224150_917517","name":"Baitussaraf Jame Masjid","lat":22.414994,"lng":91.751748,"addr":"","type":"place_of_worship"},{"id":"xx223580_918452","name":"Boro Mia Masjid","lat":22.358005,"lng":91.845201,"addr":"","type":"mosque"},{"id":"xx223591_918487","name":"Nur Begom Jame Masjid","lat":22.359066,"lng":91.848719,"addr":"","type":"place_of_worship"},{"id":"xx223682_918424","name":"Bahaddarhat Jame Masjid","lat":22.368238,"lng":91.842394,"addr":"","type":"place_of_worship"},{"id":"xx223515_918360","name":"Miskin Shah Jame Masjid","lat":22.351545,"lng":91.836024,"addr":"","type":"place_of_worship"},{"id":"xx233756_912724","name":"Talptri Mosque","lat":23.375577,"lng":91.27241,"addr":"","type":"mosque"},{"id":"xx223569_918196","name":"Goribullah Shah Jame Masjid","lat":22.356909,"lng":91.819613,"addr":"","type":"place_of_worship"},{"id":"xx221967_922191","name":"Bandarban Central Mosque","lat":22.196687,"lng":92.219133,"addr":"","type":"place_of_worship"},{"id":"xx221941_922161","name":"Thana Masjid","lat":22.194124,"lng":92.216078,"addr":"","type":"place_of_worship"},{"id":"xx225984_907486","name":"Upozila Jame Mosjid","lat":22.598427,"lng":90.748626,"addr":"Upozila Road","type":"place_of_worship"},{"id":"xx226051_907458","name":"Hospital Jame Mosjid","lat":22.605053,"lng":90.745773,"addr":"","type":"place_of_worship"},{"id":"xx237401_903738","name":"Al aksa mosque","lat":23.740093,"lng":90.373807,"addr":"Road 4A","type":"place_of_worship"},{"id":"xx240031_906719","name":"Mia Bari Mosque","lat":24.003093,"lng":90.671875,"addr":"","type":"place_of_worship"},{"id":"xx237411_903724","name":"Dhopapara Masjid","lat":23.741086,"lng":90.372438,"addr":"","type":"place_of_worship"},{"id":"xx237380_903680","name":"Tiw Mazar Mosque","lat":23.73799,"lng":90.367975,"addr":"Teenmajar road","type":"place_of_worship"},{"id":"xx226010_907470","name":"Kholipa porti mosjid","lat":22.601017,"lng":90.747046,"addr":"Sadar Road, Daulatkhan","type":"place_of_worship"},{"id":"xx226039_907458","name":"Markaj Mosjid","lat":22.603885,"lng":90.745789,"addr":"daulatkhan, bhola","type":"place_of_worship"},{"id":"xx223293_918032","name":"Osman Ghani Jame Mosjid","lat":22.329274,"lng":91.803208,"addr":"","type":"place_of_worship"},{"id":"xx223284_917951","name":"Dewan Ali Sowdagor Mosque","lat":22.328359,"lng":91.795147,"addr":"","type":"place_of_worship"},{"id":"xx244012_900483","name":"Purbashinda Jame Mosjid","lat":24.401201,"lng":90.04832,"addr":"","type":"place_of_worship"},{"id":"xx223640_918422","name":"Badurtala Jame Mosjid","lat":22.36399,"lng":91.842245,"addr":"","type":"place_of_worship"},{"id":"xx223732_918399","name":"Khatiberhat Kaderia Tayabia Jame Masjid","lat":22.373235,"lng":91.839909,"addr":"","type":"place_of_worship"},{"id":"xx223716_918366","name":"Muhammadpur Afzal Mosjid","lat":22.371609,"lng":91.836632,"addr":"","type":"place_of_worship"},{"id":"xx223709_918281","name":"Forest Research Jame Mosjid","lat":22.370945,"lng":91.828086,"addr":"","type":"place_of_worship"},{"id":"xx223498_918382","name":"Chandanpura Mosjid","lat":22.349777,"lng":91.838205,"addr":"Sirajuddowla Road","type":"place_of_worship"},{"id":"xx230081_914002","name":"Feni Boro Jame Mosjid","lat":23.008144,"lng":91.400203,"addr":"","type":"place_of_worship"},{"id":"xx230108_913988","name":"ফেনী কোর্ট মসজিদ","lat":23.010758,"lng":91.398822,"addr":"","type":"place_of_worship"},{"id":"xx230136_913944","name":"Pathabari Mosjid","lat":23.013585,"lng":91.394386,"addr":"","type":"place_of_worship"},{"id":"xx232950_911294","name":"Kaksar Mosjid","lat":23.294988,"lng":91.129365,"addr":"","type":"place_of_worship"},{"id":"xx233385_911460","name":"Bagmara Boro Mosjid","lat":23.338505,"lng":91.146029,"addr":"","type":"place_of_worship"},{"id":"xx234870_910054","name":"Chandina Bazar Mosjid","lat":23.486976,"lng":91.00538,"addr":"","type":"place_of_worship"},{"id":"xx247599_903941","name":"AMC Mosjid","lat":24.759932,"lng":90.394138,"addr":"","type":"place_of_worship"},{"id":"xx247652_903964","name":"Mymensingh Eidgah","lat":24.765239,"lng":90.39644,"addr":"","type":"place_of_worship"},{"id":"xx247544_904105","name":"Station Mosjid","lat":24.754396,"lng":90.410474,"addr":"","type":"place_of_worship"},{"id":"xx247512_904100","name":"Brammopolly Mosque","lat":24.751201,"lng":90.410017,"addr":"","type":"place_of_worship"},{"id":"xx247406_904079","name":"Polytechnic Jame Mosjid","lat":24.740607,"lng":90.40791,"addr":"","type":"place_of_worship"},{"id":"xx247572_904076","name":"Ganginarpar Mosjid","lat":24.757233,"lng":90.40764,"addr":"","type":"place_of_worship"},{"id":"xx247226_904361","name":"BAU Jame Mosjid","lat":24.722639,"lng":90.436087,"addr":"","type":"place_of_worship"},{"id":"xx247366_904251","name":"Kewatkhali Eidgah","lat":24.736556,"lng":90.425069,"addr":"","type":"place_of_worship"},{"id":"xx223970_918192","name":"Zilla Parishad Jame Masjid, Chittagong - Rangamati Hwy, Chattogram","lat":22.396951,"lng":91.819239,"addr":"","type":"place_of_worship"},{"id":"xx224726_918143","name":"Madanhat Jame Mosque, Bakar Ali Muazzins House, Dulair Para, Fatehpur, Chattogram","lat":22.472563,"lng":91.81434,"addr":"","type":"place_of_worship"},{"id":"xx224711_917941","name":"Baitur Mamur Jame Masjid","lat":22.471055,"lng":91.794057,"addr":"","type":"place_of_worship"},{"id":"xx226275_900568","name":"Islamic place","lat":22.627468,"lng":90.056785,"addr":"","type":"place_of_worship"},{"id":"xx226261_900576","name":"থানা মসজিদ","lat":22.626112,"lng":90.057635,"addr":"","type":"place_of_worship"},{"id":"xx226251_900582","name":"উপজেলা মসজিদ","lat":22.625146,"lng":90.058219,"addr":"","type":"place_of_worship"},{"id":"xx226317_900595","name":"Islamic place","lat":22.6317,"lng":90.059501,"addr":"","type":"place_of_worship"},{"id":"xx226380_900741","name":"মোস্তফা হায়দার একাডেমী","lat":22.637969,"lng":90.074096,"addr":"","type":"school"},{"id":"xx226328_900662","name":"Islamic place","lat":22.632833,"lng":90.066213,"addr":"","type":"mosque"},{"id":"xx226283_900577","name":"Islamic place","lat":22.628335,"lng":90.057662,"addr":"","type":"place_of_worship"},{"id":"xx226384_900738","name":"Mostofa Hayder Academy Masjid","lat":22.638373,"lng":90.073783,"addr":"Amrajuri Road","type":"place_of_worship"},{"id":"xx226335_900621","name":"Islamic place","lat":22.63349,"lng":90.062147,"addr":"","type":"place_of_worship"},{"id":"xx237946_909194","name":"Ratanpur Central Jame Mosjid","lat":23.794577,"lng":90.919405,"addr":"","type":"place_of_worship"},{"id":"xx238058_908956","name":"Piyarakandi Masjid","lat":23.805768,"lng":90.89556,"addr":"","type":"place_of_worship"},{"id":"xx237019_909628","name":"Pushkarinirpar Jame Mosjid","lat":23.701873,"lng":90.962784,"addr":"","type":"place_of_worship"},{"id":"xx237968_909815","name":"Malai Masjid","lat":23.796764,"lng":90.981549,"addr":"","type":"place_of_worship"},{"id":"xx236999_909604","name":"Pushkarinirpar Eidgah","lat":23.699948,"lng":90.96042,"addr":"","type":"place_of_worship"},{"id":"xx237671_904200","name":"Ulon Jame Masjid","lat":23.767122,"lng":90.419962,"addr":"","type":"place_of_worship"},{"id":"xx237680_903780","name":"জিয়া উদ্যান মসজিদ","lat":23.767994,"lng":90.378016,"addr":"","type":"place_of_worship"},{"id":"xx237792_903786","name":"Agargaon New Colony Mosque","lat":23.779212,"lng":90.378642,"addr":"","type":"place_of_worship"},{"id":"xx237243_903849","name":"Azimpur Chapra Masjid","lat":23.724254,"lng":90.384866,"addr":"","type":"place_of_worship"},{"id":"xx237364_903900","name":"Hall Mosque","lat":23.736389,"lng":90.390005,"addr":"","type":"place_of_worship"},{"id":"xx237347_903888","name":"হল মসজিদ","lat":23.734672,"lng":90.388755,"addr":"","type":"place_of_worship"},{"id":"xx237334_903882","name":"হল মসজিদ","lat":23.733444,"lng":90.388159,"addr":"","type":"place_of_worship"},{"id":"xx237379_903913","name":"Hall Mosque","lat":23.737917,"lng":90.391256,"addr":"","type":"place_of_worship"},{"id":"xx237379_903926","name":"Hall Mosque","lat":23.737942,"lng":90.392617,"addr":"","type":"place_of_worship"},{"id":"xx237574_903929","name":"Biggan College Masjid","lat":23.757447,"lng":90.392906,"addr":"","type":"place_of_worship"},{"id":"xx237395_903981","name":"Islamic place","lat":23.739473,"lng":90.398113,"addr":"","type":"place_of_worship"},{"id":"xx237364_903958","name":"Thana Mosque","lat":23.736358,"lng":90.39578,"addr":"","type":"place_of_worship"},{"id":"xx237567_903894","name":"Market Mosque","lat":23.756693,"lng":90.389404,"addr":"","type":"place_of_worship"},{"id":"xx237968_903484","name":"হজরত শাহ আলী বাগদাদী মাজার মসজিদ","lat":23.796764,"lng":90.348419,"addr":"","type":"place_of_worship"},{"id":"xx237858_904087","name":"জামিয়া মুহাম্মাদিয়া ইসলামিয়া মাদ্রাসা","lat":23.785765,"lng":90.408717,"addr":"","type":"place_of_worship"},{"id":"xx237596_903654","name":"Town Hall Mosque","lat":23.75965,"lng":90.365412,"addr":"","type":"place_of_worship"},{"id":"xx223579_918402","name":"Chawkbazar City Corporation Shahi Jame Masjid","lat":22.357908,"lng":91.840178,"addr":"","type":"place_of_worship"},{"id":"xx226295_900587","name":"Islamic place","lat":22.629509,"lng":90.058742,"addr":"","type":"school"},{"id":"xx226324_900606","name":"Islamic place","lat":22.632411,"lng":90.060573,"addr":"","type":"place_of_worship"},{"id":"xx226174_900678","name":"Islamic place","lat":22.617421,"lng":90.067844,"addr":"","type":"school"},{"id":"xx223459_917818","name":"Shapla Abashik Jame Mosque","lat":22.345877,"lng":91.781795,"addr":"","type":"place_of_worship"},{"id":"xx237612_903588","name":"Islamic place","lat":23.761215,"lng":90.358794,"addr":"","type":"place_of_worship"},{"id":"xx226203_900585","name":"Islamic place","lat":22.620311,"lng":90.058497,"addr":"","type":"school"},{"id":"xx223641_918419","name":"Badurtala Jame Masjid","lat":22.364133,"lng":91.841898,"addr":"","type":"place_of_worship"},{"id":"xx238814_904069","name":"Islamic place","lat":23.881354,"lng":90.406948,"addr":"","type":"grave_yard"},{"id":"xx238846_904079","name":"Islamic place","lat":23.884573,"lng":90.407944,"addr":"","type":"place_of_worship"},{"id":"xx238858_904082","name":"Baitul-Nur Jame Mashjid","lat":23.885813,"lng":90.40816,"addr":"","type":"place_of_worship"},{"id":"xx238868_904092","name":"Islamic place","lat":23.886754,"lng":90.409171,"addr":"","type":"place_of_worship"},{"id":"xx238869_904119","name":"Islamic place","lat":23.886896,"lng":90.411908,"addr":"","type":"grave_yard"},{"id":"xx238879_904126","name":"Islamic place","lat":23.887875,"lng":90.412573,"addr":"","type":"place_of_worship"},{"id":"xx238897_904115","name":"Islamic place","lat":23.889723,"lng":90.411491,"addr":"","type":"place_of_worship"},{"id":"xx238895_904099","name":"Baitul Aman Mashjid","lat":23.889511,"lng":90.409882,"addr":"","type":"place_of_worship"},{"id":"xx238870_904081","name":"Islamic place","lat":23.886995,"lng":90.408087,"addr":"","type":"place_of_worship"},{"id":"xx238884_904101","name":"Angurertec Mashjid","lat":23.888351,"lng":90.41011,"addr":"","type":"place_of_worship"},{"id":"xx238889_904084","name":"Rupbaner Math Mashjid","lat":23.888865,"lng":90.408355,"addr":"","type":"place_of_worship"},{"id":"xx238907_904092","name":"Jamai Bazar Mashjid","lat":23.890737,"lng":90.409207,"addr":"","type":"place_of_worship"},{"id":"xx238882_904078","name":"Shahi Mashjid","lat":23.888228,"lng":90.407776,"addr":"","type":"place_of_worship"},{"id":"xx238870_904072","name":"Islamic place","lat":23.886997,"lng":90.407216,"addr":"","type":"place_of_worship"},{"id":"xx223790_918113","name":"Mosque","lat":22.37902,"lng":91.811308,"addr":"","type":"place_of_worship"},{"id":"xx224706_917834","name":"Science Faculty Mosque","lat":22.470554,"lng":91.783373,"addr":"","type":"place_of_worship"},{"id":"xx237861_904259","name":"Siddiquia Jaame Mosque","lat":23.786056,"lng":90.425933,"addr":"","type":"place_of_worship"},{"id":"xx221697_904140","name":"Islamic place","lat":22.169748,"lng":90.41396,"addr":"","type":"school"},{"id":"xx226328_900888","name":"Islamic place","lat":22.632815,"lng":90.088809,"addr":"","type":"mosque"},{"id":"xx225765_900543","name":"Islamic place","lat":22.576479,"lng":90.054295,"addr":"","type":"place_of_worship"},{"id":"xx237327_903647","name":"Madrasa-E-Umor","lat":23.732719,"lng":90.364662,"addr":"","type":"place_of_worship"},{"id":"xx237371_903714","name":"Al Hera Jame Mosque","lat":23.737113,"lng":90.371445,"addr":"","type":"place_of_worship"},{"id":"xx237391_903732","name":"Bitul Aman Jam Mosque","lat":23.739068,"lng":90.373214,"addr":"","type":"place_of_worship"},{"id":"xx237386_903745","name":"Baitun Nur Mosjid","lat":23.738564,"lng":90.374479,"addr":"","type":"place_of_worship"},{"id":"xx237381_903708","name":"Colony Mosque","lat":23.738071,"lng":90.370843,"addr":"","type":"place_of_worship"},{"id":"xx237388_903715","name":"B Type Mosque","lat":23.738839,"lng":90.371485,"addr":"","type":"place_of_worship"},{"id":"xx237374_903685","name":"Baitul Moharram Jarye Mosque","lat":23.737413,"lng":90.368517,"addr":"","type":"place_of_worship"},{"id":"xx237361_903690","name":"Tannery Block Jame Mosque","lat":23.736128,"lng":90.369008,"addr":"","type":"place_of_worship"},{"id":"xx237399_903712","name":"Tahfizul Koran Hafezia Madrassa","lat":23.739939,"lng":90.371221,"addr":"","type":"place_of_worship"},{"id":"xx237396_903700","name":"jigatola Gabtola mosjid","lat":23.739571,"lng":90.370008,"addr":"","type":"place_of_worship"},{"id":"xx237289_903228","name":"Chotomonohria Jame Mosque","lat":23.728857,"lng":90.322833,"addr":"","type":"mosque"},{"id":"xx237336_903563","name":"Baitul Mamur Jame Mosjid","lat":23.733621,"lng":90.356311,"addr":"","type":"place_of_worship"},{"id":"xx237333_903564","name":"Dorbar shorif","lat":23.733337,"lng":90.356389,"addr":"","type":"place_of_worship"},{"id":"xx237410_903639","name":"Charakghata Jame Mosjid","lat":23.740991,"lng":90.363853,"addr":"","type":"place_of_worship"},{"id":"xx237401_903672","name":"Sher-e-Bangla Road Jame Masjid","lat":23.740064,"lng":90.367186,"addr":"","type":"place_of_worship"},{"id":"xx237406_903654","name":"Masjide Baitul Mamur","lat":23.740553,"lng":90.36542,"addr":"","type":"place_of_worship"},{"id":"xx237348_903674","name":"Bangladesh Tannery Mosque","lat":23.73478,"lng":90.367371,"addr":"","type":"place_of_worship"},{"id":"xx237310_903632","name":"Dayra Sharif","lat":23.731038,"lng":90.36324,"addr":"","type":"place_of_worship"},{"id":"xx237343_903651","name":"Gozmohol Choto mosjid","lat":23.73428,"lng":90.365088,"addr":"","type":"place_of_worship"},{"id":"xx237401_903430","name":"Char Washpur Madrasah & Mosjid","lat":23.740071,"lng":90.34296,"addr":"","type":"mosque"},{"id":"xx237300_903335","name":"AtiBazar Madrasa & Mosjid","lat":23.730031,"lng":90.333502,"addr":"","type":"mosque"},{"id":"xx237204_903713","name":"Baital Jannat Jame Mosjid","lat":23.72037,"lng":90.371266,"addr":"","type":"place_of_worship"},{"id":"xx237194_903493","name":"Eidgah","lat":23.719377,"lng":90.349313,"addr":"","type":"place_of_worship"},{"id":"xx237152_903646","name":"বায়তুল মামুর জামে মসজিদ","lat":23.715158,"lng":90.364561,"addr":"","type":"place_of_worship"},{"id":"xx237212_903656","name":"Mosjid -E- Noor","lat":23.721231,"lng":90.365619,"addr":"","type":"mosque"},{"id":"xx237107_903650","name":"Baytul Ulum Madrasa","lat":23.710716,"lng":90.365017,"addr":"","type":"school"},{"id":"xx237101_903652","name":"Al-aksa Jame Mosid","lat":23.710109,"lng":90.365236,"addr":"","type":"place_of_worship"},{"id":"xx237106_903657","name":"Reyazul Ulum Madrasa","lat":23.710601,"lng":90.365679,"addr":"","type":"school"},{"id":"xx237315_903587","name":"Al Baytun Nure Hadi Jhame Moshjid","lat":23.731509,"lng":90.358737,"addr":"","type":"place_of_worship"},{"id":"xx237307_903584","name":"Jhau Chor Bazar Boro Moshjid","lat":23.730658,"lng":90.358421,"addr":"","type":"place_of_worship"},{"id":"xx237207_903672","name":"Hasan Nagor Boro Jame Mosque","lat":23.720676,"lng":90.367191,"addr":"","type":"place_of_worship"},{"id":"xx237106_903836","name":"Karimabad Jame Masjid","lat":23.710603,"lng":90.383631,"addr":"","type":"place_of_worship"},{"id":"xx237283_903584","name":"Darus Salam Masjid","lat":23.728341,"lng":90.35835,"addr":"","type":"place_of_worship"},{"id":"xx237249_903612","name":"Makam E Mahmuda","lat":23.724858,"lng":90.361245,"addr":"","type":"place_of_worship"},{"id":"xx237196_903692","name":"Chan Masjid","lat":23.719595,"lng":90.369203,"addr":"","type":"place_of_worship"},{"id":"xx237219_903709","name":"Hazrat Osman Goni Madrasah","lat":23.72188,"lng":90.370867,"addr":"","type":"school"},{"id":"xx237133_903793","name":"রহমতবাগ মসজিদ","lat":23.713302,"lng":90.379295,"addr":"","type":"place_of_worship"},{"id":"xx237270_903610","name":"Baitul Aksa Jame Moshjid","lat":23.726962,"lng":90.361012,"addr":"","type":"place_of_worship"},{"id":"xx237139_903783","name":"আল মক্কা মসজিদ","lat":23.713901,"lng":90.378332,"addr":"","type":"place_of_worship"},{"id":"xx237109_903823","name":"এসি মসজিদ","lat":23.7109,"lng":90.382325,"addr":"","type":"place_of_worship"},{"id":"xx237275_903718","name":"Kulal Mohal Mashjid","lat":23.727502,"lng":90.371823,"addr":"","type":"place_of_worship"},{"id":"xx237225_903703","name":"Nur Jame Mosjid","lat":23.722456,"lng":90.370292,"addr":"","type":"place_of_worship"},{"id":"xx237263_903718","name":"Saha Mastan Jame Moshjid","lat":23.72627,"lng":90.371772,"addr":"","type":"place_of_worship"},{"id":"xx237129_903817","name":"ছাতা মসজিদ","lat":23.712929,"lng":90.381695,"addr":"","type":"place_of_worship"},{"id":"xx237237_903654","name":"Shahi Jame mosjid","lat":23.723741,"lng":90.365357,"addr":"","type":"place_of_worship"},{"id":"xx237245_903656","name":"Bismillah Arabiyah Madrasah","lat":23.724497,"lng":90.36559,"addr":"Jaula Hati Chourasta Road","type":"school"},{"id":"xx237304_903314","name":"Joynagar Koborsthan","lat":23.730386,"lng":90.331353,"addr":"","type":"grave_yard"},{"id":"xx237306_903305","name":"Joynagar Eidgah Jame Mosque","lat":23.730604,"lng":90.330471,"addr":"","type":"place_of_worship"},{"id":"xx237252_903257","name":"Banglanagar Jame Mosque","lat":23.725238,"lng":90.325749,"addr":"","type":"place_of_worship"},{"id":"xx237419_903599","name":"Z.H. Sikder Medical Mosque","lat":23.741884,"lng":90.359872,"addr":"","type":"place_of_worship"},{"id":"xx237422_903563","name":"Mosjidul Aksa","lat":23.74217,"lng":90.356255,"addr":"","type":"place_of_worship"},{"id":"xx237431_903554","name":"Khaja Baba Forid Pura Mosque","lat":23.743093,"lng":90.355368,"addr":"","type":"place_of_worship"},{"id":"xx237500_903597","name":"Babri Mosjid","lat":23.75002,"lng":90.359681,"addr":"","type":"place_of_worship"},{"id":"xx237316_903400","name":"Tebargram Mosque","lat":23.731593,"lng":90.339956,"addr":"","type":"place_of_worship"},{"id":"xx236998_903697","name":"NekrojBag Koborsthan","lat":23.699788,"lng":90.369657,"addr":"","type":"grave_yard"},{"id":"xx237349_903618","name":"Alamin","lat":23.73487,"lng":90.361818,"addr":"","type":"place_of_worship"},{"id":"xx237392_903675","name":"Tennary Mor Shahi Masjid","lat":23.739207,"lng":90.367529,"addr":"","type":"place_of_worship"},{"id":"xx237458_903669","name":"Donbash Jama Mosque","lat":23.745758,"lng":90.366906,"addr":"","type":"place_of_worship"},{"id":"xx237462_903685","name":"Modhu Bazar Jama Mosque","lat":23.746232,"lng":90.368459,"addr":"","type":"place_of_worship"},{"id":"xx237320_903699","name":"Leather Technology Moshid","lat":23.73199,"lng":90.369918,"addr":"","type":"mosque"},{"id":"xx237319_903677","name":"Nobipur Jame Moshid","lat":23.731944,"lng":90.367684,"addr":"","type":"place_of_worship"},{"id":"xx237478_903662","name":"Al-Madina Jama Mosque","lat":23.74775,"lng":90.366157,"addr":"","type":"place_of_worship"},{"id":"xx237435_903679","name":"Hatembag Jame Mosque","lat":23.743479,"lng":90.367887,"addr":"Hatembag Road, East Rayer Bazar","type":"place_of_worship"},{"id":"xx237337_903593","name":"Al Jamia Ajizia","lat":23.733696,"lng":90.359333,"addr":"","type":"mosque"},{"id":"xx237328_903587","name":"Baitul JabbarJame Moshid","lat":23.732843,"lng":90.358669,"addr":"","type":"mosque"},{"id":"xx237459_903606","name":"Baitul Asad Jhame Moshjid","lat":23.745893,"lng":90.360583,"addr":"","type":"place_of_worship"},{"id":"xx237472_903632","name":"Kabaar Mar Majar","lat":23.747158,"lng":90.36321,"addr":"Boishakhi Road","type":"place_of_worship"},{"id":"xx237457_903635","name":"Moshjidul Arafah","lat":23.74566,"lng":90.363488,"addr":"","type":"place_of_worship"},{"id":"xx237480_903619","name":"Allah's Pagol Jhame Mosjid","lat":23.748031,"lng":90.361876,"addr":"","type":"place_of_worship"},{"id":"xx237485_903634","name":"Jafarabad Jame Masjid","lat":23.748467,"lng":90.363402,"addr":"","type":"place_of_worship"},{"id":"xx237434_903645","name":"Mshid-e-Baytul Noor","lat":23.743422,"lng":90.364464,"addr":"","type":"place_of_worship"},{"id":"xx237376_903721","name":"Mosjidul Takwa","lat":23.737631,"lng":90.372128,"addr":"","type":"place_of_worship"},{"id":"xx237384_903613","name":"Berci Bath Baythow Jame Mosjid","lat":23.73844,"lng":90.361283,"addr":"","type":"place_of_worship"},{"id":"xx237357_903596","name":"Osmaniya Jame Mosjid","lat":23.735695,"lng":90.359593,"addr":"","type":"place_of_worship"},{"id":"xx237372_903644","name":"Hakimunnesa Jame Mosque","lat":23.737233,"lng":90.364362,"addr":"","type":"place_of_worship"},{"id":"xx237386_903657","name":"Sowatowgor Shahi Mosque","lat":23.738578,"lng":90.365701,"addr":"","type":"place_of_worship"},{"id":"xx237367_903652","name":"Islamic place","lat":23.736711,"lng":90.365171,"addr":"","type":"place_of_worship"},{"id":"xx237365_903650","name":"Royal Tannery Mosque","lat":23.736492,"lng":90.365,"addr":"","type":"place_of_worship"},{"id":"xx237423_903642","name":"Baijul Aman Jame Mosque","lat":23.742339,"lng":90.364185,"addr":"","type":"place_of_worship"},{"id":"xx237408_903639","name":"Tara Mosque","lat":23.740768,"lng":90.363859,"addr":"","type":"place_of_worship"},{"id":"xx237305_903622","name":"Voiya State Jame Mosjid","lat":23.730485,"lng":90.362244,"addr":"","type":"place_of_worship"},{"id":"xx237506_903610","name":"Darul Jannat Jame Mosque","lat":23.75064,"lng":90.361007,"addr":"","type":"place_of_worship"},{"id":"xx237517_903631","name":"Pul Par Mosque","lat":23.751673,"lng":90.36314,"addr":"","type":"place_of_worship"},{"id":"xx237353_903633","name":"Sikaritola Jomser Ali Jame Mosque & Madrasa","lat":23.735315,"lng":90.363313,"addr":"","type":"place_of_worship"},{"id":"xx237555_903615","name":"Al Maksud Jame Mosque","lat":23.755532,"lng":90.361458,"addr":"","type":"place_of_worship"},{"id":"xx237145_903809","name":"Noor-E Modina Jame moshjid","lat":23.714547,"lng":90.380938,"addr":"","type":"place_of_worship"},{"id":"xx237267_903859","name":"Baitul Karim Jame Mosque","lat":23.726714,"lng":90.385942,"addr":"","type":"mosque"},{"id":"xx237455_903878","name":"Al Hera Mosque","lat":23.745452,"lng":90.387758,"addr":"Crescent Road","type":"place_of_worship"},{"id":"xx238538_902771","name":"Islamic place","lat":23.85378,"lng":90.277133,"addr":"","type":"place_of_worship"},{"id":"xx238532_902819","name":"Purbo Rajason Mosjid","lat":23.853192,"lng":90.281891,"addr":"","type":"place_of_worship"},{"id":"xx238537_902739","name":"Islamic place","lat":23.853658,"lng":90.273872,"addr":"","type":"place_of_worship"},{"id":"xx237212_903683","name":"Hasan Nagar Jame Mosjid","lat":23.721178,"lng":90.368337,"addr":"","type":"place_of_worship"},{"id":"xx237158_903723","name":"চেয়ারম্যান বাড়ি আল-আমিন মসজিদ","lat":23.715808,"lng":90.372267,"addr":"","type":"place_of_worship"},{"id":"xx237118_903834","name":"নূর-মদিনা জামে মসজিদ","lat":23.711794,"lng":90.383402,"addr":"","type":"place_of_worship"},{"id":"xx237101_903830","name":"সরকার বাড়ী জামে মসিজদ","lat":23.710072,"lng":90.383045,"addr":"","type":"place_of_worship"},{"id":"xx237225_903867","name":"Salimullah Muslim Etimkhana Jame Mosjid","lat":23.722514,"lng":90.386733,"addr":"","type":"place_of_worship"},{"id":"xx237217_903863","name":"Islamic place","lat":23.721661,"lng":90.386311,"addr":"","type":"place_of_worship"},{"id":"xx237210_903860","name":"Gafur Mosque","lat":23.72105,"lng":90.385999,"addr":"","type":"place_of_worship"},{"id":"xx237235_903803","name":"Choto Vat Mosque","lat":23.723494,"lng":90.380297,"addr":"","type":"mosque"},{"id":"xx237239_903795","name":"Boro Vat Mosjid","lat":23.723883,"lng":90.379465,"addr":"","type":"mosque"},{"id":"xx237222_903786","name":"Nabab Bagicha Boro Jame Mosque","lat":23.722215,"lng":90.378644,"addr":"","type":"place_of_worship"},{"id":"xx237210_903804","name":"Nagar Beltoly Jame Mosque","lat":23.720959,"lng":90.380418,"addr":"","type":"place_of_worship"},{"id":"xx237219_903809","name":"Choudhury Bazar Jame Mosque","lat":23.721903,"lng":90.380904,"addr":"","type":"place_of_worship"},{"id":"xx237236_903831","name":"Shekh Shaheb Bazar Dotala Jame Mosjid","lat":23.72358,"lng":90.383142,"addr":"","type":"place_of_worship"},{"id":"xx237209_903820","name":"Masjid E Baitus Salam","lat":23.720936,"lng":90.381976,"addr":"","type":"place_of_worship"},{"id":"xx237876_903533","name":"c type qtr.msq.","lat":23.787579,"lng":90.353342,"addr":"Dar-Us-Salam Rd","type":"place_of_worship"},{"id":"xx226214_901637","name":"Islamic place","lat":22.621355,"lng":90.163688,"addr":"","type":"mosque"},{"id":"xx226376_901726","name":"Islamic place","lat":22.637627,"lng":90.172585,"addr":"","type":"mosque"},{"id":"xx237300_903689","name":"Hazrat Bahadur Shah","lat":23.73002,"lng":90.368881,"addr":"","type":"place_of_worship"},{"id":"xx237302_903684","name":"Hazaribag Bottol Shah Mosjid","lat":23.730159,"lng":90.368363,"addr":"","type":"place_of_worship"},{"id":"xx237310_903682","name":"Hazaribag Boro Mosjid","lat":23.730968,"lng":90.368207,"addr":"","type":"place_of_worship"},{"id":"xx237307_903667","name":"Kalonagur Jame Mosque","lat":23.730738,"lng":90.366696,"addr":"","type":"place_of_worship"},{"id":"xx234663_903321","name":"Islamic place","lat":23.466331,"lng":90.332059,"addr":"","type":"place_of_worship"},{"id":"xx234759_902908","name":"Islamic place","lat":23.475921,"lng":90.290849,"addr":"","type":"place_of_worship"},{"id":"xx234751_903077","name":"Islamic place","lat":23.475097,"lng":90.307702,"addr":"","type":"place_of_worship"},{"id":"xx234736_902735","name":"Islamic place","lat":23.473629,"lng":90.27352,"addr":"","type":"place_of_worship"},{"id":"xx234934_902692","name":"Uttar medeni Mondal Minar Masjid","lat":23.493426,"lng":90.269198,"addr":"","type":"place_of_worship"},{"id":"xx225053_918070","name":"বাইতুল আতিক জামে মসজিদ","lat":22.505275,"lng":91.806983,"addr":"","type":"mosque"},{"id":"xx237101_903896","name":"মুসলিমবাগ টাওয়ার জামে মসজিদ","lat":23.710103,"lng":90.38957,"addr":"","type":"mosque"},{"id":"xx237098_903873","name":"Baitus Salam Jame Mosque","lat":23.709753,"lng":90.387328,"addr":"","type":"place_of_worship"},{"id":"xx237109_903854","name":"বায়তুল হালিম জামে মসজিদ","lat":23.710898,"lng":90.38536,"addr":"","type":"place_of_worship"},{"id":"xx237095_903846","name":"লালগুদাম শাহী তারা মসজিদ","lat":23.709479,"lng":90.384588,"addr":"","type":"place_of_worship"},{"id":"xx237020_904485","name":"বাইতুল আশেকীন জামে মসজিদ","lat":23.702032,"lng":90.44851,"addr":"Shanir Akhra","type":"place_of_worship"},{"id":"xx226043_900945","name":"Islamic place","lat":22.604291,"lng":90.094538,"addr":"","type":"mosque"},{"id":"xx238206_902591","name":"Banktown Jame Masjid","lat":23.820629,"lng":90.25906,"addr":"","type":"place_of_worship"},{"id":"xx238220_902615","name":"ব্যাংকটাউন কবরস্থান","lat":23.821993,"lng":90.261502,"addr":"","type":"grave_yard"},{"id":"xx227045_903709","name":"Islamic place","lat":22.704537,"lng":90.37088,"addr":"","type":"place_of_worship"},{"id":"xx227052_903738","name":"জামে এবাদুল্লাহ মসজিদ","lat":22.705154,"lng":90.373796,"addr":"","type":"mosque"},{"id":"xx234499_911785","name":"Tomsom Bridge Jame Mosjid","lat":23.449929,"lng":91.178532,"addr":"","type":"place_of_worship"},{"id":"xx237601_903839","name":"Khejur Bagan Jame Mosque","lat":23.760113,"lng":90.383927,"addr":"","type":"place_of_worship"},{"id":"xx230139_914003","name":"Tomizia Masjid","lat":23.013922,"lng":91.400313,"addr":"College Road","type":"commercial"},{"id":"xx237370_903927","name":"KJ Hall Masjid","lat":23.736958,"lng":90.392685,"addr":"","type":"place_of_worship"},{"id":"xx238398_902474","name":"Savar Thana jame Mosjid","lat":23.83984,"lng":90.247444,"addr":"Madrasa Road","type":"place_of_worship"},{"id":"xx237791_903990","name":"Islamic place","lat":23.779096,"lng":90.399042,"addr":"","type":"place_of_worship"},{"id":"xx226942_903640","name":"Baitul Mamun Jame Masjid","lat":22.694224,"lng":90.363958,"addr":"","type":"mosque"},{"id":"xx237084_903719","name":"বায়তুল হোসেন জামে মসজিদ","lat":23.708399,"lng":90.371913,"addr":"","type":"place_of_worship"},{"id":"xx237101_903756","name":"Baitul Salam Jame Masjid","lat":23.710111,"lng":90.375574,"addr":"","type":"place_of_worship"},{"id":"xx237085_903752","name":"Baitunnur Jame Masjid","lat":23.708521,"lng":90.375167,"addr":"","type":"place_of_worship"},{"id":"xx237150_903692","name":"Chan Sardar Jame Mosjid","lat":23.715048,"lng":90.369235,"addr":"","type":"place_of_worship"},{"id":"xx237207_903628","name":"Baitul Falah Jame Mosque","lat":23.720667,"lng":90.362791,"addr":"","type":"place_of_worship"},{"id":"xx237198_903633","name":"Baytul Mamun Jame Mosque","lat":23.719824,"lng":90.363272,"addr":"","type":"place_of_worship"},{"id":"xx237211_903625","name":"Nayagaon Baitul Islam Jame Mosque","lat":23.721104,"lng":90.362519,"addr":"","type":"place_of_worship"},{"id":"xx237192_903633","name":"Al Aksa Madbots Jame Mosque","lat":23.719195,"lng":90.363271,"addr":"","type":"place_of_worship"},{"id":"xx237182_903615","name":"Baytul Monoah Jame Jame Mosque","lat":23.718204,"lng":90.361469,"addr":"","type":"place_of_worship"},{"id":"xx237194_903708","name":"বায়তুল মেহরান জামে মসজিদ","lat":23.719374,"lng":90.370755,"addr":"","type":"place_of_worship"},{"id":"xx237201_903692","name":"Al Madina Jama Mosjid","lat":23.720148,"lng":90.369195,"addr":"","type":"place_of_worship"},{"id":"xx237187_903693","name":"Aminbagh Jame mosque","lat":23.718701,"lng":90.369336,"addr":"","type":"place_of_worship"},{"id":"xx237173_903701","name":"জান্নাতবাগ জামে মসজিদ","lat":23.717303,"lng":90.370054,"addr":"","type":"place_of_worship"},{"id":"xx237175_903701","name":"Nuria Jame Mosque","lat":23.717481,"lng":90.370065,"addr":"","type":"place_of_worship"},{"id":"xx226568_900946","name":"জুলুহার জামে মসজিদ","lat":22.656809,"lng":90.094595,"addr":"","type":"place_of_worship"},{"id":"xx237124_903649","name":"বায়তুল আমান জামে মসজিদ","lat":23.712384,"lng":90.364868,"addr":"","type":"mosque"},{"id":"xx237115_903632","name":"Huzorpara Jame Mosque","lat":23.711549,"lng":90.363244,"addr":"","type":"mosque"},{"id":"xx225708_901397","name":"Islamic place","lat":22.57084,"lng":90.139678,"addr":"","type":"mosque"},{"id":"xx225710_901420","name":"Islamic place","lat":22.57098,"lng":90.142024,"addr":"","type":"place_of_worship"},{"id":"xx238503_904058","name":"বিমানবন্দর মসজিদ","lat":23.850303,"lng":90.405755,"addr":"","type":"place_of_worship"},{"id":"xx237156_903619","name":"আল-ইমাম মসজিদ","lat":23.715574,"lng":90.361878,"addr":"","type":"place_of_worship"},{"id":"xx237150_903643","name":"Baitul Mahur Mosque","lat":23.714991,"lng":90.364334,"addr":"","type":"place_of_worship"},{"id":"xx237140_903618","name":"চাঁদ তারা মসজিদ","lat":23.713958,"lng":90.361834,"addr":"","type":"place_of_worship"},{"id":"xx237159_903632","name":"দারুস সালাম মসজিদ","lat":23.715881,"lng":90.363232,"addr":"","type":"place_of_worship"},{"id":"xx237108_903636","name":"হুজুরপাড়া মসজিদ","lat":23.710818,"lng":90.363605,"addr":"","type":"place_of_worship"},{"id":"xx237141_903644","name":"Jamia-tul-Abra Mosque","lat":23.714109,"lng":90.364442,"addr":"","type":"place_of_worship"},{"id":"xx226510_901986","name":"Islamic place","lat":22.651031,"lng":90.19863,"addr":"","type":"mosque"},{"id":"xx237181_903639","name":"Abdul Gaffar Jame Mosque","lat":23.718083,"lng":90.363919,"addr":"","type":"place_of_worship"},{"id":"xx237173_903644","name":"বায়তুল ইসলাম জামে মসজিদ","lat":23.717345,"lng":90.364405,"addr":"","type":"place_of_worship"},{"id":"xx237371_903904","name":"Masjid","lat":23.737121,"lng":90.390435,"addr":"Dhaka","type":"place_of_worship"},{"id":"xx237360_903661","name":"Modina Mosque","lat":23.73601,"lng":90.366132,"addr":"","type":"place_of_worship"},{"id":"xx237114_903841","name":"সুরুজবাগ জামে মসজিদ","lat":23.711431,"lng":90.384069,"addr":"","type":"place_of_worship"},{"id":"xx237406_903728","name":"Baitus-salam Zome Mosque","lat":23.74058,"lng":90.372817,"addr":"","type":"place_of_worship"},{"id":"xx237418_903718","name":"Baitut-lalele Zome Mosque","lat":23.74184,"lng":90.371814,"addr":"","type":"place_of_worship"},{"id":"xx237435_903710","name":"Maszid-e-Ixbak-Noor","lat":23.743515,"lng":90.371009,"addr":"","type":"place_of_worship"},{"id":"xx237173_903723","name":"মসজিদ আল ঈমান","lat":23.717272,"lng":90.372286,"addr":"","type":"place_of_worship"},{"id":"xx237403_903740","name":"Al aksa mosque","lat":23.740349,"lng":90.374007,"addr":"","type":"place_of_worship"},{"id":"xx237089_903825","name":"নূর-ই মদিনা মসজিদ","lat":23.708939,"lng":90.382502,"addr":"","type":"place_of_worship"},{"id":"xx237324_903663","name":"Ambia Mosque","lat":23.732433,"lng":90.366283,"addr":"","type":"place_of_worship"},{"id":"xx237334_903654","name":"Gozmohol Boro Masjid","lat":23.733391,"lng":90.36537,"addr":"","type":"place_of_worship"},{"id":"xx237086_903796","name":"Baitul Rahman Mosque","lat":23.7086,"lng":90.379618,"addr":"","type":"place_of_worship"},{"id":"xx237113_903794","name":"জাহান মসজিদ","lat":23.711298,"lng":90.379414,"addr":"","type":"place_of_worship"},{"id":"xx237097_903801","name":"Nizambagh Jame Mosque","lat":23.709652,"lng":90.380119,"addr":"","type":"place_of_worship"},{"id":"xx237098_903777","name":"আব্বাস জামে মসজিদ","lat":23.709807,"lng":90.37768,"addr":"","type":"place_of_worship"},{"id":"xx237159_903677","name":"নবী নগর জামে মসজিদ","lat":23.715934,"lng":90.367708,"addr":"","type":"place_of_worship"},{"id":"xx237177_903681","name":"Baitul Aman Jame Mosjid","lat":23.717657,"lng":90.368141,"addr":"","type":"place_of_worship"},{"id":"xx237192_903652","name":"Munsirhati Mosjid","lat":23.719198,"lng":90.365223,"addr":"","type":"place_of_worship"},{"id":"xx237013_904221","name":"Jamalul Koryan Madrasha","lat":23.701256,"lng":90.422104,"addr":"","type":"place_of_worship"},{"id":"xx237317_903197","name":"Boro Monohoria Baitul Aman Jame Mosque","lat":23.731718,"lng":90.319711,"addr":"","type":"place_of_worship"},{"id":"xx224610_917959","name":"IFESCU Jame Masjid","lat":22.460993,"lng":91.79588,"addr":"","type":"place_of_worship"},{"id":"xx248704_907378","name":"Baitul Jannat Jame Mosjid","lat":24.870426,"lng":90.737826,"addr":"","type":"place_of_worship"},{"id":"xx248768_907336","name":"Katli Poschim Para Jame Mosjid","lat":24.876765,"lng":90.733553,"addr":"","type":"place_of_worship"},{"id":"xx248720_907389","name":"Nurella Jame Mosjid","lat":24.87201,"lng":90.738895,"addr":"","type":"place_of_worship"},{"id":"xx248713_907277","name":"DC Office Mosque, Netrokona Sadar","lat":24.871259,"lng":90.727658,"addr":"","type":"place_of_worship"},{"id":"xx247165_909463","name":"Shahi Mosjid","lat":24.716547,"lng":90.946326,"addr":"","type":"place_of_worship"},{"id":"xx247167_909564","name":"মদন বাজার জামে মসজিদ","lat":24.716679,"lng":90.956378,"addr":"মদন","type":"place_of_worship"},{"id":"xx247146_909517","name":"জাহাঙ্গীরপুর জামে মসজিদ","lat":24.714613,"lng":90.951713,"addr":"","type":"place_of_worship"},{"id":"xx247257_909468","name":"Mosjid E Koba","lat":24.725744,"lng":90.946752,"addr":"","type":"place_of_worship"},{"id":"xx247185_909534","name":"সওদাগর পাড়া জামে মসজিদ","lat":24.718472,"lng":90.95337,"addr":"","type":"place_of_worship"},{"id":"xx237302_903262","name":"Sharkar Bari Jame Mosjid","lat":23.730153,"lng":90.326239,"addr":"","type":"place_of_worship"},{"id":"xx223393_917820","name":"New I and New A Block Jame Mosque","lat":22.33929,"lng":91.782017,"addr":"Artillery Road","type":"place_of_worship"},{"id":"xx227133_903624","name":"বাইতুল মতিন আহলে হাদিস উপাসনালয়","lat":22.713301,"lng":90.362403,"addr":"পশ্চিম কাউনিয়া রোড","type":"place_of_worship"},{"id":"xx227081_903644","name":"Islamic place","lat":22.708126,"lng":90.364413,"addr":"Kali Bari Road","type":"place_of_worship"},{"id":"xx238865_909701","name":"Nabinagar Central Jame Masjid","lat":23.886473,"lng":90.9701,"addr":"","type":"place_of_worship"},{"id":"xx236964_904588","name":"Mujahid Nagar Ahsania Jame Masjid","lat":23.696395,"lng":90.458774,"addr":"South Rayerbag, Mujahid Nagar, Habib Nagar, Kadamtoli","type":"place_of_worship"},{"id":"xx237530_904419","name":"আবু বকর মসজিদ","lat":23.752967,"lng":90.441895,"addr":"","type":"place_of_worship"},{"id":"xx237569_904442","name":"S.Banasree mosque 2","lat":23.756865,"lng":90.444151,"addr":"","type":"place_of_worship"},{"id":"xx226979_903732","name":"Islamic place","lat":22.697866,"lng":90.373158,"addr":"","type":"mosque"},{"id":"xx227011_903727","name":"Islamic place","lat":22.701061,"lng":90.372676,"addr":"","type":"mosque"},{"id":"xx227152_903528","name":"Islamic place","lat":22.715249,"lng":90.352833,"addr":"","type":"mosque"},{"id":"xx238021_903778","name":"Islamic place","lat":23.802064,"lng":90.377839,"addr":"mirpur road-14","type":"place_of_worship"},{"id":"xx238056_903773","name":"Khademul Islamia Jame Mosque","lat":23.805628,"lng":90.377267,"addr":"Main Road - 13","type":"place_of_worship"},{"id":"xx238079_903744","name":"বাইতুল মাহফুজ জামে মসজিদ","lat":23.807856,"lng":90.374367,"addr":"Mirpur Road -10","type":"place_of_worship"},{"id":"xx238026_903780","name":"Islamic place","lat":23.802571,"lng":90.377952,"addr":"Mirpur road-14","type":"place_of_worship"},{"id":"xx238601_904263","name":"Central Eid gah of Dhaskin khan","lat":23.860066,"lng":90.426266,"addr":"Thana road, Dhaskin khan","type":"place_of_worship"},{"id":"xx237111_904181","name":"বিনত বিবি মসজিদ","lat":23.711101,"lng":90.418146,"addr":"Narinda Road","type":"place_of_worship"},{"id":"xx238101_903786","name":"বাইশটেকি কেন্দ্রীয় জামে মসজিদ","lat":23.810146,"lng":90.378606,"addr":"Section -Mirpur 13","type":"place_of_worship"},{"id":"xx237101_904176","name":"Mosque","lat":23.710125,"lng":90.417598,"addr":"R M Das Lane","type":"place_of_worship"},{"id":"xx237469_904019","name":"Eskaton Garden Jame Masjid","lat":23.746872,"lng":90.401914,"addr":"Eskaton Garden Road","type":"place_of_worship"},{"id":"xx238113_903800","name":"Islamic place","lat":23.811253,"lng":90.379997,"addr":"Mirpur-13","type":"place_of_worship"},{"id":"xx238110_903767","name":"মিরপুর প্যাকেজিং জামে মসজিদ","lat":23.810956,"lng":90.376661,"addr":"Mirpur-10","type":"place_of_worship"},{"id":"xx238471_904144","name":"Civil aviation mosque","lat":23.84714,"lng":90.414401,"addr":"Kaola","type":"place_of_worship"},{"id":"xx224621_903780","name":"Islamic place","lat":22.462074,"lng":90.377971,"addr":"","type":"place_of_worship"},{"id":"xx224720_903866","name":"Talukder Complex","lat":22.47199,"lng":90.386606,"addr":"","type":"place_of_worship"},{"id":"xx238506_904089","name":"বাবু সালাম মসজিদ","lat":23.850591,"lng":90.408909,"addr":"New Airport Road","type":"place_of_worship"},{"id":"xx237392_904059","name":"Circuit House Mosque","lat":23.739168,"lng":90.40589,"addr":"","type":"place_of_worship"},{"id":"xx238768_903973","name":"Baitul Aman Jame Mashjid","lat":23.876798,"lng":90.397314,"addr":"","type":"place_of_worship"},{"id":"xx248997_918507","name":"PDB jame mosque","lat":24.899651,"lng":91.850654,"addr":"","type":"place_of_worship"},{"id":"xx248998_918557","name":"Kajal Shah jame Mosque","lat":24.899799,"lng":91.855696,"addr":"","type":"place_of_worship"},{"id":"xx248987_918615","name":"Modhu Shohid Jame Mosque","lat":24.898667,"lng":91.861509,"addr":"Chowhatta Road","type":"place_of_worship"},{"id":"xx248979_918664","name":"Shah Gowhor Jame Mosque","lat":24.897851,"lng":91.866406,"addr":"","type":"place_of_worship"},{"id":"xx248965_918714","name":"Hawapara Jame Mosque","lat":24.896456,"lng":91.871441,"addr":"","type":"place_of_worship"},{"id":"xx237222_904089","name":"moti sardar masjid","lat":23.722198,"lng":90.408886,"addr":"Siddik Bazar Road","type":"place_of_worship"},{"id":"xx238044_903633","name":"Mirpur Model Thana Jame Mosjid","lat":23.804396,"lng":90.363303,"addr":"Main Road -1","type":"place_of_worship"},{"id":"xx238794_903950","name":"Abdullahpur Jame Mosjid","lat":23.879356,"lng":90.395022,"addr":"","type":"place_of_worship"},{"id":"xx237774_903599","name":"Baitul Zannat jame Mosjid","lat":23.777372,"lng":90.359891,"addr":"","type":"place_of_worship"},{"id":"xx237793_903598","name":"Krisnochura Jame Mosjid","lat":23.779288,"lng":90.359805,"addr":"","type":"place_of_worship"},{"id":"xx238056_903687","name":"Mazzar","lat":23.805565,"lng":90.368681,"addr":"","type":"place_of_worship"},{"id":"xx238177_903715","name":"মিরপুর ১১ বড় মসজিদ","lat":23.817723,"lng":90.371452,"addr":"","type":"place_of_worship"},{"id":"xx237737_903573","name":"Muhammadia Jame Moshjid","lat":23.773693,"lng":90.357336,"addr":"Dhaka","type":"place_of_worship"},{"id":"xx233746_910511","name":"Upazilla Mosque","lat":23.3746,"lng":91.051129,"addr":"","type":"mosque"},{"id":"xx223581_918449","name":"Boro Mia Masjid Graveyard","lat":22.358127,"lng":91.844894,"addr":"","type":"grave_yard"},{"id":"xx237478_904275","name":"Islamic place","lat":23.74778,"lng":90.427544,"addr":"","type":"place_of_worship"},{"id":"xx233891_911101","name":"East Padua (Madhyo Para) Mosque","lat":23.389068,"lng":91.110085,"addr":"","type":"mosque"},{"id":"xx236997_904236","name":"জামিআ হাকিমুল উম্মত","lat":23.699705,"lng":90.423619,"addr":"","type":"place_of_worship"},{"id":"xx237011_904262","name":"Madrasha","lat":23.701087,"lng":90.426219,"addr":"","type":"place_of_worship"},{"id":"xx236999_904271","name":"D.I.T Plot Jame Mosque","lat":23.699941,"lng":90.42709,"addr":"","type":"place_of_worship"},{"id":"xx236991_904255","name":"Mazar","lat":23.6991,"lng":90.42553,"addr":"","type":"shrine"},{"id":"xx237009_904286","name":"Panzegana Masjid","lat":23.700897,"lng":90.428551,"addr":"","type":"place_of_worship"},{"id":"xx234667_910274","name":"Chandiara Eidgah","lat":23.466651,"lng":91.027431,"addr":"","type":"place_of_worship"},{"id":"xx236809_904394","name":"Shyampur Lal Mosjid","lat":23.680938,"lng":90.439354,"addr":"Shyampur Lal Mosjid Road,","type":"place_of_worship"},{"id":"xx234012_909942","name":"মসজিদ","lat":23.401206,"lng":90.9942,"addr":"","type":"mosque"},{"id":"xx238134_903694","name":"জামেয়া ফোরকানিয়া মাদ্রাসা মসজিদ","lat":23.813371,"lng":90.369406,"addr":"","type":"place_of_worship"},{"id":"xx238117_903683","name":"বাইতুল শারফ জামে মসজিদ","lat":23.811733,"lng":90.368263,"addr":"","type":"place_of_worship"},{"id":"xx233777_910581","name":"মসজিদ","lat":23.377655,"lng":91.058073,"addr":"","type":"mosque"},{"id":"xx220778_920525","name":"Satkania Jumma Masjid","lat":22.077771,"lng":92.052465,"addr":"","type":"mosque"},{"id":"xx237756_904040","name":"chowdhury para jame mosjid","lat":23.77565,"lng":90.404046,"addr":"","type":"place_of_worship"},{"id":"xx223171_918525","name":"Al Faruqui Jame mosque","lat":22.31715,"lng":91.852509,"addr":"","type":"place_of_worship"},{"id":"xx223154_918528","name":"Hazrat Abdul Aziz Jame Mosque","lat":22.315353,"lng":91.852769,"addr":"","type":"place_of_worship"},{"id":"xx223176_918504","name":"Shah Mahmud bepani Jame mosque","lat":22.317591,"lng":91.850359,"addr":"","type":"place_of_worship"},{"id":"xx223175_918503","name":"old Shah Mahmud bepani Jame mosque","lat":22.317494,"lng":91.850332,"addr":"","type":"place_of_worship"},{"id":"xx237344_904087","name":"CGA Masjid","lat":23.734365,"lng":90.40869,"addr":"","type":"place_of_worship"},{"id":"xx220888_920374","name":"মৌলভী পাড়া জামে মসজিদ","lat":22.088818,"lng":92.03741,"addr":"","type":"mosque"},{"id":"xx220882_920378","name":"উত্তর রামপুর ফোরকানিয়া মাদ্রাসা","lat":22.088153,"lng":92.037786,"addr":"","type":"school"},{"id":"xx236965_903437","name":"Upazilla Council Mosque","lat":23.696546,"lng":90.343748,"addr":"","type":"place_of_worship"},{"id":"xx237984_904237","name":"জামিয়া মাদানিয়া মসজিদ","lat":23.798401,"lng":90.423699,"addr":"","type":"place_of_worship"},{"id":"xx238221_903786","name":"Baitul Mumin Jame Mosque","lat":23.822143,"lng":90.378599,"addr":"","type":"place_of_worship"},{"id":"xx238198_903788","name":"Bauniabadh B block Baitul Aman Jame Mosque","lat":23.819788,"lng":90.378815,"addr":"","type":"place_of_worship"},{"id":"xx232845_909919","name":"চাঙ্গিনী কেন্দ্রীয় জামে মসজিদ","lat":23.284537,"lng":90.991932,"addr":"","type":"mosque"},{"id":"xx238096_903738","name":"মদিনাতুল উলুম মহিলা মাদ্রাসা","lat":23.80955,"lng":90.373768,"addr":"Road 12","type":"university"},{"id":"xx238130_903756","name":"রাহমানিয়া হাফিজিয়া মাদ্রাসা ও এতিমখানা","lat":23.812986,"lng":90.375577,"addr":"Line 15, Avenue 5","type":"school"},{"id":"xx238167_903824","name":"Baitul Qurban Jame Mosjid and Madrasah","lat":23.816714,"lng":90.38243,"addr":"Beribandh Road","type":"place_of_worship"},{"id":"xx238713_904033","name":"Baitul Noor Jame Masjid","lat":23.871335,"lng":90.403276,"addr":"","type":"place_of_worship"},{"id":"xx238672_904027","name":"Mosque","lat":23.867212,"lng":90.402732,"addr":"","type":"place_of_worship"},{"id":"xx233053_910504","name":"Masjid","lat":23.305305,"lng":91.050351,"addr":"","type":"mosque"},{"id":"xx237485_903535","name":"Islamic place","lat":23.748545,"lng":90.353504,"addr":"","type":"place_of_worship"},{"id":"xx248875_907210","name":"College Masjid","lat":24.887502,"lng":90.72105,"addr":"","type":"place_of_worship"},{"id":"xx233505_910877","name":"Baro Lakkhiipur Central Eidgah","lat":23.350517,"lng":91.087657,"addr":"","type":"place_of_worship"},{"id":"xx233132_910151","name":"Masjid","lat":23.313167,"lng":91.01513,"addr":"","type":"mosque"},{"id":"xx227119_903629","name":"কাউনিয়া মডেল মহিলা মাদ্রাসা","lat":22.711887,"lng":90.362934,"addr":"","type":"school"},{"id":"xx233901_910536","name":"Puran Kadba Jame Maszid","lat":23.390076,"lng":91.053582,"addr":"","type":"mosque"},{"id":"xx234770_910835","name":"Dubair Char Baitul Aman Jame Masjid","lat":23.47703,"lng":91.083472,"addr":"","type":"mosque"},{"id":"xx234817_910584","name":"Nimsar Jame Masjid","lat":23.481695,"lng":91.058431,"addr":"","type":"mosque"},{"id":"xx235565_905328","name":"Islamic place","lat":23.556476,"lng":90.532825,"addr":"","type":"place_of_worship"},{"id":"xx234030_911164","name":"Adinamura Masjid","lat":23.402962,"lng":91.116392,"addr":"","type":"mosque"},{"id":"xx234029_911164","name":"Adinamura Majar","lat":23.402909,"lng":91.116419,"addr":"","type":"place_of_worship"},{"id":"xx233759_910555","name":"Barura Jame Masjid","lat":23.37595,"lng":91.055482,"addr":"","type":"mosque"},{"id":"xx233993_910905","name":"Bhuyan Bazar Eidgah","lat":23.399297,"lng":91.09051,"addr":"","type":"place_of_worship"},{"id":"xx233878_910672","name":"Mosque","lat":23.387804,"lng":91.067196,"addr":"","type":"mosque"},{"id":"xx234014_911153","name":"Mosque","lat":23.401372,"lng":91.115328,"addr":"","type":"mosque"},{"id":"xx232854_910002","name":"Payalgacha Jame Masjid","lat":23.28537,"lng":91.000241,"addr":"","type":"mosque"},{"id":"xx233874_911075","name":"Purbo Padua Jame Masjid","lat":23.387402,"lng":91.107502,"addr":"","type":"mosque"},{"id":"xx233868_911022","name":"Shikarpur Jame Masjid","lat":23.386827,"lng":91.102194,"addr":"","type":"mosque"},{"id":"xx233759_910530","name":"Thana Road Maszid","lat":23.375853,"lng":91.052976,"addr":"","type":"mosque"},{"id":"xx220656_920576","name":"Daroga Masjid","lat":22.06558,"lng":92.057578,"addr":"","type":"mosque"},{"id":"xx223565_918480","name":"Baitun Nur Jame Masjid","lat":22.356502,"lng":91.848034,"addr":"","type":"place_of_worship"},{"id":"xx223735_918511","name":"Bus Terminal Mosque","lat":22.373508,"lng":91.851115,"addr":"","type":"place_of_worship"},{"id":"xx237864_903297","name":"Aminbazar Madrasah","lat":23.78643,"lng":90.329685,"addr":"","type":"place_of_worship"},{"id":"xx231181_909133","name":"Namazer Gor","lat":23.11814,"lng":90.913302,"addr":"","type":"place_of_worship"},{"id":"xx233950_910391","name":"Masjid","lat":23.395019,"lng":91.039097,"addr":"","type":"mosque"},{"id":"xx234263_910040","name":"Masjid","lat":23.426345,"lng":91.00398,"addr":"","type":"mosque"},{"id":"xx233352_910758","name":"Islamic place","lat":23.335199,"lng":91.075767,"addr":"","type":"mosque"},{"id":"xx233544_910919","name":"Islamic place","lat":23.354411,"lng":91.091902,"addr":"","type":"mosque"},{"id":"xx237317_903134","name":"Islamic place","lat":23.73174,"lng":90.313391,"addr":"","type":"place_of_worship"},{"id":"xx238312_904188","name":"REB mosque","lat":23.831223,"lng":90.418806,"addr":"","type":"place_of_worship"},{"id":"xx223614_917823","name":"Mahmud Khan Jame Masjid","lat":22.361374,"lng":91.782296,"addr":"","type":"place_of_worship"},{"id":"xx237570_903949","name":"Tejgaon Truck Stand Mosque","lat":23.756971,"lng":90.394919,"addr":"To Satrasta","type":"place_of_worship"},{"id":"xx237649_904209","name":"Mokki Mashjid","lat":23.764915,"lng":90.420918,"addr":"","type":"place_of_worship"},{"id":"xx237621_904189","name":"Rampura Paka Jame Mashjid","lat":23.762095,"lng":90.418878,"addr":"","type":"place_of_worship"},{"id":"xx237579_904114","name":"Modhu Bag Bazar Jame Mosjid","lat":23.757948,"lng":90.411352,"addr":"","type":"place_of_worship"},{"id":"xx237547_904136","name":"East Noyatola Jame Mosjid","lat":23.754719,"lng":90.413577,"addr":"","type":"place_of_worship"},{"id":"xx237520_904079","name":"Green way Jame mosjid","lat":23.752007,"lng":90.407911,"addr":"","type":"place_of_worship"},{"id":"xx245040_913460","name":"Baniachong Shahi Eidgah","lat":24.504036,"lng":91.345954,"addr":"","type":"place_of_worship"},{"id":"xx245248_913683","name":"Bibir Muqam Masjid","lat":24.524815,"lng":91.368326,"addr":"","type":"place_of_worship"},{"id":"xx237666_904175","name":"Ulon Bazar Jame Mosjid","lat":23.766602,"lng":90.417538,"addr":"","type":"place_of_worship"},{"id":"xx241070_907292","name":"Islamic place","lat":24.106973,"lng":90.729249,"addr":"","type":"place_of_worship"},{"id":"xx237561_904091","name":"Pagla Majar Islamia Hafezi Nurani Madrasha&Baitul Mamur Jame Mosjid","lat":23.756092,"lng":90.409053,"addr":"","type":"place_of_worship"},{"id":"xx237578_904059","name":"Al-Amin Shahi Mosjid","lat":23.757817,"lng":90.405912,"addr":"","type":"place_of_worship"},{"id":"xx237584_904074","name":"Ambagan Chollish ghar Jame mosjid","lat":23.758399,"lng":90.407417,"addr":"","type":"place_of_worship"},{"id":"xx237789_903565","name":"S.A. Khaleque Jame Mosque","lat":23.778851,"lng":90.356491,"addr":"","type":"place_of_worship"},{"id":"xx237599_904179","name":"Baitul Huda Jame Mashjid","lat":23.759876,"lng":90.417883,"addr":"","type":"place_of_worship"},{"id":"xx237584_904169","name":"Baitul Mamur Jame Mashjid","lat":23.758427,"lng":90.416904,"addr":"","type":"place_of_worship"},{"id":"xx237609_904176","name":"Baitul Takwa Jame Mashjid","lat":23.76087,"lng":90.417602,"addr":"","type":"place_of_worship"},{"id":"xx237515_904074","name":"Green way Darul Umul Hafezia Madrasha & Atim Khana","lat":23.751528,"lng":90.407436,"addr":"","type":"place_of_worship"},{"id":"xx237514_904052","name":"Khankaye Kaderia Hamidia Dorbar Sharif","lat":23.751433,"lng":90.405171,"addr":"","type":"shrine"},{"id":"xx236855_903485","name":"Islamic place","lat":23.685502,"lng":90.348477,"addr":"","type":"place_of_worship"},{"id":"xx236748_903465","name":"Islamic place","lat":23.674809,"lng":90.346518,"addr":"","type":"place_of_worship"},{"id":"xx237193_904163","name":"যুগিনগর জামে মসজিদ","lat":23.719327,"lng":90.416289,"addr":"Juginagar Rd","type":"place_of_worship"},{"id":"xx228993_903035","name":"Agarpur Bazar Jame Masjid","lat":22.899305,"lng":90.303509,"addr":"Agarpur Bazar Road (আগরপুর বাজার রোড)","type":"place_of_worship"},{"id":"xx228982_903041","name":"Agarpur Enayet Jame Masjid","lat":22.898218,"lng":90.304075,"addr":"Agarpur Bazar Road (আগরপুর বাজার রোড)","type":"place_of_worship"},{"id":"xx223290_918175","name":"Mogoltuli Matabbor Bari Jame Masjid, Commerce College Road, Chattogram","lat":22.32903,"lng":91.81753,"addr":"Mogoltooly, Agrabad","type":"place_of_worship"},{"id":"xx223767_918501","name":"Sona Masjid","lat":22.376741,"lng":91.85014,"addr":"","type":"place_of_worship"},{"id":"xx223765_918516","name":"Haji Abdul Latif Jame Masjid","lat":22.376486,"lng":91.851588,"addr":"","type":"place_of_worship"},{"id":"xx243646_914178","name":"Boro Bohula Keramot Mosjid","lat":24.364586,"lng":91.417768,"addr":"Eidgah Road","type":"place_of_worship"},{"id":"xx238074_903784","name":"দারুল উলূম মাদ্রাসা Darul Ulum Madrasa","lat":23.807406,"lng":90.378448,"addr":"Road 13, Bazar Road","type":"school"},{"id":"xx237996_903827","name":"জামিউল উলুম মাদ্রাসা","lat":23.799616,"lng":90.382746,"addr":"Mirpur road-14","type":"place_of_worship"},{"id":"xx226901_903681","name":"Chandmari Jame Masjid","lat":22.690066,"lng":90.368099,"addr":"Bandh Road","type":"place_of_worship"},{"id":"xx238173_903681","name":"বাইতুল মামুর মাদ্রাসা কমপ্লেক্স","lat":23.817314,"lng":90.368085,"addr":"৮/১","type":"school"},{"id":"xx238208_903767","name":"দারুল উলুম তাহযীবুল উম্মাহ ও রাশেদিয়া ইয়াতিম মিশন","lat":23.820799,"lng":90.376671,"addr":"১১","type":"school"},{"id":"xx238197_903706","name":"মাদ্রাসা মদিনাতুল উলূম এতিমখানা","lat":23.81968,"lng":90.370592,"addr":"Dhaka","type":"school"},{"id":"xx238197_903694","name":"মরিয়ম ইসলামিয়া মাদ্রাসা এন্ড স্কুল","lat":23.819697,"lng":90.369449,"addr":"Dhaka","type":"school"},{"id":"xx238188_903697","name":"মিল্লাত-এ-ইসলামিয়া মাদ্রাসা এন্ড স্কুল","lat":23.818829,"lng":90.369654,"addr":"Dhaka","type":"school"},{"id":"xx238211_903763","name":"সুগন্ধা মুহাম্মাদিয়া ইসলামিয়া মাদ্রাসা","lat":23.82112,"lng":90.37628,"addr":"২","type":"school"},{"id":"xx238212_903772","name":"সুগন্ধা মোহাম্মাদিয়া প্রি ক্যাডেট মাদ্রাসা","lat":23.821231,"lng":90.377211,"addr":"১","type":"school"},{"id":"xx223573_917864","name":"Kazi Mosque, Dhaka Trunk Rd, Chattogram","lat":22.357282,"lng":91.786393,"addr":"","type":"place_of_worship"},{"id":"xx223579_917856","name":"Modina Market Jame Masjid, Dhaka Trunk Rd, Chattogram","lat":22.35786,"lng":91.785645,"addr":"","type":"place_of_worship"},{"id":"xx237372_903862","name":"Estern Mollika Market Mosque","lat":23.737186,"lng":90.386152,"addr":"","type":"place_of_worship"},{"id":"xx237357_903858","name":"Shuvastu Aroma Market Mosque","lat":23.735721,"lng":90.385765,"addr":"","type":"place_of_worship"},{"id":"xx237252_904103","name":"গোলাপ শাহ মসজিদ","lat":23.725158,"lng":90.410293,"addr":"","type":"place_of_worship"},{"id":"xx237073_904212","name":"West Gandaria Mosque","lat":23.707303,"lng":90.421246,"addr":"Distilary Road","type":"place_of_worship"},{"id":"xx237352_903947","name":"Mausoleum of Painter Zainul Abedin","lat":23.735173,"lng":90.394731,"addr":"","type":"mosque"},{"id":"xx237352_903948","name":"Mausoleum of Painter S.M. Sultan","lat":23.73517,"lng":90.394784,"addr":"","type":"mosque"},{"id":"xx235502_903907","name":"Ichhapura Chaurasta Mosque","lat":23.55023,"lng":90.390709,"addr":"","type":"place_of_worship"},{"id":"xx238159_903723","name":"দারুল উলুম কোরআনিয়া মাদ্রাসা","lat":23.815943,"lng":90.37234,"addr":"Dhaka","type":"school"},{"id":"xx238153_903740","name":"ফকিরবাড়ি বোগদাদিয়া কুরানিয়া মাদ্রাসা এবং ইসলামি পাঠাগার","lat":23.815259,"lng":90.373993,"addr":"Dhaka","type":"school"},{"id":"xx238248_903703","name":"মাদ্রাসা দারুস সুন্নাহ","lat":23.824806,"lng":90.370265,"addr":"Dhaka","type":"school"},{"id":"xx238164_903733","name":"মাক্কী জামিয়া হাফিজিয়া মাদ্রাসা এবং এতিমখানা","lat":23.816443,"lng":90.373342,"addr":"Dhaka","type":"school"},{"id":"xx235741_903802","name":"পাচ পীর মসজিদ","lat":23.574135,"lng":90.380221,"addr":"","type":"place_of_worship"},{"id":"xx235719_903830","name":"Islamic place","lat":23.571882,"lng":90.383003,"addr":"","type":"place_of_worship"},{"id":"xx237455_904142","name":"মালিবাগ শাহি মসজিদ","lat":23.745465,"lng":90.414193,"addr":"","type":"place_of_worship"},{"id":"xx223420_918285","name":"Love Lane Mosque","lat":22.341961,"lng":91.828465,"addr":"","type":"place_of_worship"},{"id":"xx237387_903910","name":"Katabon Mor","lat":23.738742,"lng":90.391,"addr":"Shahbagh Rd","type":"place_of_worship"},{"id":"xx237385_903865","name":"Mosque","lat":23.738491,"lng":90.386498,"addr":"","type":"place_of_worship"},{"id":"xx234539_911797","name":"Islamic place","lat":23.453933,"lng":91.179749,"addr":"","type":"place_of_worship"},{"id":"xx237370_903823","name":"TTC Mosque","lat":23.736999,"lng":90.38227,"addr":"TTC Street","type":"place_of_worship"},{"id":"xx237439_910028","name":"Masjid","lat":23.743898,"lng":91.002808,"addr":"","type":"place_of_worship"},{"id":"xx237424_909992","name":"Kurer Par Central Mosque","lat":23.742431,"lng":90.999174,"addr":"","type":"place_of_worship"},{"id":"xx236059_901099","name":"Mazir cor masjid","lat":23.60594,"lng":90.109897,"addr":"Dohar","type":"place_of_worship"},{"id":"xx237616_903553","name":"ঈদগাহ","lat":23.761642,"lng":90.355272,"addr":"Mohammadi Road","type":"place_of_worship"},{"id":"xx237427_909963","name":"Khalil miah mosjid","lat":23.742747,"lng":90.996255,"addr":"","type":"place_of_worship"},{"id":"xx237344_903842","name":"Tokio Enterprise","lat":23.734448,"lng":90.384173,"addr":"","type":"mosque"},{"id":"xx238824_903768","name":"Dhorangertek Jame Mosque","lat":23.882408,"lng":90.376754,"addr":"","type":"place_of_worship"},{"id":"xx238446_904238","name":"Noor Modina Jame Mosque","lat":23.844602,"lng":90.423799,"addr":"","type":"place_of_worship"},{"id":"xx239524_902890","name":"Baitush Shakur Jame Mosjid","lat":23.952363,"lng":90.289019,"addr":"","type":"place_of_worship"},{"id":"xx223366_918435","name":"Madrassah Mosque","lat":22.336573,"lng":91.84348,"addr":"Asadgonj Road","type":"place_of_worship"},{"id":"xx237268_904007","name":"ড. মুহাম্মদ শহিদুল্লাহর কবর","lat":23.726795,"lng":90.4007,"addr":"","type":"grave_yard"},{"id":"xx227015_903647","name":"Bot Tola Jame Masjid","lat":22.701474,"lng":90.364734,"addr":"Alekanda Road. Battola","type":"place_of_worship"},{"id":"xx233753_910479","name":"Barura College Masjid","lat":23.37533,"lng":91.047896,"addr":"","type":"place_of_worship"},{"id":"xx234867_910032","name":"মহারং পূর্বপাড়া জামে মসজিদ","lat":23.486671,"lng":91.00324,"addr":"","type":"place_of_worship"},{"id":"xx234880_910028","name":"চান্দিনা বাজার বড় মসজিদ","lat":23.487976,"lng":91.002785,"addr":"","type":"place_of_worship"},{"id":"xx247123_902979","name":"Bashna Bazar Jame Mosque","lat":24.71233,"lng":90.297877,"addr":"Foraji Bari Road","type":"place_of_worship"},{"id":"xx237652_904246","name":"Islamic place","lat":23.765206,"lng":90.424564,"addr":"TV Road","type":"place_of_worship"},{"id":"xx237668_904228","name":"Islamic place","lat":23.766758,"lng":90.422843,"addr":"","type":"place_of_worship"},{"id":"xx232153_906508","name":"Patwari Bari Masjid","lat":23.215304,"lng":90.650786,"addr":"","type":"place_of_worship"},{"id":"xx247684_903916","name":"Islamic place","lat":24.768373,"lng":90.391637,"addr":"","type":"place_of_worship"},{"id":"xx232156_906517","name":"Mizi Bari Masjid","lat":23.215615,"lng":90.651663,"addr":"","type":"place_of_worship"},{"id":"xx247679_903908","name":"T&T Office Mosque","lat":24.767894,"lng":90.390813,"addr":"","type":"place_of_worship"},{"id":"xx234605_911869","name":"Daroga Bari Majar","lat":23.460495,"lng":91.186939,"addr":"","type":"place_of_worship"},{"id":"xx247467_904098","name":"Islamic place","lat":24.74671,"lng":90.409751,"addr":"","type":"place_of_worship"},{"id":"xx238284_903672","name":"আল হিকমাহ হিফজ মাদ্রাসা","lat":23.828406,"lng":90.36722,"addr":"৩","type":"school"},{"id":"xx238272_903658","name":"আল জামিয়াতুল ইসলামিয়া বায়তুস সালাম মাদ্রাসা","lat":23.827156,"lng":90.365824,"addr":"৬,৭","type":"place_of_worship"},{"id":"xx238284_903689","name":"জামিয়া আরাবীয়া আশরাফিয়া ও এতিমখানা","lat":23.828383,"lng":90.368889,"addr":"২","type":"school"},{"id":"xx238157_903677","name":"জামিয়া ইসলামিয়া কাসেমুল উলূম মাদ্রাসা","lat":23.815749,"lng":90.367665,"addr":"2","type":"school"},{"id":"xx238159_903676","name":"জামিয়া ইসলামিয়া কাশেমুল উলুম মাদ্রাসা ও এতিম খানা।","lat":23.815858,"lng":90.367634,"addr":"২","type":"school"},{"id":"xx238280_903705","name":"কিরাতুল কুরান দ্বিনিয়া মহিলা মাদ্রাসা","lat":23.827959,"lng":90.370543,"addr":"২৭","type":"school"},{"id":"xx238234_903692","name":"মাদ্রাসাতুল দারুল কুরান","lat":23.823374,"lng":90.369244,"addr":"Dhaka","type":"school"},{"id":"xx238285_903689","name":"মিরপুর মহিলা মাদ্রাসা","lat":23.828522,"lng":90.368859,"addr":"২","type":"school"},{"id":"xx238290_903661","name":"তাবলিগুল উলুম মাদ্রাসা ও এতিমখানা","lat":23.828954,"lng":90.366072,"addr":"২","type":"school"},{"id":"xx238223_903674","name":"ইশা-আতুল উলুম মাদ্রাসা","lat":23.822266,"lng":90.367446,"addr":"8/1","type":"school"},{"id":"xx237707_903936","name":"কুয়েত মসজিদ","lat":23.770692,"lng":90.393597,"addr":"","type":"place_of_worship"},{"id":"xx236924_904248","name":"আত তাহজিব লিল বানাত","lat":23.692435,"lng":90.424802,"addr":"","type":"place_of_worship"},{"id":"xx238283_903590","name":"ঝিলের পাড় জামিয়া কিরাতুল হাফিজিয়া মাদ্রাসা","lat":23.828281,"lng":90.359014,"addr":"Dhaka","type":"school"},{"id":"xx238223_903633","name":"আদর্শ মহিলা মাদ্রাসা","lat":23.82225,"lng":90.363286,"addr":"২/এ","type":"school"},{"id":"xx238263_903578","name":"দুয়ারীপাড়া দারুসসুন্নাহ আদর্শ মাদ্রাসা","lat":23.826311,"lng":90.357834,"addr":"৫","type":"school"},{"id":"xx238233_903571","name":"ইবনে আব্বাস রহমতুল্লাহ ইন্সটিটিউট","lat":23.823285,"lng":90.357093,"addr":"Dhaka","type":"school"},{"id":"xx238236_903603","name":"মাদ্রাসা মারকাতুস সুন্নাহ তাহিয়্যাতুত তুল্লাহ","lat":23.823606,"lng":90.360267,"addr":"Dhaka","type":"school"},{"id":"xx238238_903578","name":"মাদ্রাসা ছউতুল হেরা","lat":23.823755,"lng":90.357759,"addr":"Dhaka","type":"school"},{"id":"xx238232_903571","name":"মাদ্রাসাতুস সুফুফা আল- ইসলামিয়া ঢাকা","lat":23.823163,"lng":90.357112,"addr":"Dhaka","type":"school"},{"id":"xx238271_903608","name":"মারকাযুদ দাওয়াহ আল ইসলামিয়া ঢাকা","lat":23.827101,"lng":90.360837,"addr":"Dhaka","type":"school"},{"id":"xx238228_903629","name":"মসজিদুল আমান","lat":23.822789,"lng":90.362931,"addr":"২","type":"school"},{"id":"xx238222_903623","name":"পল্লবী তা\\'লিমুল কুরআান মাদ্রাসা","lat":23.82217,"lng":90.362319,"addr":"Dhaka","type":"school"},{"id":"xx238237_903620","name":"তাহসিনুল কুরান মাদ্রাসা","lat":23.823711,"lng":90.362022,"addr":"Dhaka","type":"school"},{"id":"xx238202_903571","name":"গুলে জান্নাত আরিফাবাদ মহিলা মাদ্রাসা","lat":23.820183,"lng":90.357073,"addr":"২","type":"school"},{"id":"xx237319_903231","name":"Islamic place","lat":23.73187,"lng":90.32311,"addr":"","type":"place_of_worship"},{"id":"xx237311_903250","name":"Islamic place","lat":23.731133,"lng":90.324962,"addr":"","type":"place_of_worship"},{"id":"xx234052_910535","name":"Islamic place","lat":23.405167,"lng":91.053494,"addr":"","type":"place_of_worship"},{"id":"xx237203_909869","name":"Bangura Shahi Eidgah","lat":23.720349,"lng":90.986863,"addr":"","type":"place_of_worship"},{"id":"xx233819_910335","name":"Islamic place","lat":23.381943,"lng":91.033505,"addr":"","type":"mosque"},{"id":"xx233740_910781","name":"লতিফপুর দঃ পূর্ব পাড়া জামে মসজিদ","lat":23.373983,"lng":91.07807,"addr":"","type":"mosque"},{"id":"xx237363_903183","name":"Choto vawal jame mosque","lat":23.736337,"lng":90.318257,"addr":"","type":"place_of_worship"},{"id":"xx237265_903238","name":"Islamic place","lat":23.726536,"lng":90.323808,"addr":"","type":"place_of_worship"},{"id":"xx237252_903240","name":"Islamic place","lat":23.725171,"lng":90.323964,"addr":"","type":"place_of_worship"},{"id":"xx237302_903348","name":"Islamic place","lat":23.730222,"lng":90.334781,"addr":"","type":"place_of_worship"},{"id":"xx237338_903227","name":"Khan Bari Jame Mosque","lat":23.733827,"lng":90.322734,"addr":"","type":"place_of_worship"},{"id":"xx237308_903139","name":"Islamic place","lat":23.730751,"lng":90.313913,"addr":"","type":"place_of_worship"},{"id":"xx237688_903950","name":"Mosjid Belal (Ra)","lat":23.768817,"lng":90.395026,"addr":"","type":"place_of_worship"},{"id":"xx237666_903929","name":"Nakhalpara Sapra Mosjid","lat":23.766572,"lng":90.392872,"addr":"","type":"place_of_worship"},{"id":"xx237128_903737","name":"Rahmatia Mosque","lat":23.712823,"lng":90.373662,"addr":"","type":"place_of_worship"},{"id":"xx237193_903765","name":"Baitus Salam Jame Mosque","lat":23.719253,"lng":90.376492,"addr":"","type":"place_of_worship"},{"id":"xx237188_903754","name":"Al Noor Jame Mosque","lat":23.718775,"lng":90.37536,"addr":"","type":"place_of_worship"},{"id":"xx237196_903746","name":"Baitul Aman Mostan Bari jame Mosque","lat":23.719566,"lng":90.37458,"addr":"","type":"place_of_worship"},{"id":"xx237199_903735","name":"Baitul Mamur Jame Mosque","lat":23.719896,"lng":90.373481,"addr":"","type":"place_of_worship"},{"id":"xx237199_903720","name":"Al Amin Mosque","lat":23.719949,"lng":90.372026,"addr":"","type":"place_of_worship"},{"id":"xx237167_903689","name":"Al-Amin Jame Mosjid","lat":23.716741,"lng":90.368931,"addr":"","type":"place_of_worship"},{"id":"xx237606_903679","name":"Baitus Salam Jame Mosque","lat":23.760606,"lng":90.367878,"addr":"","type":"place_of_worship"},{"id":"xx237659_903667","name":"ঢাকা রেসিডেনশিয়াল মডেল কলেজ মসজিদ","lat":23.765877,"lng":90.366717,"addr":"","type":"place_of_worship"},{"id":"xx237755_903592","name":"ঢাকা হাউজিং সোসাইটি জামে মসজিদ","lat":23.775525,"lng":90.359197,"addr":"Dhaka Housing Main Road","type":"place_of_worship"},{"id":"xx237592_903732","name":"New Clony Jame Mosque","lat":23.759155,"lng":90.373231,"addr":"Mirpur Road","type":"place_of_worship"},{"id":"xx244782_917559","name":"Mostafapur Puran Bari Mosque","lat":24.478161,"lng":91.75588,"addr":"","type":"yes"},{"id":"xx238104_903705","name":"বাইতুল মা'মুর জামে মসজিদ","lat":23.810403,"lng":90.370493,"addr":"","type":"place_of_worship"},{"id":"xx237986_903876","name":"ডিসিসি মসজিদ","lat":23.798639,"lng":90.387551,"addr":"Mirpur 14","type":"place_of_worship"},{"id":"xx224628_919706","name":"CUET Central Mosque","lat":22.462764,"lng":91.970593,"addr":"","type":"place_of_worship"},{"id":"xx223370_918305","name":"Golam Rosul Market Mosque","lat":22.336957,"lng":91.830457,"addr":"Chittagong","type":"mosque"},{"id":"xx223270_918321","name":"Bandar Manoharkhali Residential Area Jame Masjid, Raaz Hotel Ln, Chattogram","lat":22.326956,"lng":91.832079,"addr":"","type":"mosque"},{"id":"xx223379_918376","name":"Laldighi Shahi Jame Masjid","lat":22.337858,"lng":91.837632,"addr":"","type":"place_of_worship"},{"id":"xx223341_918369","name":"Islamic place","lat":22.334127,"lng":91.836877,"addr":"","type":"place_of_worship"},{"id":"xx237568_904016","name":"বেগুনবাড়ি জামে মসজিদ","lat":23.756813,"lng":90.401579,"addr":"Dhaka 1208","type":"place_of_worship"},{"id":"xx223445_917829","name":"Islamic place","lat":22.344529,"lng":91.78287,"addr":"","type":"place_of_worship"},{"id":"xx238549_902936","name":"Khaniznagar Central Mosque","lat":23.854853,"lng":90.293579,"addr":"","type":"place_of_worship"},{"id":"xx238551_903065","name":"Kaiakoir Jame Masjid","lat":23.855091,"lng":90.306539,"addr":"","type":"place_of_worship"},{"id":"xx238523_902932","name":"Kaiakoir Jame Masjid","lat":23.852306,"lng":90.293171,"addr":"","type":"place_of_worship"},{"id":"xx245759_917143","name":"Islamic place","lat":24.575858,"lng":91.714315,"addr":"","type":"place_of_worship"},{"id":"xx237019_904157","name":"Bibi Ka Rouja","lat":23.70187,"lng":90.41566,"addr":"B K Das Road","type":"place_of_worship"},{"id":"xx240699_911074","name":"Ariphail Masjid","lat":24.069937,"lng":91.107424,"addr":"","type":"place_of_worship"},{"id":"xx240812_903978","name":"Park Mosque","lat":24.081174,"lng":90.397752,"addr":"Dhaka-Mymensingh High Way","type":"place_of_worship"},{"id":"xx237891_903666","name":"পীরেরবাগ পাকা মসজিদ","lat":23.789119,"lng":90.366576,"addr":"","type":"place_of_worship"},{"id":"xx249016_919034","name":"Shah Madani Madrasha","lat":24.90159,"lng":91.903402,"addr":"Tilagarh, Sylhet.","type":"school"},{"id":"xx226547_921755","name":"Bonorupa Jame Masjid","lat":22.654747,"lng":92.175497,"addr":"","type":"place_of_worship"},{"id":"xx237224_903979","name":"Hussaini Dalan","lat":23.722423,"lng":90.397943,"addr":"","type":"husayniyyah"},{"id":"xx235487_906502","name":"Lakkhipur Moulobi Bari Jam-E Masjid","lat":23.548728,"lng":90.650216,"addr":"Bhaberchar - Lakkhipur Rd","type":"place_of_worship"},{"id":"xx235512_906510","name":"Lakkhipur Uttarpara Rupali Market Jame Masjid","lat":23.551159,"lng":90.650987,"addr":"Lakkhipur","type":"place_of_worship"},{"id":"xx247012_903039","name":"Sarutia Bazar Jame Mosque","lat":24.701159,"lng":90.303926,"addr":"","type":"place_of_worship"},{"id":"xx237593_903667","name":"Al Mukhtar Jame Mosque","lat":23.759287,"lng":90.36665,"addr":"","type":"place_of_worship"},{"id":"xx237248_904343","name":"বাইতুল মামুন জামে মসজিদ","lat":23.72479,"lng":90.434262,"addr":"Mugda Wasa Road","type":"place_of_worship"},{"id":"xx237227_904293","name":"মানিকনগর জামে মসজিদ","lat":23.72269,"lng":90.42933,"addr":"Maniknagar Road","type":"place_of_worship"},{"id":"xx217526_921471","name":"Fazlur Rahman Kewik Three Domed Jame Masjid","lat":21.752647,"lng":92.147071,"addr":"","type":"place_of_worship"},{"id":"xx237130_904126","name":"Baytul Ezzat Jame Masjid","lat":23.712968,"lng":90.412564,"addr":"","type":"place_of_worship"},{"id":"xx234423_912443","name":"Durlovpur Jame Mosjid","lat":23.442333,"lng":91.244294,"addr":"Durlovpur","type":"place_of_worship"},{"id":"xx234410_912376","name":"Durlovpur Madina Jame Mosjid","lat":23.440954,"lng":91.237608,"addr":"Durlovpur Road","type":"place_of_worship"},{"id":"xx218429_920539","name":"মসজিদে ফাতেমা মুঃ আল খুবাইলী","lat":21.842949,"lng":92.053939,"addr":"","type":"place_of_worship"},{"id":"xx218407_920511","name":"কালা শিকদার পাড়া জামে মসজিদ","lat":21.840682,"lng":92.051057,"addr":"","type":"place_of_worship"},{"id":"xx218437_920560","name":"Harbang Bazar Mosque","lat":21.843723,"lng":92.055975,"addr":"","type":"place_of_worship"},{"id":"xx238301_903908","name":"Balughat Mosque","lat":23.830083,"lng":90.390847,"addr":"Balughat Road","type":"place_of_worship"},{"id":"xx218627_920646","name":"পূ‌র্ব বৃন্দাবনখীল জা‌মে মস‌জ‌িদ","lat":21.862694,"lng":92.064615,"addr":"","type":"place_of_worship"},{"id":"xx218775_920885","name":"CRE Mosque","lat":21.87749,"lng":92.08854,"addr":"","type":"place_of_worship"},{"id":"xx237786_903468","name":"Islamic place","lat":23.778589,"lng":90.346828,"addr":"","type":"place_of_worship"},{"id":"xx236148_901207","name":"ক্যাডেট মাদ্রাসা","lat":23.614807,"lng":90.120725,"addr":"","type":"school"},{"id":"xx236027_901099","name":"mosjid","lat":23.602697,"lng":90.109869,"addr":"","type":"place_of_worship"},{"id":"xx236156_901197","name":"জয়পাড়া আলিয়া মাদ্রাসা","lat":23.615643,"lng":90.119713,"addr":"আলিয়া মাদ্রাসা রোড","type":"university"},{"id":"xx235587_904826","name":"Mirkadim Jame Masjid","lat":23.558691,"lng":90.482552,"addr":"","type":"place_of_worship"},{"id":"xx235573_904861","name":"Murma Jame Masjid","lat":23.557281,"lng":90.486139,"addr":"Murma","type":"place_of_worship"},{"id":"xx235597_904836","name":"Kutipara Jame Masjid","lat":23.559712,"lng":90.483622,"addr":"Kutipara Road","type":"place_of_worship"},{"id":"xx227412_916055","name":"Vuiyapara Jame Moshjid","lat":22.741184,"lng":91.605501,"addr":"","type":"place_of_worship"},{"id":"xx235339_904524","name":"Hawlader Bari Baitul Aman Jame Masjid","lat":23.533883,"lng":90.452378,"addr":"","type":"place_of_worship"},{"id":"xx237587_903997","name":"ঢাকা পলিটেকনিক ইনস্টিটিউট ক্যাম্পাস মসজিদ","lat":23.758651,"lng":90.39974,"addr":"Shah Tazuddin Avenue","type":"place_of_worship"},{"id":"xx238825_903776","name":"Dharangertek Graveyard","lat":23.882469,"lng":90.377597,"addr":"","type":"grave_yard"},{"id":"xx237459_904500","name":"Baitul Mamur Mosque","lat":23.74586,"lng":90.450024,"addr":"","type":"place_of_worship"},{"id":"xx225302_904333","name":"West Khodaboxkati Howladarbari Jam-e-masjid","lat":22.530212,"lng":90.433335,"addr":"West Khodaboxkati Howladarbari to Hanua Bazar Road","type":"place_of_worship"},{"id":"xx248323_921194","name":"Dudbokshi East Masjid","lat":24.832336,"lng":92.119381,"addr":"","type":"place_of_worship"},{"id":"xx248301_921183","name":"Dudbokshi Old Masjid","lat":24.830099,"lng":92.118291,"addr":"","type":"place_of_worship"},{"id":"xx237525_904406","name":"Islamic place","lat":23.752484,"lng":90.440564,"addr":"","type":"place_of_worship"},{"id":"xx228988_909414","name":"Shanki Bhanga jameh mosjid","lat":22.898781,"lng":90.941439,"addr":"Hospital Road","type":"place_of_worship"},{"id":"xx237111_904503","name":"Kazir Gaon Central Jame Masjid","lat":23.71106,"lng":90.450344,"addr":"","type":"place_of_worship"},{"id":"xx233335_906984","name":"Matlab Kawmi Madrashah","lat":23.333538,"lng":90.698438,"addr":"Matlab - Chandpur Road","type":"place_of_worship"},{"id":"xx233332_906981","name":"Matlab Balur Math Jame Masjid","lat":23.333174,"lng":90.698133,"addr":"Matlab - Chandpur Road","type":"place_of_worship"},{"id":"xx233311_906959","name":"Dhakirgaow Baitullah Jame Masjid","lat":23.331108,"lng":90.695867,"addr":"Matlab-Dhaka Highway","type":"place_of_worship"},{"id":"xx237108_904467","name":"Islamic place","lat":23.710828,"lng":90.446696,"addr":"","type":"place_of_worship"},{"id":"xx237718_903507","name":"জান্নাতুল ফেরদাউস জামে মসজিদ","lat":23.771803,"lng":90.350652,"addr":"১৩","type":"place_of_worship"},{"id":"xx227242_902890","name":"Mia Bari Mosque","lat":22.724204,"lng":90.288952,"addr":"","type":"place_of_worship"},{"id":"xx230466_902280","name":"Kamalapur Mosque","lat":23.046628,"lng":90.227987,"addr":"","type":"place_of_worship"},{"id":"xx229891_902208","name":"Kasba Allah's Mosque","lat":22.989118,"lng":90.220755,"addr":"","type":"place_of_worship"},{"id":"xx227831_902387","name":"Baitul Aman Jame Masjid Complex","lat":22.783066,"lng":90.238744,"addr":"","type":"place_of_worship"},{"id":"xx225526_904399","name":"Nasrat Gazi Mosque","lat":22.552614,"lng":90.439876,"addr":"Bakerganj-Gobindaganj Rd","type":"place_of_worship"},{"id":"xx224676_917940","name":"South Campus Mosque","lat":22.467582,"lng":91.793988,"addr":"","type":"place_of_worship"},{"id":"xx249059_918806","name":"Shahi Eidgah","lat":24.905942,"lng":91.880619,"addr":"","type":"place_of_worship"},{"id":"xx237059_905229","name":"Kachpur Jame Masjid","lat":23.705921,"lng":90.522942,"addr":"","type":"place_of_worship"},{"id":"xx238826_904010","name":"Tongi Bazar Central Mosjid","lat":23.882592,"lng":90.400986,"addr":"","type":"place_of_worship"},{"id":"xx236910_905394","name":"Sonali Bandar Jame Masjid সোনালী বন্দর জামে মসজিদ","lat":23.690975,"lng":90.539417,"addr":"","type":"place_of_worship"},{"id":"xx236088_906044","name":"Islampur Jame Masjid ইসলামপুরে জামে মসজিদ","lat":23.608771,"lng":90.604366,"addr":"","type":"place_of_worship"},{"id":"xx235586_906562","name":"Bhaberchar Bus Stand Jam-E Masjid ভবেরচর বাসস্ট্যান্ড জামে মসজিদ","lat":23.55865,"lng":90.656154,"addr":"","type":"place_of_worship"},{"id":"xx229972_902215","name":"হযরত মল্লিক দুত কুমার পীর সাহেবের মাজার","lat":22.997219,"lng":90.221489,"addr":"","type":"place_of_worship"},{"id":"xx240967_901442","name":"Mosque","lat":24.096663,"lng":90.144195,"addr":"","type":"place_of_worship"},{"id":"xx240969_901191","name":"Dewhata Central Mosque","lat":24.096905,"lng":90.119092,"addr":"","type":"place_of_worship"},{"id":"xx240974_901161","name":"দেওহাটা ঈদগাহ","lat":24.097358,"lng":90.116129,"addr":"","type":"place_of_worship"},{"id":"xx241056_901006","name":"Station Mosque ষ্টেশন মসজিদ","lat":24.105629,"lng":90.100582,"addr":"","type":"place_of_worship"},{"id":"xx235292_907413","name":"College Masjid কলেজ মসজিদ","lat":23.529176,"lng":90.741286,"addr":"Hasanpur Road, Daudkandi","type":"place_of_worship"},{"id":"xx241057_900988","name":"Jame Masjid","lat":24.105723,"lng":90.098753,"addr":"","type":"place_of_worship"},{"id":"xx235317_907658","name":"Daudkandi Markaj Mosque দাউদকান্দি মারকাজ মসজিদ","lat":23.531651,"lng":90.765842,"addr":"","type":"place_of_worship"},{"id":"xx235310_907850","name":"Mosque","lat":23.530953,"lng":90.78503,"addr":"","type":"place_of_worship"},{"id":"xx235294_907841","name":"Gouripur Masjid গৌরিপুর মসজিদ","lat":23.529403,"lng":90.784147,"addr":"","type":"place_of_worship"},{"id":"xx235310_907966","name":"Horipur Northpara Mosque হরিপুর উত্তরপাড়া মসজিদ","lat":23.531022,"lng":90.796598,"addr":"","type":"place_of_worship"},{"id":"xx235352_908261","name":"Al-Amin Jame Masjid আল-আমিন জামে মসজিদ","lat":23.535193,"lng":90.826114,"addr":"","type":"place_of_worship"},{"id":"xx235341_908312","name":"রায়পুর স্টেশন মসজিদ","lat":23.534085,"lng":90.831195,"addr":"","type":"place_of_worship"},{"id":"xx241296_900445","name":"Dhalla Masjid","lat":24.129629,"lng":90.04446,"addr":"","type":"place_of_worship"},{"id":"xx241310_900420","name":"Madrasa Mosque","lat":24.13096,"lng":90.041965,"addr":"","type":"place_of_worship"},{"id":"xx235077_908731","name":"মধ্যপাড়া জামে মসজিদ","lat":23.507724,"lng":90.873125,"addr":"","type":"place_of_worship"},{"id":"xx235133_908800","name":"লাজৈর মুন্সীবাড়ী মসজিদ","lat":23.513347,"lng":90.879964,"addr":"","type":"place_of_worship"},{"id":"xx235055_909195","name":"Bakhrabad Jame Masjid বাখরাবাদ জামে মসজিদ","lat":23.505474,"lng":90.919532,"addr":"","type":"place_of_worship"},{"id":"xx235035_909378","name":"Madhaia Bazar Jame Masjid মাধাইয়া বাজার জামে মসজিদ","lat":23.503487,"lng":90.937814,"addr":"","type":"place_of_worship"},{"id":"xx235016_909458","name":"Dotola Jamay Masjid","lat":23.501596,"lng":90.94583,"addr":"","type":"place_of_worship"},{"id":"xx234988_909616","name":"KeronKhal Moddo Phara Jhame Mosjid কেরনখাল মধ্য পাড়া জামে মসজিদ","lat":23.498766,"lng":90.961639,"addr":"","type":"place_of_worship"},{"id":"xx234811_910548","name":"Nimsar noor electrick","lat":23.481138,"lng":91.054756,"addr":"","type":"place_of_worship"},{"id":"xx234726_911423","name":"Alekharchar Eid Gah","lat":23.47263,"lng":91.142285,"addr":"","type":"place_of_worship"},{"id":"xx234195_911702","name":"Al Baraka Jame Masjid আল বারাকা জামে মসজিদ","lat":23.419469,"lng":91.170185,"addr":"","type":"place_of_worship"},{"id":"xx234143_911865","name":"Madina Jama Masjid Mostafapur মোস্তফাপুর মদিনা জামে মসজিদ","lat":23.414309,"lng":91.186505,"addr":"","type":"place_of_worship"},{"id":"xx242895_915627","name":"অমতলী মসজিদ","lat":24.28954,"lng":91.562747,"addr":"","type":"place_of_worship"},{"id":"xx229728_902261","name":"Baitul Aksa Jame Masjid","lat":22.972764,"lng":90.226101,"addr":"","type":"place_of_worship"},{"id":"xx232441_913087","name":"বারাইশ পশ্চিম পাড়া মসজিদ","lat":23.244095,"lng":91.308652,"addr":"","type":"place_of_worship"},{"id":"xx237371_903333","name":"ঘাটারচর টানপাড়া বাইতুর রহমান জামে মসজিদ","lat":23.73707,"lng":90.333341,"addr":"","type":"place_of_worship"},{"id":"xx228925_902588","name":"বাটাজোর কেন্দ্রীয় জামে মসজিদ","lat":22.892451,"lng":90.25881,"addr":"","type":"place_of_worship"},{"id":"xx228946_915351","name":"Baraiyarhat Central Mosque বায়রৈয়ারহাট জামে মসজিদ","lat":22.894579,"lng":91.535147,"addr":"","type":"place_of_worship"},{"id":"xx236931_904792","name":"মসজিদ ই কোবা","lat":23.693073,"lng":90.479182,"addr":"","type":"place_of_worship"},{"id":"xx228776_902630","name":"Kholna Central Jame Mosjid","lat":22.877586,"lng":90.26304,"addr":"Kholnar Mor,Sanuhar-Dhamura Rd,Uzirpur, Barisal","type":"place_of_worship"},{"id":"xx228504_902521","name":"Munsi Bari Jame Mosque","lat":22.85039,"lng":90.252112,"addr":"Dhaka - Barisal Hwy","type":"place_of_worship"},{"id":"xx228501_902516","name":"Jame Mosjid","lat":22.85009,"lng":90.251646,"addr":"Dhaka - Barisal Hwy","type":"place_of_worship"},{"id":"xx228302_902539","name":"Chairman Bari Jame Masjid","lat":22.830183,"lng":90.253876,"addr":"","type":"place_of_worship"},{"id":"xx228202_902460","name":"Bali Bari Jame Mosque","lat":22.820185,"lng":90.245964,"addr":"","type":"place_of_worship"},{"id":"xx227627_915810","name":"Masjid Baitus Sharaf","lat":22.762657,"lng":91.580987,"addr":"","type":"place_of_worship"},{"id":"xx228177_902723","name":"Rakudia Jame Mosjid","lat":22.817749,"lng":90.272338,"addr":"","type":"place_of_worship"},{"id":"xx225521_916887","name":"Baitun Nur Jame Masjid বায়তুন নুর জামে মসজিদ","lat":22.552074,"lng":91.68875,"addr":"Banshbaria","type":"place_of_worship"},{"id":"xx220454_919404","name":"Kulin Para Uttur Jama Mosjid","lat":22.045442,"lng":91.940439,"addr":"","type":"place_of_worship"},{"id":"xx220442_919382","name":"Kulin Para Dakkhin Jame Masjid","lat":22.04424,"lng":91.938216,"addr":"","type":"place_of_worship"},{"id":"xx234774_912176","name":"Islamic place","lat":23.477429,"lng":91.217561,"addr":"","type":"yes"},{"id":"xx247632_903989","name":"Town Hall Mor Jame Masjid","lat":24.763185,"lng":90.398905,"addr":"","type":"place_of_worship"},{"id":"xx215445_920675","name":"Hazarat Abu Bakar Siddique (R) Jame Mosque","lat":21.54445,"lng":92.067538,"addr":"","type":"place_of_worship"},{"id":"xx248950_918899","name":"Rashid Ali Panjegana Mosque","lat":24.895018,"lng":91.889937,"addr":"Sylhet","type":"place_of_worship"},{"id":"xx248945_918787","name":"Hazrat Kalim Shah Rohmotullaalahi Mazar","lat":24.894477,"lng":91.878704,"addr":"Sylhet","type":"place_of_worship"},{"id":"xx226834_903547","name":"সাগরদী বাজার জামে মসজিদ","lat":22.683448,"lng":90.354748,"addr":"Dhaka - Barisal Hwy, Barisal","type":"place_of_worship"},{"id":"xx220339_921037","name":"Masjid Salman Farshi","lat":22.033896,"lng":92.103748,"addr":"","type":"place_of_worship"},{"id":"xx238781_904012","name":"Bano Bithi Complex Jam-e Mosque","lat":23.878126,"lng":90.401163,"addr":"","type":"place_of_worship"},{"id":"xx238798_903922","name":"স্লুইচ গেট মসজিদ","lat":23.879782,"lng":90.392242,"addr":"","type":"place_of_worship"},{"id":"xx221634_920582","name":"Chagacor Jame mosjid, Dohazari. চাগাচর জামে মসজিদ","lat":22.163424,"lng":92.058202,"addr":"","type":"place_of_worship"},{"id":"xx222066_920364","name":"Mozaher Para Khalifa Bari Jame Mosque মোজাহের পাড়া খলিফা বারী জামে মসজিদ","lat":22.206649,"lng":92.03636,"addr":"","type":"place_of_worship"},{"id":"xx238101_904147","name":"Kalachadpur Paschimpara Jame Masjid","lat":23.810081,"lng":90.414707,"addr":"","type":"place_of_worship"},{"id":"xx222982_919685","name":"তেঁতুল তলা মসজিদ","lat":22.29822,"lng":91.968514,"addr":"","type":"place_of_worship"},{"id":"xx222472_917850","name":"চারপাড়া জামে মসজিদ","lat":22.247244,"lng":91.784985,"addr":"","type":"place_of_worship"},{"id":"xx225382_903458","name":"বাকেরগঞ্জ উপজেলা জামে মসজিদ","lat":22.538187,"lng":90.345836,"addr":"Bakergonj","type":"place_of_worship"},{"id":"xx225404_903384","name":"Rahamgonj Shahi Mosque","lat":22.540407,"lng":90.338359,"addr":"বরিশাল সুবিদখালী সড়ক, Bakergonj","type":"place_of_worship"},{"id":"xx225245_903159","name":"Islamic place","lat":22.524512,"lng":90.315899,"addr":"Kaligonj Bazar, সুবিদখালী সড়ক, Bakergonj, Barisal","type":"place_of_worship"},{"id":"xx225239_903158","name":"কালিগঞ্জ মসজিদ","lat":22.523937,"lng":90.315772,"addr":"","type":"place_of_worship"},{"id":"xx223625_902165","name":"Subidkhli Bazar Jame Mosque","lat":22.362471,"lng":90.21652,"addr":"বরিশাল সুবিদখালী সড়ক, Mirzaganj","type":"place_of_worship"},{"id":"xx249446_920010","name":"Chiknagool Miftahul Ulum Madrasha Mosque","lat":24.9446,"lng":92.000983,"addr":"Sylhet","type":"place_of_worship"},{"id":"xx249474_920022","name":"Sukrobari Bazar Jame Mosque","lat":24.947364,"lng":92.002171,"addr":"Sylhet","type":"place_of_worship"},{"id":"xx249509_920065","name":"Mecca Jame Mosque ,Kohigor","lat":24.950926,"lng":92.006492,"addr":"Sylhet","type":"place_of_worship"},{"id":"xx249550_920099","name":"Kohaigarh Jame Mosque","lat":24.95499,"lng":92.009943,"addr":"Sylhet","type":"place_of_worship"},{"id":"xx249619_920156","name":"Habibnagar Tea Estate Mosque","lat":24.961888,"lng":92.015639,"addr":"Sylhet","type":"place_of_worship"},{"id":"xx211881_921565","name":"Islamic place","lat":21.188139,"lng":92.156532,"addr":"","type":"place_of_worship"},{"id":"xx211899_921601","name":"Islamic place","lat":21.189912,"lng":92.160121,"addr":"","type":"place_of_worship"},{"id":"xx225134_918038","name":"Kashem Ali Jame Mosque","lat":22.513396,"lng":91.80384,"addr":"","type":"place_of_worship"},{"id":"xx225167_918022","name":"Kashem Ali Jame mosque","lat":22.516713,"lng":91.802172,"addr":"","type":"place_of_worship"},{"id":"xx225610_917974","name":"Mirzapur High School Jame Masjid, Chittagong - Khagrachhari Rd, Sarkar Hat, Chattogram","lat":22.560991,"lng":91.797423,"addr":"Sarkar Hat","type":"place_of_worship"},{"id":"xx249780_920364","name":"Shikarkhan Jame Mosque","lat":24.977953,"lng":92.036371,"addr":"Sylhet","type":"place_of_worship"},{"id":"xx226213_917935","name":"Ibadat khana","lat":22.621306,"lng":91.79347,"addr":"Forhadabad","type":"place_of_worship"},{"id":"xx226283_917942","name":"Jamia Millia Ahmadia Kamil Madrasha জামিয়া মিলিয়া আহমদিয়া কামিল মাদ্রাসা","lat":22.628323,"lng":91.794232,"addr":"","type":"place_of_worship"},{"id":"xx226903_917900","name":"মীর মসজিদ (এবাদত খানা)","lat":22.690287,"lng":91.790046,"addr":"","type":"place_of_worship"},{"id":"xx223608_902154","name":"Upazila Central Jami Mosque","lat":22.360814,"lng":90.215371,"addr":"Subidkhali Rd, Mirzaganj","type":"place_of_worship"},{"id":"xx223583_902145","name":"Upazila Court Jamia Mosque","lat":22.358294,"lng":90.214495,"addr":"","type":"place_of_worship"},{"id":"xx223184_901917","name":"Mia Bari Masjid","lat":22.318413,"lng":90.191712,"addr":"","type":"place_of_worship"},{"id":"xx227424_917453","name":"Mosque","lat":22.742447,"lng":91.745274,"addr":"","type":"place_of_worship"},{"id":"xx223031_901951","name":"Kakriabunia Jame Mosque","lat":22.303088,"lng":90.195125,"addr":"Subidkhali Rd","type":"place_of_worship"},{"id":"xx228001_917192","name":"পাইন্দং ঈদগাহ জামে মসজিদ","lat":22.80011,"lng":91.719204,"addr":"Ramgarh Road","type":"place_of_worship"},{"id":"xx228544_916975","name":"Rahmania Jame Mosjid রহমানিয়া জামে মসজিদ","lat":22.854359,"lng":91.69752,"addr":"","type":"place_of_worship"},{"id":"xx228950_916578","name":"Purbo Sonai Rastar Matha Jame Masjid","lat":22.89499,"lng":91.657752,"addr":"","type":"place_of_worship"},{"id":"xx229022_916364","name":"বালুটিলা জামে মসজিদ","lat":22.902187,"lng":91.636425,"addr":"","type":"place_of_worship"},{"id":"xx248935_918691","name":"Panch Pirer Mazar","lat":24.893505,"lng":91.869135,"addr":"Sylhet","type":"place_of_worship"},{"id":"xx222950_901836","name":"Sinbari Jame Mosque","lat":22.294982,"lng":90.18356,"addr":"বরিশাল সুবিদখালী সড়ক","type":"place_of_worship"},{"id":"xx222792_901694","name":"West Sultanabad Jame Mosque","lat":22.279174,"lng":90.169406,"addr":"বরিশাল সুবিদখালী সড়ক","type":"place_of_worship"},{"id":"xx222482_901595","name":"Chandokhali Bazar Jame Mosque","lat":22.248196,"lng":90.159457,"addr":"বরিশাল সুবিদখালী সড়ক","type":"place_of_worship"},{"id":"xx248862_918671","name":"Bhartokhola Jame Masjid","lat":24.88624,"lng":91.867064,"addr":"Sylhet","type":"place_of_worship"},{"id":"xx232497_920668","name":"Upazila Mosque উপজেলা মসজিদ","lat":23.249688,"lng":92.066816,"addr":"","type":"place_of_worship"},{"id":"xx225107_918396","name":"Foyzia Mosque, Chand Gazi Rd, Chittagong - Rangamati Hwy, Chattogram","lat":22.510684,"lng":91.839623,"addr":"","type":"place_of_worship"},{"id":"xx248843_918639","name":"Masjid","lat":24.884349,"lng":91.863897,"addr":"Sylhet","type":"place_of_worship"},{"id":"xx248824_918649","name":"Railway Jame Masjid","lat":24.882437,"lng":91.864879,"addr":"Sylhet","type":"place_of_worship"},{"id":"xx248753_918608","name":"EidGah","lat":24.875295,"lng":91.860838,"addr":"Sylhet","type":"place_of_worship"},