[{"id":"xx299816_-921271","name":"Saint James Church","lat":29.981594,"lng":-92.12707,"addr":"","type":"place_of_worship"},{"id":"xx299602_-901070","name":"First Saint James Baptist Church","lat":29.960204,"lng":-90.107017,"addr":"","type":"place_of_worship"},{"id":"xx299616_-900784","name":"Saint James African Methodist Episcopal Church","lat":29.961592,"lng":-90.078405,"addr":"","type":"place_of_worship"},{"id":"xx299544_-901009","name":"James Chapel Baptist Church","lat":29.954371,"lng":-90.100906,"addr":"","type":"place_of_worship"},{"id":"xx299205_-900812","name":"Greater Saint James Baptist Church","lat":29.920483,"lng":-90.081183,"addr":"","type":"place_of_worship"},{"id":"xx299660_-901609","name":"Saint James Church of God in Christ","lat":29.966037,"lng":-90.160908,"addr":"","type":"place_of_worship"},{"id":"xx299002_-900906","name":"Saint James United Methodist Church","lat":29.900205,"lng":-90.090628,"addr":"","type":"place_of_worship"},{"id":"xx298392_-906913","name":"Saint James a Chapel","lat":29.839246,"lng":-90.691315,"addr":"Choctaw Road","type":"place_of_worship"},{"id":"xx298440_-921737","name":"Saint James Mission Chapel","lat":29.844017,"lng":-92.173747,"addr":"State Route 333","type":"church"},{"id":"xx299064_-939223","name":"Saint James Catholic Church","lat":29.906432,"lng":-93.922322,"addr":"Gulfway Drive","type":"church"}]