[{"id":"xx265442_134005","name":"Islamic place","lat":26.54422,"lng":13.400512,"addr":"","type":"place_of_worship"},{"id":"xx275390_141648","name":"Islamic place","lat":27.538988,"lng":14.164839,"addr":"","type":"place_of_worship"},{"id":"xx261022_136278","name":"Islamic place","lat":26.102195,"lng":13.627755,"addr":"","type":"place_of_worship"},{"id":"xx265610_132438","name":"Islamic place","lat":26.561024,"lng":13.243814,"addr":"","type":"place_of_worship"},{"id":"xx266005_135593","name":"مسجد","lat":26.600548,"lng":13.559326,"addr":"","type":"place_of_worship"},{"id":"xx266735_137531","name":"مسجد","lat":26.673454,"lng":13.753144,"addr":"","type":"place_of_worship"},{"id":"xx266783_137578","name":"مسجد","lat":26.678256,"lng":13.757829,"addr":"","type":"place_of_worship"},{"id":"xx266944_138221","name":"Islamic place","lat":26.694428,"lng":13.822141,"addr":"","type":"place_of_worship"},{"id":"xx267464_139451","name":"مسجد بن حارث","lat":26.74642,"lng":13.945107,"addr":"","type":"place_of_worship"},{"id":"xx259429_146483","name":"Islamic place","lat":25.942911,"lng":14.648297,"addr":"","type":"place_of_worship"},{"id":"xx265416_130996","name":"Islamic place","lat":26.54163,"lng":13.099609,"addr":"","type":"place_of_worship"},{"id":"xx265638_131260","name":"Islamic place","lat":26.563795,"lng":13.125988,"addr":"","type":"place_of_worship"},{"id":"xx265761_129429","name":"Islamic place","lat":26.576146,"lng":12.94288,"addr":"","type":"place_of_worship"},{"id":"xx274866_133288","name":"Islamic place","lat":27.486589,"lng":13.328758,"addr":"","type":"place_of_worship"},{"id":"xx265239_130117","name":"Islamic place","lat":26.523869,"lng":13.011672,"addr":"","type":"place_of_worship"},{"id":"xx266046_135611","name":"Islamic place","lat":26.604648,"lng":13.561134,"addr":"","type":"place_of_worship"},{"id":"xx275505_136352","name":"Islamic place","lat":27.550482,"lng":13.635245,"addr":"","type":"place_of_worship"},{"id":"xx275251_141806","name":"Islamic place","lat":27.525137,"lng":14.180599,"addr":"","type":"place_of_worship"},{"id":"xx275684_143680","name":"Islamic place","lat":27.568424,"lng":14.368032,"addr":"","type":"place_of_worship"},{"id":"xx265555_131151","name":"Islamic place","lat":26.555477,"lng":13.115135,"addr":"","type":"place_of_worship"},{"id":"xx265672_131343","name":"Islamic place","lat":26.567166,"lng":13.134306,"addr":"","type":"place_of_worship"},{"id":"xx266065_135752","name":"مسجد الرحمه","lat":26.606464,"lng":13.575152,"addr":"","type":"place_of_worship"},{"id":"xx265268_130649","name":"Islamic place","lat":26.52678,"lng":13.064921,"addr":"","type":"place_of_worship"},{"id":"xx265427_133645","name":"جامع لاروكو","lat":26.54266,"lng":13.364519,"addr":"","type":"place_of_worship"},{"id":"xx265629_132415","name":"مسجد تكركيبه العتيق","lat":26.562939,"lng":13.241512,"addr":"","type":"place_of_worship"},{"id":"xx265539_132117","name":"جامع","lat":26.553912,"lng":13.211726,"addr":"","type":"place_of_worship"},{"id":"xx265502_132121","name":"جامع","lat":26.550164,"lng":13.21211,"addr":"","type":"place_of_worship"},{"id":"xx265521_132098","name":"جامع","lat":26.552107,"lng":13.209795,"addr":"","type":"place_of_worship"},{"id":"xx265578_131794","name":"جامع","lat":26.557766,"lng":13.179353,"addr":"","type":"place_of_worship"},{"id":"xx265590_131150","name":"مسجد ابريك العتيق","lat":26.558983,"lng":13.115035,"addr":"","type":"place_of_worship"},{"id":"xx267101_138776","name":"مسجد","lat":26.710145,"lng":13.877624,"addr":"","type":"place_of_worship"},{"id":"xx266252_136226","name":"مسجد","lat":26.625232,"lng":13.622577,"addr":"","type":"place_of_worship"},{"id":"xx266038_135572","name":"مسجد","lat":26.603839,"lng":13.557182,"addr":"","type":"place_of_worship"},{"id":"xx265998_135538","name":"مسجد","lat":26.599792,"lng":13.553766,"addr":"","type":"place_of_worship"},{"id":"xx270186_144537","name":"مسجد الناصريه الجامع العسكري","lat":27.018568,"lng":14.453665,"addr":"","type":"place_of_worship"},{"id":"xx265792_129304","name":"Islamic place","lat":26.579243,"lng":12.930415,"addr":"","type":"place_of_worship"},{"id":"xx265758_129197","name":"Islamic place","lat":26.575827,"lng":12.919729,"addr":"","type":"place_of_worship"},{"id":"xx270212_144763","name":"مسجد شركه الاشغال","lat":27.021177,"lng":14.476281,"addr":"","type":"place_of_worship"},{"id":"xx271022_145413","name":"مسجد الربايع","lat":27.102172,"lng":14.541278,"addr":"","type":"place_of_worship"},{"id":"xx270546_144144","name":"مسجد","lat":27.054571,"lng":14.41439,"addr":"","type":"place_of_worship"},{"id":"xx270586_144195","name":"مسجد","lat":27.058574,"lng":14.419527,"addr":"","type":"place_of_worship"},{"id":"xx273691_149063","name":"مدرسة شهداء الشب","lat":27.369066,"lng":14.90631,"addr":"الزيغن","type":"school"},{"id":"xx270531_144276","name":"مسجد نور القرآن","lat":27.053136,"lng":14.427588,"addr":"","type":"place_of_worship"},{"id":"xx270544_144219","name":"مسجد المدينة المنورة","lat":27.054373,"lng":14.421864,"addr":"شارع عمر المختار","type":"mosque"},{"id":"xx270291_144304","name":"مصلى العيدين","lat":27.029069,"lng":14.430354,"addr":"","type":"eidgah"},{"id":"xx299820_142601","name":"مسجد الشويرف","lat":29.981965,"lng":14.260145,"addr":"","type":"mosque"},{"id":"xx265321_130135","name":"الجامع العتيق","lat":26.532102,"lng":13.013525,"addr":"","type":"mosque"},{"id":"xx266062_127743","name":"مسجد معاذ بن جبل","lat":26.606152,"lng":12.77434,"addr":"","type":"mosque"},{"id":"xx272063_146297","name":"مسجد الصحابة","lat":27.206301,"lng":14.629703,"addr":"","type":"mosque"},{"id":"xx259176_139251","name":"Islamic place","lat":25.917611,"lng":13.925103,"addr":"","type":"mosque"},{"id":"xx259144_139134","name":"مسجد","lat":25.914423,"lng":13.913422,"addr":"","type":"mosque"},{"id":"xx270208_144118","name":"مسجد المحاميد","lat":27.02084,"lng":14.4118,"addr":"","type":"mosque"},{"id":"xx275502_142727","name":"مسجد آدم عليه السلام","lat":27.550179,"lng":14.272683,"addr":"","type":"mosque"},{"id":"xx265281_130749","name":"جامع الفجر","lat":26.528116,"lng":13.074891,"addr":"","type":"mosque"},{"id":"xx261591_148483","name":"مسجد البدير","lat":26.159093,"lng":14.848304,"addr":"أم الأرانب - البدير","type":"mosque"},{"id":"xx274900_139731","name":"الجامع القديم","lat":27.490023,"lng":13.97309,"addr":"","type":"place_of_worship"},{"id":"xx275030_140132","name":"مسجد علي بن أبي طالب","lat":27.502986,"lng":14.013192,"addr":"","type":"mosque"},{"id":"xx275045_140167","name":"مسجد الحسن بن علي","lat":27.504459,"lng":14.016682,"addr":"","type":"mosque"},{"id":"xx259293_144411","name":"مسجد أبو بكر الصديق","lat":25.929324,"lng":14.441117,"addr":"تراغن","type":"mosque"},{"id":"xx270677_144319","name":"مصلى","lat":27.067735,"lng":14.431909,"addr":"شارع الشاطي","type":"musalla"},{"id":"xx299851_142682","name":"الجامع العتيق","lat":29.985103,"lng":14.268164,"addr":"طريق النهر","type":"mosque"},{"id":"xx270505_144208","name":"مسجد السلام","lat":27.050535,"lng":14.420792,"addr":"شارع عمر بن عبدالعزيز","type":"place_of_worship"},{"id":"xx275010_140036","name":"مسجد باب السلام","lat":27.500977,"lng":14.00364,"addr":"","type":"mosque"},{"id":"xx259262_139127","name":"مسجد ذو النورين","lat":25.926197,"lng":13.912696,"addr":"","type":"place_of_worship"},{"id":"xx275622_142594","name":"جامع آل عمران","lat":27.562182,"lng":14.259365,"addr":"Brak","type":"mosque"},{"id":"xx265174_130096","name":"مسجد الغفران","lat":26.517391,"lng":13.009611,"addr":"","type":"place_of_worship"},{"id":"xx275632_141835","name":"جامع بير الشرك","lat":27.563222,"lng":14.183453,"addr":"","type":"place_of_worship"},{"id":"xx270373_144512","name":"مسجد غزة","lat":27.037309,"lng":14.451222,"addr":"","type":"mosque"},{"id":"xx299872_142556","name":"مسجد","lat":29.987194,"lng":14.255607,"addr":"","type":"place_of_worship"},{"id":"xx275441_142730","name":"جامع براك","lat":27.544058,"lng":14.272985,"addr":"طريق براك-أدري","type":"place_of_worship"},{"id":"xx275448_142528","name":"مصلى","lat":27.544788,"lng":14.252818,"addr":"طريق براك-أدري","type":"place_of_worship"},{"id":"xx275400_142698","name":"مسجد عبد الجليل","lat":27.540009,"lng":14.269833,"addr":"المصلى","type":"place_of_worship"},{"id":"xx275388_142699","name":"جامع عبدالله سبال العين","lat":27.53884,"lng":14.269935,"addr":"المصلى","type":"place_of_worship"},{"id":"xx257794_105663","name":"المسجد العتيق","lat":25.779441,"lng":10.566341,"addr":"","type":"place_of_worship"},{"id":"xx274938_139700","name":"مسجد","lat":27.493829,"lng":13.970019,"addr":"القرضة","type":"place_of_worship"},{"id":"xx274979_139770","name":"مسجد","lat":27.497857,"lng":13.977006,"addr":"القرضة","type":"place_of_worship"},{"id":"xx257818_105570","name":"Islamic place","lat":25.781832,"lng":10.556976,"addr":"","type":"place_of_worship"},{"id":"xx259149_139278","name":"Islamic place","lat":25.914905,"lng":13.927834,"addr":"","type":"place_of_worship"},{"id":"xx274882_131200","name":"Islamic place","lat":27.488209,"lng":13.119955,"addr":"","type":"place_of_worship"},{"id":"xx274889_130285","name":"Islamic place","lat":27.488905,"lng":13.028513,"addr":"","type":"place_of_worship"},{"id":"xx266463_136536","name":"Islamic place","lat":26.646255,"lng":13.653615,"addr":"","type":"place_of_worship"},{"id":"xx266451_136496","name":"Islamic place","lat":26.645106,"lng":13.649568,"addr":"بنت بية","type":"place_of_worship"},{"id":"xx266470_136600","name":"Islamic place","lat":26.647037,"lng":13.66004,"addr":"","type":"place_of_worship"},{"id":"xx261381_147366","name":"Islamic place","lat":26.138134,"lng":14.736551,"addr":"","type":"place_of_worship"},{"id":"xx275467_136249","name":"Islamic place","lat":27.546667,"lng":13.624881,"addr":"","type":"place_of_worship"},{"id":"xx275460_136324","name":"Islamic place","lat":27.545972,"lng":13.632388,"addr":"","type":"place_of_worship"},{"id":"xx275459_136297","name":"Islamic place","lat":27.545927,"lng":13.629658,"addr":"","type":"place_of_worship"},{"id":"xx275508_136277","name":"Islamic place","lat":27.550826,"lng":13.627718,"addr":"","type":"place_of_worship"},{"id":"xx274838_140187","name":"Islamic place","lat":27.483832,"lng":14.01875,"addr":"","type":"place_of_worship"},{"id":"xx274911_140251","name":"Islamic place","lat":27.491057,"lng":14.02507,"addr":"","type":"place_of_worship"},{"id":"xx274925_140203","name":"Islamic place","lat":27.49255,"lng":14.020347,"addr":"","type":"place_of_worship"},{"id":"xx275021_140202","name":"Islamic place","lat":27.50207,"lng":14.020245,"addr":"","type":"place_of_worship"},{"id":"xx275832_143563","name":"Islamic place","lat":27.583159,"lng":14.356301,"addr":"","type":"place_of_worship"},{"id":"xx275750_143487","name":"Islamic place","lat":27.575026,"lng":14.348742,"addr":"","type":"place_of_worship"},{"id":"xx259296_144334","name":"Islamic place","lat":25.929647,"lng":14.433404,"addr":"","type":"place_of_worship"},{"id":"xx259307_144365","name":"Islamic place","lat":25.930731,"lng":14.436522,"addr":"","type":"place_of_worship"},{"id":"xx259267_144477","name":"Islamic place","lat":25.926747,"lng":14.447724,"addr":"","type":"place_of_worship"},{"id":"xx254203_103606","name":"Islamic place","lat":25.420347,"lng":10.360636,"addr":"","type":"place_of_worship"},{"id":"xx258263_105116","name":"مسجد خالد بن الوليد","lat":25.826255,"lng":10.51156,"addr":"","type":"place_of_worship"},{"id":"xx257572_105592","name":"مسجد أبوبكر الصديق","lat":25.757231,"lng":10.55923,"addr":"","type":"place_of_worship"},{"id":"xx265838_127787","name":"مسجد","lat":26.583844,"lng":12.778661,"addr":"","type":"place_of_worship"},{"id":"xx266030_127690","name":"مسجد التقوي","lat":26.603003,"lng":12.768996,"addr":"","type":"place_of_worship"},{"id":"xx259122_139271","name":"مسجد  الصحابة","lat":25.91221,"lng":13.927087,"addr":"","type":"place_of_worship"},{"id":"xx259149_139228","name":"Islamic place","lat":25.914904,"lng":13.922804,"addr":"","type":"place_of_worship"},{"id":"xx259093_139265","name":"مسجد","lat":25.909285,"lng":13.926471,"addr":"","type":"place_of_worship"},{"id":"xx259235_139222","name":"مسجد الامام بن مالك","lat":25.923473,"lng":13.922226,"addr":"","type":"place_of_worship"},{"id":"xx259247_139240","name":"مسجد الديسة","lat":25.924653,"lng":13.924014,"addr":"","type":"place_of_worship"},{"id":"xx259276_139040","name":"مسجد البحريات","lat":25.927556,"lng":13.903987,"addr":"","type":"place_of_worship"},{"id":"xx275485_136406","name":"مسجد عبدالله بن عمر","lat":27.548457,"lng":13.640623,"addr":"","type":"place_of_worship"},{"id":"xx275522_136410","name":"مسجد حي التمتام","lat":27.552234,"lng":13.640992,"addr":"","type":"place_of_worship"},{"id":"xx275745_136266","name":"مسجد القلة","lat":27.574508,"lng":13.626635,"addr":"","type":"place_of_worship"},{"id":"xx275573_135450","name":"مسجد الزهراء","lat":27.557271,"lng":13.544986,"addr":"","type":"place_of_worship"},{"id":"xx274834_133270","name":"مسجد المساعيد","lat":27.483426,"lng":13.326983,"addr":"","type":"place_of_worship"},{"id":"xx274845_133217","name":"مسجد عثمان بن عفان","lat":27.484547,"lng":13.321748,"addr":"","type":"place_of_worship"},{"id":"xx274889_131295","name":"مسجد الرحمان","lat":27.48894,"lng":13.129516,"addr":"","type":"place_of_worship"},{"id":"xx275705_143514","name":"مسجد عثمان بن مضعون","lat":27.570548,"lng":14.351359,"addr":"","type":"place_of_worship"},{"id":"xx275841_143492","name":"Islamic place","lat":27.584127,"lng":14.349225,"addr":"","type":"place_of_worship"},{"id":"xx275434_144066","name":"مصلي المحطة","lat":27.543398,"lng":14.406619,"addr":"","type":"place_of_worship"},{"id":"xx275301_141798","name":"Islamic place","lat":27.530129,"lng":14.179807,"addr":"","type":"place_of_worship"},{"id":"xx275729_141943","name":"Islamic place","lat":27.57288,"lng":14.194323,"addr":"","type":"place_of_worship"},{"id":"xx275016_139474","name":"Islamic place","lat":27.50159,"lng":13.947392,"addr":"","type":"place_of_worship"},{"id":"xx274877_139710","name":"Islamic place","lat":27.48772,"lng":13.971008,"addr":"","type":"place_of_worship"},{"id":"xx275003_139619","name":"Islamic place","lat":27.500316,"lng":13.961901,"addr":"","type":"place_of_worship"},{"id":"xx275079_140125","name":"Islamic place","lat":27.5079,"lng":14.012537,"addr":"","type":"place_of_worship"},{"id":"xx274960_132836","name":"Islamic place","lat":27.496009,"lng":13.283624,"addr":"","type":"place_of_worship"},{"id":"xx274527_130580","name":"Islamic place","lat":27.452725,"lng":13.058013,"addr":"","type":"place_of_worship"},{"id":"xx266170_135682","name":"Islamic place","lat":26.617011,"lng":13.568199,"addr":"","type":"place_of_worship"},{"id":"xx266162_135605","name":"Islamic place","lat":26.616205,"lng":13.560502,"addr":"","type":"place_of_worship"},{"id":"xx266134_135640","name":"مسجد الصحابة الرقيبة","lat":26.613389,"lng":13.563959,"addr":"النزلة - الرقيبة","type":"place_of_worship"},{"id":"xx270282_144652","name":"مسجد معاذ بن جبل","lat":27.028226,"lng":14.465163,"addr":"","type":"place_of_worship"},{"id":"xx275561_142671","name":"مسجد عاصم بن ثابت (المصلى)","lat":27.556069,"lng":14.267112,"addr":"طريق المطار","type":"place_of_worship"},{"id":"xx270612_144861","name":"Islamic place","lat":27.061207,"lng":14.486073,"addr":"","type":"place_of_worship"},{"id":"xx275812_142124","name":"مسجد شهداء احد","lat":27.581218,"lng":14.212379,"addr":"","type":"place_of_worship"},{"id":"xx275750_142182","name":"مسجد البلاد","lat":27.574964,"lng":14.218197,"addr":"","type":"place_of_worship"},{"id":"xx272752_148847","name":"مسجد سمنو العتيق","lat":27.275224,"lng":14.884741,"addr":"سمنو","type":"mosque"},{"id":"xx272746_148835","name":"Abo-Baker Alsedik","lat":27.274636,"lng":14.883502,"addr":"","type":"mosque"},{"id":"xx272429_148972","name":"Almshroa","lat":27.242911,"lng":14.897219,"addr":"","type":"mosque"},{"id":"xx272791_148803","name":"Hai Alsalam","lat":27.279136,"lng":14.880317,"addr":"","type":"mosque"},{"id":"xx272737_148812","name":"Omer Ben Al-Katab","lat":27.273668,"lng":14.881187,"addr":"","type":"mosque"},{"id":"xx265622_131638","name":"المسجد العتيق تويوه","lat":26.562205,"lng":13.163807,"addr":"","type":"yes"},{"id":"xx265632_131525","name":"Islamic place","lat":26.563153,"lng":13.152542,"addr":"","type":"yes"},{"id":"xx265613_131490","name":"مسجد تويوه الحديث","lat":26.561305,"lng":13.148985,"addr":"","type":"yes"},{"id":"xx265596_131655","name":"مقبره تويوه","lat":26.559569,"lng":13.165519,"addr":"","type":"grave_yard"},{"id":"xx265658_131323","name":"Islamic place","lat":26.56584,"lng":13.132273,"addr":"","type":"grave_yard"},{"id":"xx265606_131182","name":"مقبره ابريك","lat":26.560617,"lng":13.118236,"addr":"","type":"grave_yard"},{"id":"xx265553_131161","name":"جامع ابريك","lat":26.555315,"lng":13.116051,"addr":"","type":"yes"},{"id":"xx260964_135573","name":"جامع","lat":26.096411,"lng":13.557322,"addr":"","type":"yes"},{"id":"xx260970_135688","name":"مسجد","lat":26.097002,"lng":13.568763,"addr":"","type":"yes"},{"id":"xx260947_135531","name":"Islamic place","lat":26.094737,"lng":13.553074,"addr":"","type":"yes"},{"id":"xx260888_134985","name":"جامع تساوه","lat":26.088751,"lng":13.4985,"addr":"","type":"yes"},{"id":"xx260878_135057","name":"Islamic place","lat":26.087812,"lng":13.505706,"addr":"","type":"yes"},{"id":"xx260875_135115","name":"جامع","lat":26.087528,"lng":13.511466,"addr":"","type":"yes"},{"id":"xx260916_135428","name":"جامع","lat":26.091623,"lng":13.542846,"addr":"","type":"yes"},{"id":"xx260980_136876","name":"جامع اسبيطات","lat":26.09801,"lng":13.687612,"addr":"","type":"yes"},{"id":"xx265432_131018","name":"مقبره توش","lat":26.543196,"lng":13.101763,"addr":"","type":"grave_yard"},{"id":"xx265297_130701","name":"Islamic place","lat":26.52971,"lng":13.070053,"addr":"","type":"yes"},{"id":"xx265276_130148","name":"جامع الجرامي","lat":26.527552,"lng":13.014769,"addr":"","type":"yes"},{"id":"xx265264_130131","name":"جامع المصرف","lat":26.526388,"lng":13.013127,"addr":"","type":"yes"},{"id":"xx265378_130104","name":"مقبره لغريفه","lat":26.537785,"lng":13.010376,"addr":"","type":"grave_yard"},{"id":"xx265242_130115","name":"المسجد الكبير لغريفه","lat":26.524238,"lng":13.011485,"addr":"","type":"yes"},{"id":"xx274469_130536","name":"مسجد ادري","lat":27.446909,"lng":13.053628,"addr":"","type":"place_of_worship"},{"id":"xx275299_141291","name":"جامع","lat":27.52989,"lng":14.129121,"addr":"","type":"yes"},{"id":"xx275605_144487","name":"مسجد أشكدة","lat":27.560526,"lng":14.448662,"addr":"أشكدة","type":"yes"},{"id":"xx272099_146257","name":"مسجد تمنهنت","lat":27.209879,"lng":14.625701,"addr":"","type":"yes"},{"id":"xx265793_129305","name":"مسجد الحطيه","lat":26.579258,"lng":12.93049,"addr":"","type":"yes"},{"id":"xx265919_128484","name":"مسجد","lat":26.591949,"lng":12.84842,"addr":"","type":"yes"},{"id":"xx265873_127738","name":"مسجد البلديه","lat":26.587308,"lng":12.773841,"addr":"","type":"yes"},{"id":"xx265915_127772","name":"مسجد القطاوي اوباري","lat":26.591458,"lng":12.77723,"addr":"","type":"yes"},{"id":"xx265908_127747","name":"مدرسه الوحدة العربية","lat":26.590834,"lng":12.774672,"addr":"اوباري","type":"school"},{"id":"xx265885_128091","name":"مقبره","lat":26.588451,"lng":12.809114,"addr":"","type":"mosque"},{"id":"xx265892_128190","name":"مسجد الديسه","lat":26.589235,"lng":12.818956,"addr":"","type":"yes"},{"id":"xx265738_129483","name":"مقبره الحطيه","lat":26.573801,"lng":12.948323,"addr":"","type":"mosque"},{"id":"xx265763_129429","name":"مسجد الحطيه","lat":26.576338,"lng":12.942934,"addr":"","type":"yes"},{"id":"xx265242_129818","name":"مسجد القعيرات","lat":26.524198,"lng":12.981805,"addr":"","type":"yes"},{"id":"xx270306_144246","name":"مقبرة القرضة","lat":27.030599,"lng":14.424569,"addr":"","type":"mosque"},{"id":"xx267465_139454","name":"Islamic place","lat":26.746489,"lng":13.945364,"addr":"","type":"yes"},{"id":"xx267104_138776","name":"Islamic place","lat":26.710405,"lng":13.877616,"addr":"","type":"yes"},{"id":"xx266784_137579","name":"Islamic place","lat":26.678413,"lng":13.757863,"addr":"","type":"yes"},{"id":"xx266736_137531","name":"Islamic place","lat":26.67356,"lng":13.753072,"addr":"","type":"yes"},{"id":"xx265614_132459","name":"مقبرة تكركيبة القديمة","lat":26.561378,"lng":13.245902,"addr":"","type":"grave_yard"},{"id":"xx266252_136225","name":"Islamic place","lat":26.625173,"lng":13.622459,"addr":"","type":"yes"},{"id":"xx266006_135591","name":"Islamic place","lat":26.600551,"lng":13.559117,"addr":"","type":"yes"},{"id":"xx265998_135537","name":"Islamic place","lat":26.599802,"lng":13.553746,"addr":"","type":"yes"},{"id":"xx265440_134006","name":"Islamic place","lat":26.544007,"lng":13.400633,"addr":"","type":"yes"},{"id":"xx265869_127686","name":"مقبرة أوباري","lat":26.586907,"lng":12.768594,"addr":"","type":"mosque"},{"id":"xx270402_144171","name":"Islamic place","lat":27.040183,"lng":14.417068,"addr":"","type":"yes"},{"id":"xx270532_144277","name":"Islamic place","lat":27.053197,"lng":14.427655,"addr":"حي الحساونة","type":"yes"},{"id":"xx270528_144277","name":"مناره تحفيظ قران","lat":27.052832,"lng":14.427658,"addr":"","type":"yes"},{"id":"xx270201_144565","name":"مسجد مصعب بن عمير","lat":27.02011,"lng":14.456456,"addr":"","type":"yes"},{"id":"xx270212_144762","name":"Islamic place","lat":27.021193,"lng":14.476239,"addr":"","type":"yes"},{"id":"xx270286_144429","name":"مسجد عمر بن الخطاب","lat":27.028564,"lng":14.442868,"addr":"","type":"yes"},{"id":"xx270295_144351","name":"مقبرة","lat":27.029478,"lng":14.43506,"addr":"","type":"grave_yard"},{"id":"xx270489_144267","name":"مسجد بلال بن رباح","lat":27.048901,"lng":14.426678,"addr":"","type":"yes"},{"id":"xx270389_144274","name":"مسجد اقعيد","lat":27.038916,"lng":14.427433,"addr":"","type":"yes"},{"id":"xx270442_144170","name":"مسجد أهل الحديث","lat":27.044235,"lng":14.416984,"addr":"","type":"yes"},{"id":"xx270481_144134","name":"جامع الميدان","lat":27.048129,"lng":14.413433,"addr":"","type":"yes"},{"id":"xx270484_144168","name":"مسجد التركي","lat":27.048399,"lng":14.416789,"addr":"","type":"yes"},{"id":"xx270467_144210","name":"مسجد ابوبكر الصديق","lat":27.046688,"lng":14.421015,"addr":"","type":"yes"},{"id":"xx270474_144240","name":"Islamic place","lat":27.047376,"lng":14.424044,"addr":"","type":"yes"},{"id":"xx270501_144124","name":"المسجد العتيق","lat":27.050125,"lng":14.412448,"addr":"","type":"yes"},{"id":"xx270425_144248","name":"Islamic place","lat":27.042542,"lng":14.424752,"addr":"","type":"yes"},{"id":"xx270372_144357","name":"مسجد بردي","lat":27.037238,"lng":14.435748,"addr":"","type":"yes"},{"id":"xx270337_144405","name":"مسجد","lat":27.033743,"lng":14.440517,"addr":"Sabha","type":"yes"},{"id":"xx270520_144057","name":"مقبره الجديد","lat":27.051995,"lng":14.405712,"addr":"","type":"grave_yard"},{"id":"xx270545_144055","name":"مقبره الجديد","lat":27.054518,"lng":14.405541,"addr":"سبها","type":"grave_yard"},{"id":"xx270529_144119","name":"مسجد المصلى","lat":27.0529,"lng":14.41194,"addr":"","type":"yes"},{"id":"xx270536_144167","name":"مسجد عمر بن عبدالعزيز","lat":27.05356,"lng":14.416717,"addr":"","type":"yes"},{"id":"xx270235_144655","name":"Islamic place","lat":27.023477,"lng":14.465487,"addr":"","type":"yes"},{"id":"xx270296_144593","name":"Islamic place","lat":27.029627,"lng":14.459301,"addr":"","type":"yes"},{"id":"xx270305_144267","name":"مقبرة القرضة","lat":27.030487,"lng":14.426722,"addr":"","type":"mosque"},{"id":"xx270268_144231","name":"المسجد الاخضر","lat":27.026845,"lng":14.42311,"addr":"","type":"yes"},{"id":"xx270241_144257","name":"جامع الأبرار","lat":27.024074,"lng":14.425697,"addr":"","type":"yes"},{"id":"xx270268_144339","name":"مسجد ابودر الغفاري","lat":27.026845,"lng":14.433913,"addr":"","type":"yes"},{"id":"xx270279_144298","name":"جامع الخلفاء","lat":27.027923,"lng":14.429751,"addr":"","type":"yes"},{"id":"xx270312_144291","name":"جامع الغفران","lat":27.031158,"lng":14.429146,"addr":"","type":"yes"},{"id":"xx270296_144315","name":"مسجد","lat":27.02957,"lng":14.431494,"addr":"","type":"mosque"},{"id":"xx270372_144242","name":"المسجد العتيق","lat":27.037158,"lng":14.424194,"addr":"","type":"yes"},{"id":"xx270334_144135","name":"مسجد الشهداء","lat":27.033409,"lng":14.413521,"addr":"","type":"yes"},{"id":"xx270328_144199","name":"MUSQ","lat":27.032762,"lng":14.419881,"addr":"","type":"yes"},{"id":"xx270215_144316","name":"مسجد زيد بن ثابت","lat":27.021536,"lng":14.4316,"addr":"","type":"yes"},{"id":"xx269465_144356","name":"مسجد البركه","lat":26.946492,"lng":14.435572,"addr":"","type":"yes"},{"id":"xx268806_144238","name":"Islamic place","lat":26.880627,"lng":14.423773,"addr":"","type":"mosque"},{"id":"xx270498_144191","name":"مسجد محمد بن عثمان","lat":27.049835,"lng":14.41911,"addr":"","type":"yes"},{"id":"xx265275_129736","name":"مسجد البركة","lat":26.527493,"lng":12.973645,"addr":"القعيرات","type":"mosque"},{"id":"xx274469_130535","name":"Islamic place","lat":27.446857,"lng":13.0535,"addr":"","type":"mosque"},{"id":"xx265964_127762","name":"مسجد قايد","lat":26.596376,"lng":12.776163,"addr":"","type":"yes"},{"id":"xx265969_127858","name":"جامع الشارب","lat":26.596925,"lng":12.785833,"addr":"","type":"yes"},{"id":"xx265928_127274","name":"Islamic place","lat":26.59278,"lng":12.727403,"addr":"","type":"yes"},{"id":"xx270161_144433","name":"مسجد حي الكرامة","lat":27.016052,"lng":14.443257,"addr":"","type":"yes"},{"id":"xx270395_144207","name":"مسجد خالد بن الوليد","lat":27.039537,"lng":14.420734,"addr":"","type":"yes"},{"id":"xx270441_144337","name":"مسجد التوحيد","lat":27.044139,"lng":14.433708,"addr":"","type":"yes"},{"id":"xx257807_105630","name":"Islamic place","lat":25.78072,"lng":10.563012,"addr":"","type":"yes"},{"id":"xx257827_105603","name":"Islamic place","lat":25.782675,"lng":10.560301,"addr":"","type":"yes"},{"id":"xx262982_133994","name":"مسجد مكنوسه","lat":26.298229,"lng":13.399436,"addr":"","type":"yes"},{"id":"xx270533_144132","name":"Islamic place","lat":27.053313,"lng":14.41323,"addr":"","type":"mosque"},{"id":"xx270566_144091","name":"Islamic place","lat":27.056628,"lng":14.409093,"addr":"","type":"mosque"},{"id":"xx269729_144417","name":"Islamic place","lat":26.972911,"lng":14.441738,"addr":"","type":"yes"},{"id":"xx259176_139192","name":"المسجد الحديث","lat":25.917627,"lng":13.919203,"addr":"","type":"yes;mosque"},{"id":"xx294065_142821","name":"Islamic place","lat":29.406506,"lng":14.282147,"addr":"","type":"yes"},{"id":"xx257811_105644","name":"Islamic place","lat":25.781111,"lng":10.564369,"addr":"","type":"mosque"},{"id":"xx273671_149098","name":"Islamic place","lat":27.367087,"lng":14.909825,"addr":"الزيغن","type":"mosque"},{"id":"xx266471_136559","name":"Islamic place","lat":26.647067,"lng":13.655947,"addr":"","type":"mosque"},{"id":"xx274879_140223","name":"Islamic place","lat":27.487859,"lng":14.022263,"addr":"","type":"mosque"},{"id":"xx274477_130540","name":"Islamic place","lat":27.447685,"lng":13.054032,"addr":"","type":"mosque"},{"id":"xx274475_130530","name":"Islamic place","lat":27.447476,"lng":13.053037,"addr":"","type":"mosque"},{"id":"xx275737_143497","name":"Islamic place","lat":27.573665,"lng":14.349706,"addr":"","type":"mosque"},{"id":"xx275400_142498","name":"Islamic place","lat":27.540007,"lng":14.249821,"addr":"","type":"yes"},{"id":"xx274837_137920","name":"Islamic place","lat":27.483663,"lng":13.791982,"addr":"","type":"place_of_worship"},{"id":"xx274889_130284","name":"Islamic place","lat":27.488869,"lng":13.028429,"addr":"","type":"place_of_worship"},{"id":"xx272671_148854","name":"مسجد الصحابة","lat":27.267144,"lng":14.885445,"addr":"","type":"mosque"},{"id":"xx270766_144887","name":"Islamic place","lat":27.07663,"lng":14.48869,"addr":"","type":"yes"},{"id":"xx270566_144342","name":"Islamic place","lat":27.056593,"lng":14.434182,"addr":"","type":"yes"},{"id":"xx270027_144630","name":"Islamic place","lat":27.002746,"lng":14.463009,"addr":"","type":"mosque"},{"id":"xx272180_146227","name":"المسجد العتيق","lat":27.218031,"lng":14.622699,"addr":"تمنهنت","type":"yes"},{"id":"xx273700_149070","name":"Islamic place","lat":27.37001,"lng":14.907041,"addr":"","type":"yes"},{"id":"xx273697_149068","name":"Islamic place","lat":27.369694,"lng":14.906808,"addr":"","type":"school"},{"id":"xx273654_149058","name":"مسجد الزاوية","lat":27.365404,"lng":14.905816,"addr":"","type":"yes"},{"id":"xx273677_149136","name":"مسجد عمر بن الخطاب","lat":27.36775,"lng":14.913624,"addr":"الدائري الاوال","type":"yes"},{"id":"xx273695_149095","name":"مسجد الحسن بن علي","lat":27.369516,"lng":14.90955,"addr":"الزيغن","type":"mosque"},{"id":"xx259219_139127","name":"Islamic place","lat":25.92193,"lng":13.912693,"addr":"","type":"mosque"},{"id":"xx275727_136312","name":"Islamic place","lat":27.572657,"lng":13.631159,"addr":"","type":"mosque"},{"id":"xx275752_136157","name":"مقبرة ابوقدقود","lat":27.575161,"lng":13.615668,"addr":"","type":"mosque"},{"id":"xx274819_131188","name":"Islamic place","lat":27.481865,"lng":13.118761,"addr":"","type":"mosque"},{"id":"xx272791_148847","name":"Islamic place","lat":27.279136,"lng":14.884672,"addr":"","type":"mosque"},{"id":"xx274444_130518","name":"Islamic place","lat":27.444437,"lng":13.051812,"addr":"","type":"mosque"},{"id":"xx266477_136524","name":"Islamic place","lat":26.64773,"lng":13.652448,"addr":"","type":"mosque"},{"id":"xx270369_144627","name":"Islamic place","lat":27.036908,"lng":14.462691,"addr":"","type":"mosque"},{"id":"xx265833_128325","name":"Islamic place","lat":26.583287,"lng":12.832494,"addr":"","type":"yes"},{"id":"xx275267_139134","name":"Islamic place","lat":27.526652,"lng":13.913385,"addr":"","type":"yes"},{"id":"xx275061_139392","name":"Islamic place","lat":27.506099,"lng":13.939248,"addr":"","type":"yes"},{"id":"xx274900_139730","name":"Islamic place","lat":27.490008,"lng":13.973047,"addr":"","type":"yes"},{"id":"xx274878_139710","name":"Islamic place","lat":27.487756,"lng":13.971,"addr":"","type":"yes"},{"id":"xx275185_140936","name":"Islamic place","lat":27.518527,"lng":14.09355,"addr":"","type":"yes"},{"id":"xx275340_141614","name":"Islamic place","lat":27.533962,"lng":14.1614,"addr":"","type":"yes"},{"id":"xx275452_141603","name":"Islamic place","lat":27.545222,"lng":14.160308,"addr":"","type":"yes"},{"id":"xx275407_142616","name":"Islamic place","lat":27.540725,"lng":14.26163,"addr":"","type":"yes"},{"id":"xx275727_142313","name":"Islamic place","lat":27.572714,"lng":14.231341,"addr":"","type":"mosque"},{"id":"xx275788_142259","name":"Islamic place","lat":27.578823,"lng":14.225869,"addr":"","type":"yes"},{"id":"xx275704_141933","name":"Islamic place","lat":27.570414,"lng":14.193287,"addr":"","type":"mosque"},{"id":"xx275685_141936","name":"Islamic place","lat":27.568518,"lng":14.193587,"addr":"","type":"yes"},{"id":"xx275547_142541","name":"Islamic place","lat":27.554717,"lng":14.254114,"addr":"","type":"yes"},{"id":"xx275862_144178","name":"Islamic place","lat":27.58616,"lng":14.41777,"addr":"","type":"yes"},{"id":"xx275884_144003","name":"Islamic place","lat":27.588368,"lng":14.40034,"addr":"","type":"yes"},{"id":"xx261646_149537","name":"Islamic place","lat":26.164627,"lng":14.953705,"addr":"","type":"yes"},{"id":"xx299873_142540","name":"Islamic place","lat":29.987311,"lng":14.25399,"addr":"","type":"mosque"},{"id":"xx275407_142781","name":"Islamic place","lat":27.540652,"lng":14.27805,"addr":"","type":"mosque"},{"id":"xx275333_142609","name":"Islamic place","lat":27.533347,"lng":14.260903,"addr":"","type":"mosque"},{"id":"xx275404_142799","name":"Islamic place","lat":27.540388,"lng":14.279888,"addr":"","type":"mosque"},{"id":"xx275417_142801","name":"Islamic place","lat":27.541682,"lng":14.280064,"addr":"","type":"mosque"},{"id":"xx275009_140232","name":"Islamic place","lat":27.500885,"lng":14.023233,"addr":"","type":"mosque"},{"id":"xx275527_136328","name":"Islamic place","lat":27.552685,"lng":13.63285,"addr":"","type":"mosque"},{"id":"xx275734_136221","name":"Islamic place","lat":27.573421,"lng":13.622058,"addr":"","type":"mosque"},{"id":"xx258603_145316","name":"Islamic place","lat":25.860337,"lng":14.531582,"addr":"","type":"mosque"},{"id":"xx259303_144397","name":"Islamic place","lat":25.930268,"lng":14.439703,"addr":"","type":"mosque"},{"id":"xx258601_145321","name":"Islamic place","lat":25.860064,"lng":14.532078,"addr":"","type":"yes"},{"id":"xx295176_129611","name":"Islamic place","lat":29.517616,"lng":12.96114,"addr":"","type":"yes"},{"id":"xx299793_142513","name":"Islamic place","lat":29.979308,"lng":14.251339,"addr":"","type":"yes"},{"id":"xx270389_144097","name":"Islamic place","lat":27.038891,"lng":14.409719,"addr":"","type":"yes"},{"id":"xx270339_144229","name":"Islamic place","lat":27.033944,"lng":14.422931,"addr":"","type":"yes"},{"id":"xx270374_144510","name":"Islamic place","lat":27.037384,"lng":14.451032,"addr":"","type":"mosque"},{"id":"xx270524_144461","name":"Islamic place","lat":27.05235,"lng":14.446085,"addr":"","type":"mosque"},{"id":"xx269589_144239","name":"Islamic place","lat":26.958945,"lng":14.423942,"addr":"","type":"yes"},{"id":"xx269657_144251","name":"Islamic place","lat":26.965714,"lng":14.425051,"addr":"","type":"yes"},{"id":"xx270232_144052","name":"Islamic place","lat":27.023215,"lng":14.405214,"addr":"","type":"yes"},{"id":"xx270278_143942","name":"Islamic place","lat":27.027844,"lng":14.39417,"addr":"","type":"yes"},{"id":"xx270368_143970","name":"Islamic place","lat":27.036816,"lng":14.396965,"addr":"","type":"yes"},{"id":"xx259146_139133","name":"Islamic place","lat":25.914599,"lng":13.913317,"addr":"","type":"yes"},{"id":"xx258600_142787","name":"Islamic place","lat":25.859986,"lng":14.278679,"addr":"","type":"yes"},{"id":"xx258280_142291","name":"Islamic place","lat":25.828032,"lng":14.229065,"addr":"","type":"yes"},{"id":"xx258782_141523","name":"Islamic place","lat":25.878228,"lng":14.152314,"addr":"","type":"yes"},{"id":"xx258797_141588","name":"Islamic place","lat":25.879691,"lng":14.158779,"addr":"","type":"yes"},{"id":"xx259323_140817","name":"Islamic place","lat":25.932299,"lng":14.081709,"addr":"","type":"yes"},{"id":"xx259239_140490","name":"Islamic place","lat":25.923889,"lng":14.048954,"addr":"","type":"yes"},{"id":"xx259130_140474","name":"Islamic place","lat":25.912952,"lng":14.047449,"addr":"","type":"yes"},{"id":"xx259194_139478","name":"Islamic place","lat":25.919371,"lng":13.947837,"addr":"","type":"yes"},{"id":"xx275845_144071","name":"Islamic place","lat":27.584493,"lng":14.407074,"addr":"","type":"mosque"},{"id":"xx274982_139680","name":"Islamic place","lat":27.498247,"lng":13.967985,"addr":"","type":"yes"},{"id":"xx259179_139000","name":"Islamic place","lat":25.917881,"lng":13.899985,"addr":"","type":"mosque"},{"id":"xx275796_142156","name":"مسجد ابوبكر الصديق","lat":27.579629,"lng":14.215578,"addr":"","type":"yes"},{"id":"xx265445_133158","name":"Islamic place","lat":26.544459,"lng":13.315818,"addr":"","type":"yes"},{"id":"xx275729_141944","name":"Islamic place","lat":27.572876,"lng":14.194371,"addr":"","type":"yes"},{"id":"xx275727_142335","name":"Islamic place","lat":27.57266,"lng":14.233538,"addr":"","type":"yes"},{"id":"xx275695_142351","name":"Islamic place","lat":27.569532,"lng":14.235083,"addr":"","type":"yes"},{"id":"xx275714_142562","name":"Islamic place","lat":27.571421,"lng":14.256213,"addr":"","type":"yes"},{"id":"xx275744_142554","name":"Islamic place","lat":27.574411,"lng":14.255437,"addr":"","type":"mosque"},{"id":"xx275579_142738","name":"Islamic place","lat":27.557891,"lng":14.273794,"addr":"","type":"yes"},{"id":"xx299820_142602","name":"Islamic place","lat":29.982048,"lng":14.260151,"addr":"","type":"yes"},{"id":"xx272736_148812","name":"Omer Ben Al-Katab","lat":27.27365,"lng":14.881166,"addr":"","type":"mosque"},{"id":"xx265621_131638","name":"المسجد العتيق تويوه","lat":26.5621,"lng":13.163775,"addr":"","type":"yes"},{"id":"xx265631_131525","name":"Islamic place","lat":26.563141,"lng":13.152532,"addr":"","type":"yes"},{"id":"xx265594_131654","name":"مقبره تويوه","lat":26.55941,"lng":13.165442,"addr":"","type":"grave_yard"},{"id":"xx265658_131321","name":"Islamic place","lat":26.565832,"lng":13.132072,"addr":"","type":"grave_yard"},{"id":"xx265607_131181","name":"مقبره ابريك","lat":26.560678,"lng":13.118138,"addr":"","type":"grave_yard"},{"id":"xx265553_131159","name":"جامع ابريك","lat":26.555282,"lng":13.115925,"addr":"","type":"yes"},{"id":"xx260970_135686","name":"مسجد","lat":26.09699,"lng":13.568638,"addr":"","type":"yes"},{"id":"xx260887_134985","name":"جامع تساوه","lat":26.088665,"lng":13.49849,"addr":"","type":"yes"},{"id":"xx260878_135056","name":"Islamic place","lat":26.087769,"lng":13.505635,"addr":"","type":"yes"},{"id":"xx260980_136875","name":"جامع اسبيطات","lat":26.098001,"lng":13.687526,"addr":"","type":"yes"},{"id":"xx265432_131015","name":"مقبره توش","lat":26.5432,"lng":13.10154,"addr":"","type":"grave_yard"},{"id":"xx265297_130699","name":"Islamic place","lat":26.52966,"lng":13.069873,"addr":"","type":"yes"},{"id":"xx265275_130147","name":"جامع الجرامي","lat":26.527492,"lng":13.01474,"addr":"","type":"yes"},{"id":"xx265263_130131","name":"جامع المصرف","lat":26.526318,"lng":13.013116,"addr":"","type":"yes"},{"id":"xx275604_144487","name":"مسجد أشكدة","lat":27.560381,"lng":14.448662,"addr":"أشكدة","type":"yes"},{"id":"xx272098_146255","name":"مسجد تمنهنت","lat":27.20981,"lng":14.625532,"addr":"","type":"yes"},{"id":"xx265872_127738","name":"مسجد البلديه","lat":26.587226,"lng":12.773824,"addr":"","type":"yes"},{"id":"xx265913_127772","name":"مسجد القطاوي اوباري","lat":26.59134,"lng":12.777212,"addr":"","type":"yes"},{"id":"xx265906_127746","name":"مدرسه الوحدة العربية","lat":26.590586,"lng":12.774623,"addr":"اوباري","type":"school"},{"id":"xx265880_128088","name":"مقبره","lat":26.588006,"lng":12.808822,"addr":"","type":"mosque"},{"id":"xx265891_128188","name":"مسجد الديسه","lat":26.589113,"lng":12.818824,"addr":"","type":"yes"},{"id":"xx265736_129481","name":"مقبره الحطيه","lat":26.573631,"lng":12.948133,"addr":"","type":"mosque"},{"id":"xx265763_129428","name":"مسجد الحطيه","lat":26.576279,"lng":12.942765,"addr":"","type":"yes"},{"id":"xx265241_129818","name":"مسجد القعيرات","lat":26.524118,"lng":12.981785,"addr":"","type":"yes"},{"id":"xx266064_135751","name":"Islamic place","lat":26.606444,"lng":13.575143,"addr":"","type":"yes"},{"id":"xx270306_144245","name":"مقبرة القرضة","lat":27.030553,"lng":14.424522,"addr":"","type":"mosque"},{"id":"xx267465_139452","name":"Islamic place","lat":26.746509,"lng":13.945155,"addr":"","type":"yes"},{"id":"xx266784_137578","name":"Islamic place","lat":26.678376,"lng":13.757784,"addr":"","type":"yes"},{"id":"xx266735_137530","name":"Islamic place","lat":26.673545,"lng":13.753006,"addr":"","type":"yes"},{"id":"xx265614_132458","name":"مقبرة تكركيبة القديمة","lat":26.561409,"lng":13.245845,"addr":"","type":"grave_yard"},{"id":"xx266251_136224","name":"Islamic place","lat":26.625149,"lng":13.622365,"addr":"","type":"yes"},{"id":"xx266038_135571","name":"Islamic place","lat":26.603815,"lng":13.557136,"addr":"","type":"yes"},{"id":"xx265439_134004","name":"Islamic place","lat":26.543856,"lng":13.400416,"addr":"","type":"yes"},{"id":"xx265426_133645","name":"Islamic place","lat":26.542647,"lng":13.364463,"addr":"","type":"yes"},{"id":"xx265867_127682","name":"مقبرة أوباري","lat":26.586662,"lng":12.768175,"addr":"","type":"mosque"},{"id":"xx270402_144170","name":"Islamic place","lat":27.040192,"lng":14.417016,"addr":"","type":"yes"},{"id":"xx270532_144276","name":"Islamic place","lat":27.053165,"lng":14.427576,"addr":"حي الحساونة","type":"yes"},{"id":"xx270528_144276","name":"مناره تحفيظ قران","lat":27.052805,"lng":14.427616,"addr":"","type":"yes"},{"id":"xx270201_144564","name":"مسجد مصعب بن عمير","lat":27.020101,"lng":14.456426,"addr":"","type":"yes"},{"id":"xx270294_144350","name":"مقبرة","lat":27.029423,"lng":14.434976,"addr":"","type":"grave_yard"},{"id":"xx270488_144266","name":"مسجد بلال بن رباح","lat":27.048827,"lng":14.426626,"addr":"","type":"yes"},{"id":"xx270442_144169","name":"مسجد أهل الحديث","lat":27.044243,"lng":14.416938,"addr":"","type":"yes"},{"id":"xx270467_144209","name":"مسجد ابوبكر الصديق","lat":27.046678,"lng":14.420895,"addr":"","type":"yes"},{"id":"xx270425_144247","name":"Islamic place","lat":27.042531,"lng":14.424737,"addr":"","type":"yes"},{"id":"xx270372_144356","name":"مسجد بردي","lat":27.037209,"lng":14.435624,"addr":"","type":"yes"},{"id":"xx270518_144055","name":"مقبره الجديد","lat":27.051771,"lng":14.405459,"addr":"","type":"grave_yard"},{"id":"xx270545_144053","name":"مقبره الجديد","lat":27.05452,"lng":14.40529,"addr":"سبها","type":"grave_yard"},{"id":"xx270535_144166","name":"مسجد عمر بن عبدالعزيز","lat":27.053535,"lng":14.416617,"addr":"","type":"yes"},{"id":"xx270234_144655","name":"Islamic place","lat":27.023439,"lng":14.465474,"addr":"","type":"yes"},{"id":"xx270268_144230","name":"المسجد الاخضر","lat":27.026801,"lng":14.423037,"addr":"","type":"yes"},{"id":"xx270240_144257","name":"جامع الأبرار","lat":27.024046,"lng":14.42567,"addr":"","type":"yes"},{"id":"xx270279_144297","name":"جامع الخلفاء","lat":27.027923,"lng":14.429711,"addr":"","type":"yes"},{"id":"xx270311_144291","name":"جامع الغفران","lat":27.031138,"lng":14.429114,"addr":"","type":"yes"},{"id":"xx270372_144241","name":"المسجد العتيق","lat":27.037188,"lng":14.424141,"addr":"","type":"yes"},{"id":"xx270327_144199","name":"MUSQ","lat":27.032722,"lng":14.419877,"addr":"","type":"yes"},{"id":"xx270215_144315","name":"مسجد زيد بن ثابت","lat":27.021485,"lng":14.4315,"addr":"","type":"yes"},{"id":"xx269465_144355","name":"مسجد البركه","lat":26.946481,"lng":14.435548,"addr":"","type":"yes"},{"id":"xx268806_144237","name":"Islamic place","lat":26.88064,"lng":14.423719,"addr":"","type":"mosque"},{"id":"xx270498_144190","name":"مسجد محمد بن عثمان","lat":27.049793,"lng":14.419027,"addr":"","type":"yes"},{"id":"xx265964_127761","name":"مسجد قايد","lat":26.596373,"lng":12.776125,"addr":"","type":"yes"},{"id":"xx270160_144432","name":"مسجد حي الكرامة","lat":27.016034,"lng":14.443246,"addr":"","type":"yes"},{"id":"xx257826_105603","name":"Islamic place","lat":25.782641,"lng":10.560301,"addr":"","type":"yes"},{"id":"xx257811_105641","name":"Islamic place","lat":25.781107,"lng":10.564146,"addr":"","type":"mosque"},{"id":"xx273670_149096","name":"Islamic place","lat":27.367014,"lng":14.909626,"addr":"الزيغن","type":"mosque"},{"id":"xx266471_136558","name":"Islamic place","lat":26.647133,"lng":13.655831,"addr":"","type":"mosque"},{"id":"xx274476_130539","name":"Islamic place","lat":27.447643,"lng":13.053917,"addr":"","type":"mosque"},{"id":"xx274474_130529","name":"Islamic place","lat":27.447436,"lng":13.052939,"addr":"","type":"mosque"},{"id":"xx274837_137919","name":"Islamic place","lat":27.483673,"lng":13.791931,"addr":"","type":"place_of_worship"},{"id":"xx273696_149068","name":"Islamic place","lat":27.369647,"lng":14.906797,"addr":"","type":"school"},{"id":"xx273678_149136","name":"مسجد عمر بن الخطاب","lat":27.367752,"lng":14.913605,"addr":"الدائري الاوال","type":"yes"},{"id":"xx259221_139126","name":"Islamic place","lat":25.922067,"lng":13.912573,"addr":"","type":"mosque"},{"id":"xx275728_136310","name":"Islamic place","lat":27.572752,"lng":13.631028,"addr":"","type":"mosque"},{"id":"xx275752_136156","name":"مقبرة ابوقدقود","lat":27.575174,"lng":13.615585,"addr":"","type":"mosque"},{"id":"xx274819_131186","name":"Islamic place","lat":27.481915,"lng":13.118642,"addr":"","type":"mosque"},{"id":"xx272792_148844","name":"Islamic place","lat":27.279215,"lng":14.88443,"addr":"","type":"mosque"},{"id":"xx274444_130517","name":"Islamic place","lat":27.444432,"lng":13.051714,"addr":"","type":"mosque"},{"id":"xx266476_136524","name":"Islamic place","lat":26.64765,"lng":13.652406,"addr":"","type":"mosque"},{"id":"xx270370_144625","name":"Islamic place","lat":27.037015,"lng":14.462531,"addr":"","type":"mosque"},{"id":"xx275408_142616","name":"Islamic place","lat":27.540778,"lng":14.261628,"addr":"","type":"yes"},{"id":"xx275730_142312","name":"Islamic place","lat":27.573002,"lng":14.23124,"addr":"","type":"mosque"},{"id":"xx275549_142540","name":"Islamic place","lat":27.554866,"lng":14.254043,"addr":"","type":"yes"},{"id":"xx299874_142538","name":"Islamic place","lat":29.987445,"lng":14.253782,"addr":"","type":"mosque"},{"id":"xx275407_142779","name":"Islamic place","lat":27.540735,"lng":14.27794,"addr":"","type":"mosque"},{"id":"xx275405_142797","name":"Islamic place","lat":27.540509,"lng":14.279744,"addr":"","type":"mosque"},{"id":"xx275418_142800","name":"Islamic place","lat":27.541754,"lng":14.279979,"addr":"","type":"mosque"},{"id":"xx275011_140230","name":"Islamic place","lat":27.50113,"lng":14.023017,"addr":"","type":"mosque"},{"id":"xx275528_136327","name":"Islamic place","lat":27.552843,"lng":13.632737,"addr":"","type":"mosque"},{"id":"xx275735_136219","name":"Islamic place","lat":27.573493,"lng":13.621936,"addr":"","type":"mosque"},{"id":"xx258604_145316","name":"Islamic place","lat":25.860358,"lng":14.531567,"addr":"","type":"mosque"},{"id":"xx259303_144394","name":"Islamic place","lat":25.930316,"lng":14.439365,"addr":"","type":"mosque"},{"id":"xx270340_144229","name":"Islamic place","lat":27.033956,"lng":14.422893,"addr":"","type":"yes"},{"id":"xx270523_144461","name":"Islamic place","lat":27.052344,"lng":14.446082,"addr":"","type":"mosque"},{"id":"xx269657_144250","name":"Islamic place","lat":26.965667,"lng":14.425038,"addr":"","type":"yes"},{"id":"xx259145_139133","name":"Islamic place","lat":25.914526,"lng":13.913299,"addr":"","type":"yes"},{"id":"xx259193_139478","name":"Islamic place","lat":25.919337,"lng":13.947828,"addr":"","type":"yes"},{"id":"xx275844_144071","name":"Islamic place","lat":27.58436,"lng":14.407064,"addr":"","type":"mosque"},{"id":"xx259178_138999","name":"Islamic place","lat":25.917756,"lng":13.899937,"addr":"","type":"mosque"},{"id":"xx275728_141944","name":"Islamic place","lat":27.572833,"lng":14.19437,"addr":"","type":"yes"},{"id":"xx275743_142553","name":"Islamic place","lat":27.57428,"lng":14.25528,"addr":"","type":"mosque"}]