[{"id":"xx278195_523359","name":"مسجد پیامبر اعظم","lat":27.819457,"lng":52.335859,"addr":"","type":"place_of_worship"},{"id":"xx276763_541363","name":"مسجد امیرالمومنین علی (ع)","lat":27.676331,"lng":54.136283,"addr":"بلوار حاج شیخ احمد انصاری","type":"place_of_worship"},{"id":"xx276675_541414","name":"آرامگاه شهدای گمنام","lat":27.667477,"lng":54.141408,"addr":"گِراش","type":"place_of_worship"},{"id":"xx296155_525021","name":"مسجد امتیاز نو","lat":29.61553,"lng":52.502061,"addr":"","type":"place_of_worship"},{"id":"xx277611_539997","name":"مسجد جامع مصلی","lat":27.761117,"lng":53.999657,"addr":"","type":"place_of_worship"},{"id":"xx273317_531968","name":"رسول اعظم","lat":27.331728,"lng":53.196782,"addr":"لامرد","type":"place_of_worship"},{"id":"xx288419_525648","name":"حسینیه باب الحوائج","lat":28.841899,"lng":52.564751,"addr":"","type":"place_of_worship"},{"id":"xx286014_515507","name":"شاه پیر غیب","lat":28.601448,"lng":51.550714,"addr":"","type":"mosque"},{"id":"xx288338_508783","name":"مسجد الرسول (ص) هلیله","lat":28.833844,"lng":50.878323,"addr":"","type":"place_of_worship"},{"id":"xx265544_548818","name":"مسجد جامع","lat":26.554387,"lng":54.88177,"addr":"","type":"mosque"},{"id":"xx278434_520614","name":"مسجد قائم","lat":27.843377,"lng":52.061425,"addr":"خیابان دارایی","type":"place_of_worship"},{"id":"xx289674_508215","name":"مسجد سلمان فارسی","lat":28.967427,"lng":50.821541,"addr":"","type":"place_of_worship"},{"id":"xx289695_508225","name":"حسینیه زائرحسین","lat":28.96951,"lng":50.82248,"addr":"","type":"place_of_worship"},{"id":"xx289004_514639","name":"حسینیه","lat":28.900367,"lng":51.46394,"addr":"","type":"place_of_worship"},{"id":"xx289005_514635","name":"مسجد","lat":28.900468,"lng":51.463455,"addr":"","type":"place_of_worship"},{"id":"xx291926_543393","name":"مسجد ذوالنور","lat":29.192552,"lng":54.339286,"addr":"","type":"place_of_worship"},{"id":"xx291974_543327","name":"حسینیه ثارالله","lat":29.197391,"lng":54.33267,"addr":"","type":"place_of_worship"},{"id":"xx292005_543260","name":"مسجدجامع مهدی","lat":29.20047,"lng":54.326023,"addr":"","type":"place_of_worship"},{"id":"xx292029_543197","name":"مسجد امام جواد ع","lat":29.202946,"lng":54.31969,"addr":"","type":"place_of_worship"},{"id":"xx291954_543220","name":"مسجد ولیعصر","lat":29.195391,"lng":54.321962,"addr":"","type":"place_of_worship"},{"id":"xx291836_543096","name":"حسینیه ابوالفضل","lat":29.18358,"lng":54.30961,"addr":"","type":"place_of_worship"},{"id":"xx291839_543111","name":"مسجد امام سجاد","lat":29.183869,"lng":54.311055,"addr":"","type":"place_of_worship"},{"id":"xx291952_543192","name":"مسجد امام جعفرصادق","lat":29.195151,"lng":54.319172,"addr":"","type":"place_of_worship"},{"id":"xx291977_543211","name":"حسینیه اکبرزاده","lat":29.197748,"lng":54.321075,"addr":"","type":"place_of_worship"},{"id":"xx292000_543166","name":"حسینیه علی بن ابیطالب","lat":29.199997,"lng":54.316647,"addr":"","type":"place_of_worship"},{"id":"xx291873_543141","name":"مسجدامیرالمومنین","lat":29.187332,"lng":54.314074,"addr":"","type":"place_of_worship"},{"id":"xx291999_543159","name":"مسجد علی ابن ابیطالب","lat":29.199855,"lng":54.315935,"addr":"","type":"place_of_worship"},{"id":"xx291930_543190","name":"حسینیه قائم","lat":29.192993,"lng":54.318963,"addr":"","type":"place_of_worship"},{"id":"xx291948_543162","name":"مسجد موسی بن جعفر","lat":29.194795,"lng":54.316198,"addr":"","type":"place_of_worship"},{"id":"xx289419_548928","name":"مسجد","lat":28.941919,"lng":54.892797,"addr":"","type":"place_of_worship"},{"id":"xx296238_516534","name":"مسجد سید محمد کاشی","lat":29.623837,"lng":51.653376,"addr":"","type":"place_of_worship"},{"id":"xx296188_516535","name":"مسجد شهدا","lat":29.618771,"lng":51.653518,"addr":"","type":"place_of_worship"},{"id":"xx296257_516687","name":"مسجد ملابرات","lat":29.625744,"lng":51.668734,"addr":"","type":"place_of_worship"},{"id":"xx296257_516691","name":"حسینیه","lat":29.625732,"lng":51.669136,"addr":"","type":"place_of_worship"},{"id":"xx296351_525245","name":"نمازخانه","lat":29.635098,"lng":52.52449,"addr":"","type":"place_of_worship"},{"id":"xx296193_516527","name":"حسینیه مصلا","lat":29.619261,"lng":51.652708,"addr":"","type":"place_of_worship"},{"id":"xx296195_516512","name":"مسجد حاج رضا","lat":29.619528,"lng":51.651227,"addr":"","type":"place_of_worship"},{"id":"xx296188_516485","name":"مسجد امام حسن مجتبی","lat":29.618753,"lng":51.648467,"addr":"","type":"place_of_worship"},{"id":"xx296153_516546","name":"مسجد امامزاده سید محمد","lat":29.615276,"lng":51.654555,"addr":"","type":"place_of_worship"},{"id":"xx296236_516637","name":"مسجد شیخ","lat":29.623558,"lng":51.663673,"addr":"","type":"place_of_worship"},{"id":"xx296231_516669","name":"مسجد امام رضا","lat":29.62315,"lng":51.666938,"addr":"","type":"place_of_worship"},{"id":"xx296229_516670","name":"مهدیه","lat":29.622915,"lng":51.667037,"addr":"","type":"place_of_worship"},{"id":"xx296216_516573","name":"Islamic place","lat":29.621625,"lng":51.657331,"addr":"","type":"place_of_worship"},{"id":"xx296040_516512","name":"مسجدسیدالشهدا","lat":29.604001,"lng":51.651235,"addr":"","type":"place_of_worship"},{"id":"xx296126_516534","name":"مسجد امام زمان","lat":29.612637,"lng":51.65345,"addr":"","type":"place_of_worship"},{"id":"xx296126_516531","name":"حسینیه","lat":29.612586,"lng":51.653074,"addr":"","type":"place_of_worship"},{"id":"xx295904_524712","name":"مسجد آیت الله امام","lat":29.590376,"lng":52.471234,"addr":"","type":"place_of_worship"},{"id":"xx299333_528918","name":"مسجد","lat":29.933268,"lng":52.891846,"addr":"","type":"place_of_worship"},{"id":"xx296117_516581","name":"مسجد امام جعفر صادق","lat":29.611716,"lng":51.658066,"addr":"","type":"place_of_worship"},{"id":"xx292366_544061","name":"مسجد حضرت ابوالفضل","lat":29.236626,"lng":54.406055,"addr":"","type":"place_of_worship"},{"id":"xx296241_516530","name":"حسینیه","lat":29.62412,"lng":51.653045,"addr":"","type":"place_of_worship"},{"id":"xx296190_516606","name":"حسینیه تهران","lat":29.618979,"lng":51.66057,"addr":"","type":"place_of_worship"},{"id":"xx296137_516561","name":"مسجد حاج اسماعیل","lat":29.613715,"lng":51.656091,"addr":"","type":"place_of_worship"},{"id":"xx296165_516571","name":"مصلای نماز جمعه کازرون","lat":29.616474,"lng":51.657077,"addr":"","type":"place_of_worship"},{"id":"xx296203_516616","name":"مسجد امام خمینی","lat":29.620349,"lng":51.661644,"addr":"","type":"place_of_worship"},{"id":"xx296186_516572","name":"حسینیه بازار","lat":29.618582,"lng":51.657205,"addr":"","type":"place_of_worship"},{"id":"xx296181_516563","name":"امامزاده ابافتح","lat":29.618074,"lng":51.656309,"addr":"","type":"place_of_worship"},{"id":"xx296178_516566","name":"مسجدبازار","lat":29.617822,"lng":51.656553,"addr":"","type":"place_of_worship"},{"id":"xx288890_549624","name":"مسجد","lat":28.889009,"lng":54.962395,"addr":"","type":"place_of_worship"},{"id":"xx288864_549627","name":"مسجد","lat":28.886396,"lng":54.962744,"addr":"","type":"place_of_worship"},{"id":"xx291619_542979","name":"مسجد","lat":29.161935,"lng":54.297945,"addr":"","type":"place_of_worship"},{"id":"xx296198_516543","name":"Islamic place","lat":29.619829,"lng":51.654254,"addr":"","type":"place_of_worship"},{"id":"xx296196_516490","name":"مسجد امام حسین","lat":29.619562,"lng":51.649047,"addr":"","type":"place_of_worship"},{"id":"xx296223_516612","name":"Islamic place","lat":29.622254,"lng":51.661192,"addr":"","type":"place_of_worship"},{"id":"xx297762_527172","name":"مسجد امام حسن مجتبی","lat":29.776235,"lng":52.717196,"addr":"","type":"place_of_worship"},{"id":"xx297752_527256","name":"مسجد جامع","lat":29.775211,"lng":52.725639,"addr":"","type":"place_of_worship"},{"id":"xx297773_527252","name":"حسینیه امام سجاد","lat":29.777323,"lng":52.72523,"addr":"","type":"place_of_worship"},{"id":"xx297775_527248","name":"مسجد امام سجاد","lat":29.777523,"lng":52.724846,"addr":"","type":"place_of_worship"},{"id":"xx297744_527275","name":"حسینیه حضرت ولیعصر","lat":29.77435,"lng":52.727497,"addr":"","type":"place_of_worship"},{"id":"xx297744_527278","name":"مسجد حضرت ولیعصر","lat":29.774376,"lng":52.727832,"addr":"","type":"place_of_worship"},{"id":"xx297713_527284","name":"مسجد حیدر","lat":29.771332,"lng":52.728413,"addr":"","type":"place_of_worship"},{"id":"xx297711_527287","name":"حسینیه حیدر","lat":29.771149,"lng":52.728672,"addr":"","type":"place_of_worship"},{"id":"xx297696_527205","name":"مسجدفاطمه الزهرا","lat":29.769641,"lng":52.720471,"addr":"","type":"place_of_worship"},{"id":"xx297758_527259","name":"زینبیه","lat":29.775762,"lng":52.725877,"addr":"","type":"place_of_worship"},{"id":"xx297524_540164","name":"امامزاده","lat":29.752367,"lng":54.016437,"addr":"","type":"shrine"},{"id":"xx296089_525017","name":"مسجد فاطمه الزهرا","lat":29.608891,"lng":52.501671,"addr":"۱۰ بلوار امیرکبیر","type":"place_of_worship"},{"id":"xx296100_524527","name":"جوادالائمه","lat":29.609955,"lng":52.452677,"addr":"","type":"place_of_worship"},{"id":"xx296052_524593","name":"Islamic place","lat":29.605217,"lng":52.459267,"addr":"","type":"place_of_worship"},{"id":"xx296125_524443","name":"مسجد امام سجاد","lat":29.612465,"lng":52.444293,"addr":"","type":"place_of_worship"},{"id":"xx296369_524686","name":"مسجد امیر المومنین","lat":29.636887,"lng":52.468645,"addr":"","type":"place_of_worship"},{"id":"xx296099_525272","name":"Islamic place","lat":29.609856,"lng":52.527212,"addr":"","type":"place_of_worship"},{"id":"xx276461_542828","name":"مسجد شهرک مهر","lat":27.646067,"lng":54.282795,"addr":"","type":"place_of_worship"},{"id":"xx276620_542992","name":"مسجد باین","lat":27.661957,"lng":54.299216,"addr":"","type":"place_of_worship"},{"id":"xx298653_502615","name":"Islamic place","lat":29.86531,"lng":50.261472,"addr":"","type":"place_of_worship"},{"id":"xx287680_545551","name":"مسجد جواد الائمه","lat":28.768034,"lng":54.55515,"addr":"","type":"place_of_worship"},{"id":"xx287499_545440","name":"حسینیه تاج آباد","lat":28.749895,"lng":54.543985,"addr":"","type":"place_of_worship"},{"id":"xx287470_545425","name":"امامزاده","lat":28.746963,"lng":54.542484,"addr":"","type":"shrine"},{"id":"xx287532_545379","name":"مسجد امام رضا","lat":28.75318,"lng":54.537944,"addr":"","type":"place_of_worship"},{"id":"xx290676_518769","name":"مسجد ابوالفضل","lat":29.067601,"lng":51.876853,"addr":"","type":"mosque"},{"id":"xx290573_518864","name":"امامزاده","lat":29.057253,"lng":51.886387,"addr":"","type":"shrine"},{"id":"xx290716_518744","name":"حسینیه","lat":29.071637,"lng":51.874368,"addr":"","type":"place_of_worship"},{"id":"xx290094_520890","name":"امامزده سید محمد","lat":29.009375,"lng":52.088999,"addr":"","type":"shrine"},{"id":"xx299685_521876","name":"مسجد شول","lat":29.968503,"lng":52.187603,"addr":"","type":"place_of_worship"},{"id":"xx265925_549382","name":"مسجد ابراهیم","lat":26.592481,"lng":54.938172,"addr":"","type":"place_of_worship"},{"id":"xx265941_549359","name":"مسجد بلال آبنار","lat":26.59409,"lng":54.935943,"addr":"","type":"place_of_worship"},{"id":"xx265970_549365","name":"مسجد بلوکی","lat":26.596993,"lng":54.936459,"addr":"","type":"place_of_worship"},{"id":"xx278342_523355","name":"مسجد بهر باغ","lat":27.834242,"lng":52.335459,"addr":"","type":"mosque"},{"id":"xx278348_523364","name":"خانه پزشک دهمده- دی مشهدی عباس","lat":27.834789,"lng":52.336436,"addr":"","type":"yes"},{"id":"xx294968_511521","name":"زیارتگاه آغانور","lat":29.496764,"lng":51.152123,"addr":"","type":"place_of_worship"},{"id":"xx289593_508352","name":"مسجد امیرالمومنین","lat":28.959291,"lng":50.835177,"addr":"","type":"place_of_worship"},{"id":"xx265571_548837","name":"مسجد جامع اهل سنت","lat":26.557103,"lng":54.883721,"addr":"","type":"place_of_worship"},{"id":"xx298229_502693","name":"قدم گاه امام رضا","lat":29.822858,"lng":50.269301,"addr":"لیراوی جنوبی","type":"place_of_worship"},{"id":"xx284922_535530","name":"کانون زبان ایران","lat":28.492179,"lng":53.553018,"addr":"","type":"school"},{"id":"xx278498_534413","name":"مسجد","lat":27.849848,"lng":53.441281,"addr":"","type":"place_of_worship"},{"id":"xx283605_544138","name":"امامزاده شاه فرج الله","lat":28.360474,"lng":54.413795,"addr":"","type":"shrine"},{"id":"xx283589_544311","name":"مسجد جامع","lat":28.358911,"lng":54.431115,"addr":"","type":"place_of_worship"},{"id":"xx297061_520249","name":"مسجد ابوالفضل","lat":29.706067,"lng":52.024873,"addr":"","type":"place_of_worship"},{"id":"xx297964_525130","name":"مسجد حضرت ولی عصر(عج)","lat":29.796394,"lng":52.513029,"addr":"","type":"place_of_worship"},{"id":"xx295610_505131","name":"حسینیه حاج اسماعیل","lat":29.560987,"lng":50.513073,"addr":"بلوار ملوان","type":"husayniyyah"},{"id":"xx295761_525708","name":"مسجد الزینب","lat":29.576055,"lng":52.570753,"addr":"","type":"place_of_worship"},{"id":"xx299167_532974","name":"مسجد بلال","lat":29.916715,"lng":53.297425,"addr":"","type":"place_of_worship"},{"id":"xx299139_533071","name":"مسجد جامع","lat":29.913939,"lng":53.307138,"addr":"","type":"place_of_worship"},{"id":"xx299132_533055","name":"حسینیه درب شیخ","lat":29.913241,"lng":53.30548,"addr":"","type":"husayniyyah"},{"id":"xx299136_533048","name":"مسجد امام حسین ع","lat":29.91361,"lng":53.304812,"addr":"","type":"place_of_worship"},{"id":"xx299159_532983","name":"حسینیه سرور آزادگان","lat":29.915893,"lng":53.298324,"addr":"","type":"place_of_worship"},{"id":"xx299120_533068","name":"مسجد صاحب الزمان عج","lat":29.911989,"lng":53.306839,"addr":"","type":"place_of_worship"},{"id":"xx294804_519793","name":"مسجد روستای دردانه","lat":29.480378,"lng":51.97925,"addr":"شهیدان نجیبی","type":"place_of_worship"},{"id":"xx299158_533065","name":"مسجد آقا میرزا احمد","lat":29.915782,"lng":53.306489,"addr":"","type":"place_of_worship"},{"id":"xx296450_514979","name":"مسجد","lat":29.644992,"lng":51.497919,"addr":"","type":"mosque"},{"id":"xx295417_516458","name":"بی بی شیرین","lat":29.541725,"lng":51.645752,"addr":"","type":"shrine"},{"id":"xx295744_533368","name":"امامزاده صالح","lat":29.574415,"lng":53.336786,"addr":"","type":"place_of_worship"},{"id":"xx296617_524920","name":"امامزاده قندیلی","lat":29.661687,"lng":52.492013,"addr":"","type":"shrine"},{"id":"xx295961_525687","name":"مسجد رسول اعظم","lat":29.596122,"lng":52.568657,"addr":"بلوار فضیلت جنوبی","type":"place_of_worship"},{"id":"xx296145_516644","name":"مرقد مطهر سید محمد نوربخش","lat":29.614497,"lng":51.664438,"addr":"بلوارگلزار شهدا","type":"shrine"},{"id":"xx265220_548336","name":"نمازخانه","lat":26.521957,"lng":54.833637,"addr":"","type":"mosque"},{"id":"xx295959_525513","name":"مسجد امام رضا","lat":29.595852,"lng":52.551295,"addr":"","type":"place_of_worship"},{"id":"xx275545_525618","name":"Islamic place","lat":27.55452,"lng":52.561755,"addr":"","type":"place_of_worship"},{"id":"xx296274_525651","name":"مسجد جوادالأئمه","lat":29.62745,"lng":52.565093,"addr":"کوچه ۲۱","type":"place_of_worship"},{"id":"xx265356_548579","name":"Islamic place","lat":26.535648,"lng":54.85792,"addr":"","type":"mosque"},{"id":"xx298505_527695","name":"مسجد","lat":29.850465,"lng":52.769481,"addr":"","type":"mosque"},{"id":"xx295623_505236","name":"مسجد حضرت حجت","lat":29.562287,"lng":50.523608,"addr":"آزادگان","type":"place_of_worship"},{"id":"xx296038_525014","name":"مسجد صاحب الامر","lat":29.60382,"lng":52.501376,"addr":"","type":"place_of_worship"},{"id":"xx295461_513783","name":"Islamic place","lat":29.546086,"lng":51.378304,"addr":"","type":"place_of_worship"},{"id":"xx294709_509923","name":"مسجد امام سجاد","lat":29.470939,"lng":50.992269,"addr":"","type":"place_of_worship"},{"id":"xx275028_525807","name":"مسجد بلال","lat":27.502824,"lng":52.580742,"addr":"","type":"place_of_worship"},{"id":"xx276731_541354","name":"مسجد امام جعفر صادق (ع)","lat":27.673055,"lng":54.13545,"addr":"","type":"place_of_worship"},{"id":"xx276685_541352","name":"مسجد ولیعصر عج","lat":27.66854,"lng":54.135157,"addr":"","type":"mosque"},{"id":"xx294679_510340","name":"امامزاده شیخ اولیا","lat":29.467904,"lng":51.033966,"addr":"","type":"place_of_worship"},{"id":"xx296133_525009","name":"دبیرستان مصلحیان (ایران خودرو)","lat":29.613322,"lng":52.500857,"addr":"","type":"school"},{"id":"xx299186_532862","name":"Islamic place","lat":29.918617,"lng":53.286179,"addr":"","type":"place_of_worship"},{"id":"xx294684_509985","name":"حسینیه بهشت کاظم","lat":29.468394,"lng":50.998532,"addr":"","type":"place_of_worship"},{"id":"xx295213_513632","name":"مسجدالابرار","lat":29.521287,"lng":51.363173,"addr":"","type":"place_of_worship"},{"id":"xx296396_525257","name":"مسجد دانشگاه شیراز","lat":29.63957,"lng":52.525677,"addr":"","type":"place_of_worship"},{"id":"xx298085_525095","name":"مسجد امام حسن مجتبی علیه السلام","lat":29.808537,"lng":52.509478,"addr":"","type":"place_of_worship"},{"id":"xx286551_513742","name":"مسجد جامع خورموج","lat":28.655062,"lng":51.374178,"addr":"","type":"place_of_worship"},{"id":"xx286545_513786","name":"حسینیه میرزا","lat":28.654494,"lng":51.378631,"addr":"","type":"place_of_worship"},{"id":"xx286545_513790","name":"مسجد میرزا","lat":28.654537,"lng":51.379033,"addr":"","type":"mosque"},{"id":"xx296221_524707","name":"مسجد گلشن","lat":29.622097,"lng":52.470739,"addr":"","type":"place_of_worship"},{"id":"xx299174_533071","name":"حسینیه بنی فاطمه","lat":29.917445,"lng":53.307083,"addr":"","type":"place_of_worship"},{"id":"xx299183_533071","name":"مسجد محمدی","lat":29.918261,"lng":53.307146,"addr":"","type":"place_of_worship"},{"id":"xx295820_525699","name":"نمازخانه","lat":29.582026,"lng":52.569862,"addr":"","type":"place_of_worship"},{"id":"xx295747_525772","name":"حسینیه سیدالشهدا","lat":29.574744,"lng":52.577212,"addr":"","type":"place_of_worship"},{"id":"xx295796_525763","name":"مسجد الزهرا","lat":29.579572,"lng":52.576252,"addr":"","type":"place_of_worship"},{"id":"xx295862_525683","name":"حسینه علی ابن حسین","lat":29.586178,"lng":52.568281,"addr":"","type":"place_of_worship"},{"id":"xx295564_525880","name":"مسجد صاحب الزمان عج","lat":29.556373,"lng":52.588003,"addr":"","type":"place_of_worship"},{"id":"xx299637_522360","name":"چهل دخترون","lat":29.963748,"lng":52.236048,"addr":"خلار","type":"place_of_worship"},{"id":"xx291809_526691","name":"امامزاده ابوالخیر","lat":29.180899,"lng":52.669146,"addr":"","type":"place_of_worship"},{"id":"xx288892_525501","name":"مسجد بین راهی","lat":28.889153,"lng":52.550125,"addr":"","type":"place_of_worship"},{"id":"xx287828_524764","name":"مسجد ابوالفضل العباس","lat":28.782805,"lng":52.476371,"addr":"","type":"place_of_worship"},{"id":"xx287801_524744","name":"حسینیه","lat":28.780057,"lng":52.474356,"addr":"","type":"place_of_worship"},{"id":"xx288054_524861","name":"امامزاده امراله (آقام سادات)","lat":28.805446,"lng":52.486083,"addr":"ده بین","type":"place_of_worship"},{"id":"xx291927_526961","name":"مسجد ولی عصر (عج)","lat":29.192724,"lng":52.696095,"addr":"","type":"place_of_worship"},{"id":"xx292076_526890","name":"مسجد جامع امام علی ( ع )","lat":29.207642,"lng":52.688965,"addr":"امام خمینی","type":"place_of_worship"},{"id":"xx288132_524705","name":"امامزاده","lat":28.81324,"lng":52.47045,"addr":"","type":"place_of_worship"},{"id":"xx291943_526979","name":"مسجد ابوالفضل (ع)","lat":29.194331,"lng":52.697881,"addr":"حضرت ابوالفضل (ع)","type":"place_of_worship"},{"id":"xx289777_525740","name":"مسجد بین راهی","lat":28.977651,"lng":52.574015,"addr":"۶۵","type":"place_of_worship"},{"id":"xx290217_525742","name":"مهدیه","lat":29.021653,"lng":52.574215,"addr":"۶۵","type":"place_of_worship"},{"id":"xx288476_525567","name":"امامزاده سید محمد","lat":28.847551,"lng":52.556703,"addr":"میدان گلزار شهدا","type":"place_of_worship"},{"id":"xx288463_525527","name":"مسجد امام رضا ( ع)","lat":28.846329,"lng":52.552689,"addr":"فیروزآباد","type":"place_of_worship"},{"id":"xx288454_525638","name":"مسجد الرضا","lat":28.845383,"lng":52.563824,"addr":"میدان روزبه","type":"place_of_worship"},{"id":"xx288451_525672","name":"مسجد حضرت موسی بن جعفر","lat":28.845089,"lng":52.567192,"addr":"","type":"place_of_worship"},{"id":"xx280785_517656","name":"Islamic place","lat":28.078522,"lng":51.76562,"addr":"","type":"place_of_worship"},{"id":"xx289736_525659","name":"امامزاده سید بادین","lat":28.973617,"lng":52.565853,"addr":"","type":"place_of_worship"},{"id":"xx288971_513015","name":"امامزاده جعفر","lat":28.897147,"lng":51.301544,"addr":"","type":"place_of_worship"},{"id":"xx290634_525637","name":"امامزاده محمود صدق","lat":29.063351,"lng":52.563698,"addr":"","type":"place_of_worship"},{"id":"xx290801_525533","name":"امامزاده حمزه علی باوریان","lat":29.080133,"lng":52.553291,"addr":"","type":"place_of_worship"},{"id":"xx288382_509003","name":"مسجد امام خمینی","lat":28.83817,"lng":50.900288,"addr":"","type":"place_of_worship"},{"id":"xx278336_520567","name":"مسجد جامع خلفای راشدین","lat":27.833618,"lng":52.056727,"addr":"","type":"place_of_worship"},{"id":"xx278375_520600","name":"جایگاه نماز جمعه","lat":27.837488,"lng":52.060008,"addr":"","type":"place_of_worship"},{"id":"xx292113_526954","name":"مسجدالرضا","lat":29.211317,"lng":52.69542,"addr":"۳۰ متری شهدای ارتش","type":"place_of_worship"},{"id":"xx277655_540057","name":"مسجد بیمارستان","lat":27.765543,"lng":54.00574,"addr":"","type":"place_of_worship"},{"id":"xx276695_541620","name":"Islamic place","lat":27.669459,"lng":54.162017,"addr":"","type":"place_of_worship"},{"id":"xx278771_538406","name":"Islamic place","lat":27.877082,"lng":53.840585,"addr":"","type":"place_of_worship"},{"id":"xx277613_539938","name":"Islamic place","lat":27.761344,"lng":53.993798,"addr":"","type":"place_of_worship"},{"id":"xx299415_527974","name":"مسجد شهداء","lat":29.941514,"lng":52.797439,"addr":"","type":"place_of_worship"},{"id":"xx299412_527978","name":"مجتمع فرهنگی مذهبی حضرت زینب(س)","lat":29.941208,"lng":52.797809,"addr":"","type":"theatre"},{"id":"xx271931_530591","name":"Islamic place","lat":27.193134,"lng":53.059052,"addr":"","type":"place_of_worship"},{"id":"xx269727_534700","name":"مسجد","lat":26.972735,"lng":53.46998,"addr":"","type":"place_of_worship"},{"id":"xx290671_526198","name":"امامزاده سید محمد هاشم","lat":29.067051,"lng":52.619755,"addr":"۶۵","type":"place_of_worship"},{"id":"xx287405_545136","name":"مسجد الغدیر","lat":28.740483,"lng":54.513605,"addr":"","type":"place_of_worship"},{"id":"xx291049_528167","name":"حسینیه ثارالله","lat":29.104855,"lng":52.816717,"addr":"","type":"place_of_worship"},{"id":"xx292674_532204","name":"Islamic place","lat":29.267424,"lng":53.220388,"addr":"","type":"place_of_worship"},{"id":"xx292721_532247","name":"Islamic place","lat":29.272107,"lng":53.224722,"addr":"","type":"place_of_worship"},{"id":"xx284488_531530","name":"مسجد امام خمینی","lat":28.448836,"lng":53.152981,"addr":"","type":"place_of_worship"},{"id":"xx290343_542549","name":"امامزاده سید محمد","lat":29.034296,"lng":54.254873,"addr":"","type":"place_of_worship"},{"id":"xx289630_532181","name":"مصلی نماز جمعه","lat":28.96296,"lng":53.218116,"addr":"","type":"place_of_worship"},{"id":"xx276904_543863","name":"مسجد جامع امیرالمومنین علی (عل","lat":27.690383,"lng":54.386302,"addr":"بلوار شهدا","type":"place_of_worship"},{"id":"xx283075_543427","name":"مسجد ولیعصر","lat":28.307545,"lng":54.342721,"addr":"","type":"place_of_worship"},{"id":"xx295664_513400","name":"Islamic place","lat":29.566412,"lng":51.339974,"addr":"","type":"place_of_worship"},{"id":"xx295582_513358","name":"مصلی خشت","lat":29.558195,"lng":51.335752,"addr":"","type":"place_of_worship"},{"id":"xx283575_544440","name":"Islamic place","lat":28.357507,"lng":54.444039,"addr":"","type":"place_of_worship"},{"id":"xx272518_528678","name":"مسجد","lat":27.251772,"lng":52.867798,"addr":"","type":"place_of_worship"},{"id":"xx270194_542815","name":"Islamic place","lat":27.019429,"lng":54.281502,"addr":"","type":"place_of_worship"},{"id":"xx272058_543776","name":"مسجد","lat":27.205768,"lng":54.377648,"addr":"","type":"place_of_worship"},{"id":"xx271990_543614","name":"مسجد جامع بستک","lat":27.198977,"lng":54.361356,"addr":"","type":"place_of_worship"},{"id":"xx271992_543673","name":"مسجد بندکی","lat":27.199179,"lng":54.367324,"addr":"","type":"place_of_worship"},{"id":"xx265769_548985","name":"مسجد هاشمی","lat":26.576898,"lng":54.89855,"addr":"","type":"place_of_worship"},{"id":"xx298965_528189","name":"مسجد بقیه الله(عج)","lat":29.896466,"lng":52.818947,"addr":"","type":"place_of_worship"},{"id":"xx298921_528106","name":"مسجد شهدا","lat":29.892099,"lng":52.81063,"addr":"","type":"place_of_worship"},{"id":"xx298785_528068","name":"مسجد صاحب الزمان(عج)","lat":29.878476,"lng":52.806751,"addr":"","type":"place_of_worship"},{"id":"xx298818_527951","name":"مسجد امام حسن عسکری(ع)","lat":29.881845,"lng":52.795051,"addr":"","type":"place_of_worship"},{"id":"xx293285_512191","name":"مسجد صاحب الزمان","lat":29.328548,"lng":51.219102,"addr":"بارگاهی","type":"place_of_worship"},{"id":"xx265598_539910","name":"مسجد حضرت زینب","lat":26.559759,"lng":53.991048,"addr":"گلدیس","type":"place_of_worship"},{"id":"xx278323_520609","name":"مسجد جامع کنگان","lat":27.832323,"lng":52.060919,"addr":"خیابان وحدت","type":"place_of_worship"},{"id":"xx278337_520610","name":"مسجد امیرالمؤمنین","lat":27.833677,"lng":52.061029,"addr":"","type":"place_of_worship"},{"id":"xx296536_524807","name":"مسجد مریم السلطان و حاج مهدی شهسواری","lat":29.65358,"lng":52.480721,"addr":"","type":"place_of_worship"},{"id":"xx296319_524886","name":"مسجد","lat":29.631913,"lng":52.488616,"addr":"","type":"place_of_worship"},{"id":"xx292618_512302","name":"مسجد فاطمه الزهراء س","lat":29.261781,"lng":51.230217,"addr":"","type":"place_of_worship"},{"id":"xx272066_530329","name":"Islamic place","lat":27.206619,"lng":53.032882,"addr":"","type":"place_of_worship"},{"id":"xx272071_530313","name":"Islamic place","lat":27.207137,"lng":53.031338,"addr":"","type":"place_of_worship"},{"id":"xx272032_530535","name":"Islamic place","lat":27.20317,"lng":53.05348,"addr":"","type":"place_of_worship"},{"id":"xx272047_530558","name":"Islamic place","lat":27.204715,"lng":53.055756,"addr":"","type":"place_of_worship"},{"id":"xx289699_508307","name":"مسجد قران","lat":28.969894,"lng":50.830737,"addr":"","type":"place_of_worship"},{"id":"xx289180_508215","name":"مسجد الزهرا دواس","lat":28.918011,"lng":50.821471,"addr":"","type":"place_of_worship"},{"id":"xx276629_541334","name":"مصلی قدیم","lat":27.66291,"lng":54.133365,"addr":"","type":"place_of_worship"},{"id":"xx276741_541399","name":"مسجد امام حسن عسکری (ع)","lat":27.674056,"lng":54.139897,"addr":"","type":"mosque"},{"id":"xx276606_541428","name":"حسینیه ابوالفضل","lat":27.660585,"lng":54.142764,"addr":"","type":"place_of_worship"},{"id":"xx276616_541497","name":"بیت الرقیه","lat":27.661627,"lng":54.149743,"addr":"","type":"place_of_worship"},{"id":"xx276623_541500","name":"حسینیه حاج شاجان","lat":27.662301,"lng":54.150018,"addr":"","type":"place_of_worship"},{"id":"xx276677_541314","name":"مسجد مهدیه","lat":27.667745,"lng":54.131385,"addr":"","type":"mosque"},{"id":"xx276644_541299","name":"مسجد امام موسی کاظم علیه سلام","lat":27.664409,"lng":54.129875,"addr":"","type":"mosque"},{"id":"xx276640_541308","name":"مسجد ابوفاضل","lat":27.664045,"lng":54.130758,"addr":"","type":"mosque"},{"id":"xx276588_541336","name":"مسجد النبی","lat":27.658803,"lng":54.133607,"addr":"","type":"mosque"},{"id":"xx276609_541396","name":"مسجد حضرت زینب","lat":27.660933,"lng":54.139553,"addr":"","type":"place_of_worship"},{"id":"xx276616_541397","name":"مسجد صاحب الزمان","lat":27.661649,"lng":54.13975,"addr":"","type":"place_of_worship"},{"id":"xx276630_541381","name":"مسجد کربلایی حسن","lat":27.662963,"lng":54.138102,"addr":"","type":"place_of_worship"},{"id":"xx276655_541365","name":"حسینیه حاج علیرضا خان","lat":27.665539,"lng":54.136513,"addr":"","type":"place_of_worship"},{"id":"xx276649_541368","name":"مسجد جامع گراش","lat":27.664901,"lng":54.136763,"addr":"","type":"place_of_worship"},{"id":"xx276674_541370","name":"مسجد سیف الدین","lat":27.667379,"lng":54.137025,"addr":"","type":"place_of_worship"},{"id":"xx276668_541375","name":"مسجد پیر مکرم","lat":27.666808,"lng":54.137511,"addr":"","type":"place_of_worship"},{"id":"xx276697_543951","name":"Islamic place","lat":27.669728,"lng":54.395057,"addr":"","type":"place_of_worship"},{"id":"xx276693_543811","name":"Islamic place","lat":27.669343,"lng":54.381085,"addr":"","type":"place_of_worship"},{"id":"xx289184_508161","name":"امامزاده قاسم","lat":28.918447,"lng":50.816135,"addr":"","type":"place_of_worship"},{"id":"xx285814_517147","name":"Hosseiniyeh of Soho","lat":28.58139,"lng":51.714707,"addr":"","type":"place_of_worship"},{"id":"xx285808_517147","name":"مسجد امام سجاد سهو","lat":28.580781,"lng":51.714739,"addr":"","type":"place_of_worship"},{"id":"xx267440_539622","name":"Islamic place","lat":26.743962,"lng":53.962242,"addr":"","type":"place_of_worship"},{"id":"xx267417_539615","name":"Islamic place","lat":26.741728,"lng":53.961545,"addr":"","type":"place_of_worship"},{"id":"xx293980_511446","name":"امامزاده آقا میر هداف","lat":29.39804,"lng":51.144633,"addr":"","type":"place_of_worship"},{"id":"xx289910_508287","name":"مسجد سید الشهدا","lat":28.991011,"lng":50.828682,"addr":"","type":"place_of_worship"},{"id":"xx289743_508397","name":"مسجد امام حسن عسگری","lat":28.974323,"lng":50.839736,"addr":"","type":"place_of_worship"},{"id":"xx289795_508332","name":"مصلی نماز جمعه","lat":28.979544,"lng":50.833173,"addr":"","type":"place_of_worship"},{"id":"xx289861_508337","name":"Islamic place","lat":28.986092,"lng":50.833697,"addr":"","type":"place_of_worship"},{"id":"xx289075_508263","name":"مسجد امام حسین","lat":28.907533,"lng":50.826307,"addr":"","type":"place_of_worship"},{"id":"xx292731_512341","name":"مسجد امام خمینی","lat":29.273068,"lng":51.234111,"addr":"","type":"place_of_worship"},{"id":"xx277856_523732","name":"مسجد امام علی","lat":27.785613,"lng":52.373197,"addr":"","type":"place_of_worship"},{"id":"xx278350_523025","name":"مسجد دمساز","lat":27.83501,"lng":52.30249,"addr":"","type":"place_of_worship"},{"id":"xx270758_531654","name":"Mosque","lat":27.075829,"lng":53.165353,"addr":"","type":"place_of_worship"},{"id":"xx269669_534845","name":"Islamic place","lat":26.966907,"lng":53.484497,"addr":"","type":"place_of_worship"},{"id":"xx268777_537190","name":"Islamic place","lat":26.877744,"lng":53.718975,"addr":"","type":"mosque"},{"id":"xx270754_531657","name":"Mosque","lat":27.075352,"lng":53.165664,"addr":"","type":"place_of_worship"},{"id":"xx292056_543358","name":"مسجد","lat":29.205644,"lng":54.335788,"addr":"","type":"place_of_worship"},{"id":"xx292038_543300","name":"مسجد","lat":29.203762,"lng":54.329954,"addr":"","type":"place_of_worship"},{"id":"xx292040_543277","name":"مسجد","lat":29.204003,"lng":54.327658,"addr":"","type":"place_of_worship"},{"id":"xx292041_543273","name":"مسجد امام حسین( ع)","lat":29.204101,"lng":54.327307,"addr":"","type":"place_of_worship"},{"id":"xx295979_525745","name":"مسجد الرضا","lat":29.597909,"lng":52.574452,"addr":"","type":"place_of_worship"},{"id":"xx298791_528129","name":"مسجد امام سجاد","lat":29.879067,"lng":52.812942,"addr":"","type":"place_of_worship"},{"id":"xx298582_527939","name":"شیرخوارگاه حضرت علی اصغر","lat":29.858192,"lng":52.793909,"addr":"","type":"mosque"},{"id":"xx289879_510343","name":"مسجد ولیعصر","lat":28.987911,"lng":51.034347,"addr":"","type":"place_of_worship"},{"id":"xx295938_525205","name":"Islamic place","lat":29.5938,"lng":52.520524,"addr":"","type":"place_of_worship"},{"id":"xx292692_512043","name":"مسجد فردوس","lat":29.269157,"lng":51.204261,"addr":"","type":"place_of_worship"},{"id":"xx299867_529601","name":"مسجد هشتیجان","lat":29.986672,"lng":52.960134,"addr":"","type":"place_of_worship"},{"id":"xx295877_505204","name":"حسینیه امام خمینی","lat":29.587724,"lng":50.52042,"addr":"","type":"place_of_worship"},{"id":"xx292559_512414","name":"مسجد امام هادی","lat":29.255942,"lng":51.241425,"addr":"","type":"place_of_worship"},{"id":"xx284759_530600","name":"مسجد امام حسن مجتبی","lat":28.475884,"lng":53.059995,"addr":"","type":"place_of_worship"},{"id":"xx278961_534346","name":"بقعه شیخ شعیب خلج","lat":27.896086,"lng":53.434576,"addr":"","type":"shrine"},{"id":"xx278409_523060","name":"مسجد امیرالمومنین(ع)","lat":27.840896,"lng":52.306018,"addr":"","type":"place_of_worship"},{"id":"xx296264_525009","name":"مسجد علویه","lat":29.626397,"lng":52.500947,"addr":"عفیف آباد ۲۰/۳","type":"place_of_worship"},{"id":"xx265972_549275","name":"حسینیه امام سجاد(ع","lat":26.597199,"lng":54.92752,"addr":"","type":"place_of_worship"},{"id":"xx292534_503120","name":"امامزاده میرمحمد","lat":29.253448,"lng":50.311962,"addr":"جزیره خارک","type":"mosque"},{"id":"xx265716_539505","name":"مسجد نور","lat":26.571629,"lng":53.950496,"addr":"سعیدآبادی","type":"place_of_worship"},{"id":"xx265488_548805","name":"حسینیه امام حسن","lat":26.548807,"lng":54.88047,"addr":"","type":"place_of_worship"},{"id":"xx265714_548957","name":"حسینیه منتظران مهدی","lat":26.571378,"lng":54.89575,"addr":"","type":"place_of_worship"},{"id":"xx273471_531818","name":"مسجد","lat":27.347063,"lng":53.18182,"addr":"خ توحید حسین آباد","type":"place_of_worship"},{"id":"xx273445_531709","name":"باقر العلوم","lat":27.344538,"lng":53.170856,"addr":"","type":"place_of_worship"},{"id":"xx273491_531580","name":"حضرت علی ابن ابی طالب","lat":27.349077,"lng":53.157973,"addr":"خ امامت زیارت","type":"place_of_worship"},{"id":"xx265486_548786","name":"حسینیه حداد","lat":26.54858,"lng":54.878638,"addr":"","type":"place_of_worship"},{"id":"xx295880_524962","name":"مسجد نبی اکرم","lat":29.587952,"lng":52.496198,"addr":"","type":"place_of_worship"},{"id":"xx265622_548861","name":"مسجد امام صادق","lat":26.562224,"lng":54.886145,"addr":"","type":"place_of_worship"},{"id":"xx289442_510674","name":"مسجد امام حسن مجتبی (ع)","lat":28.944188,"lng":51.067386,"addr":"","type":"place_of_worship"},{"id":"xx289154_510592","name":"امامزاده","lat":28.91538,"lng":51.059217,"addr":"","type":"place_of_worship"},{"id":"xx289266_510624","name":"مصلی نماز جمعه (مسجد النبی)","lat":28.926621,"lng":51.062396,"addr":"شهدای گمنام","type":"place_of_worship"},{"id":"xx288884_512872","name":"مصلی نماز جمعه","lat":28.88835,"lng":51.287246,"addr":"","type":"place_of_worship"},{"id":"xx296161_524329","name":"نمازخانه","lat":29.616111,"lng":52.43291,"addr":"","type":"place_of_worship"},{"id":"xx276248_529957","name":"مجتمع مذهبی فاطمیه","lat":27.624771,"lng":52.995745,"addr":"","type":"place_of_worship"},{"id":"xx276260_530018","name":"مجتمع مذهبی امام حسن مجتبی","lat":27.626029,"lng":53.00185,"addr":"","type":"place_of_worship"},{"id":"xx274300_535126","name":"Islamic place","lat":27.430012,"lng":53.512643,"addr":"","type":"place_of_worship"},{"id":"xx274322_535166","name":"Islamic place","lat":27.432237,"lng":53.516588,"addr":"","type":"place_of_worship"},{"id":"xx274336_535128","name":"مسجد بزرگ محمد رسولالله (مصلای بزرگ نماز جمعه)بیرم","lat":27.433568,"lng":53.512764,"addr":"","type":"place_of_worship"},{"id":"xx277260_536275","name":"مسجد صاحب الزمان","lat":27.726046,"lng":53.627532,"addr":"","type":"place_of_worship"},{"id":"xx277285_536295","name":"مسجد جامع","lat":27.728458,"lng":53.629477,"addr":"","type":"place_of_worship"},{"id":"xx279186_537977","name":"Islamic place","lat":27.918648,"lng":53.797664,"addr":"","type":"place_of_worship"},{"id":"xx289780_508450","name":"مسجد امام رضا (ع) کوی صلح آباد","lat":28.977961,"lng":50.845046,"addr":"","type":"place_of_worship"},{"id":"xx292835_529262","name":"مسجد بین راهی","lat":29.283498,"lng":52.926227,"addr":"","type":"place_of_worship"},{"id":"xx289626_508311","name":"مسجد حضرت عباس","lat":28.962649,"lng":50.831089,"addr":"","type":"place_of_worship"},{"id":"xx295862_505210","name":"حسینیه بیت العباس","lat":29.586223,"lng":50.520993,"addr":"","type":"yes"},{"id":"xx296055_504959","name":"Islamic place","lat":29.605507,"lng":50.49592,"addr":"","type":"mosque"},{"id":"xx294540_512915","name":"مسجد","lat":29.453968,"lng":51.291472,"addr":"","type":"place_of_worship"},{"id":"xx296883_506722","name":"امام زاده صدرالدین","lat":29.688334,"lng":50.672171,"addr":"","type":"place_of_worship"},{"id":"xx295635_505209","name":"مسجد غدیر","lat":29.56353,"lng":50.520917,"addr":"","type":"place_of_worship"},{"id":"xx298749_528121","name":"مسجد امام محمد باقر","lat":29.874906,"lng":52.812145,"addr":"خیابان شهید مدرس","type":"place_of_worship"},{"id":"xx275290_540748","name":"مسجد جامع ده میان","lat":27.52897,"lng":54.074764,"addr":"","type":"mosque"},{"id":"xx296247_525349","name":"مهدیه شیراز","lat":29.624741,"lng":52.534932,"addr":"","type":"place_of_worship"},{"id":"xx271287_530016","name":"Islamic place","lat":27.128734,"lng":53.001575,"addr":"","type":"place_of_worship"},{"id":"xx278467_520602","name":"حسینیه آذربایجانی های مقیم کنگان","lat":27.846716,"lng":52.060151,"addr":"خیابان برق","type":"place_of_worship"},{"id":"xx278412_520671","name":"مسجد حاج قاسم","lat":27.841237,"lng":52.067068,"addr":"","type":"place_of_worship"},{"id":"xx278372_520654","name":"مسجد شهدای حسین آباد","lat":27.837187,"lng":52.065428,"addr":"","type":"place_of_worship"},{"id":"xx278286_520673","name":"مسجد امام جواد","lat":27.828616,"lng":52.067281,"addr":"","type":"place_of_worship"},{"id":"xx278250_520685","name":"مسجد شهید دستغیب","lat":27.824999,"lng":52.068494,"addr":"خیابان آزادگان","type":"place_of_worship"},{"id":"xx278245_520726","name":"مسجد امام شافعی","lat":27.824521,"lng":52.07258,"addr":"","type":"place_of_worship"},{"id":"xx278228_520682","name":"مسجد اهل بیت علیهم السلام","lat":27.822752,"lng":52.068199,"addr":"بلوار شهدای خلیج فارس","type":"place_of_worship"},{"id":"xx278479_520508","name":"مسجد سلمان فارسی","lat":27.847938,"lng":52.050835,"addr":"","type":"place_of_worship"},{"id":"xx278339_520584","name":"مسجد امام صادق","lat":27.833913,"lng":52.058384,"addr":"","type":"place_of_worship"},{"id":"xx278298_520715","name":"مسجد الزهراء","lat":27.829801,"lng":52.071501,"addr":"","type":"place_of_worship"},{"id":"xx278248_520747","name":"مسجد امام خمینی(ره)","lat":27.824793,"lng":52.074743,"addr":"","type":"place_of_worship"},{"id":"xx299090_528634","name":"مسجد امام حسین ع","lat":29.90899,"lng":52.863388,"addr":"خیابان امام خمینی","type":"place_of_worship"},{"id":"xx273681_531944","name":"Islamic place","lat":27.36805,"lng":53.194428,"addr":"","type":"place_of_worship"},{"id":"xx297694_527207","name":"فاطمیه","lat":29.769413,"lng":52.720698,"addr":"","type":"place_of_worship"},{"id":"xx299067_528642","name":"امامزاده بی بی دختران","lat":29.90672,"lng":52.864159,"addr":"خیابان امام خمینی","type":"place_of_worship"},{"id":"xx293056_512197","name":"مسجد حضرت ابوالفضل","lat":29.305645,"lng":51.219713,"addr":"","type":"place_of_worship"},{"id":"xx296218_524704","name":"مسجد امام حسن مجتبی علیه السلام","lat":29.621783,"lng":52.470394,"addr":"","type":"place_of_worship"},{"id":"xx289545_508438","name":"مسجد امام علی النقی الهادی","lat":28.954526,"lng":50.843764,"addr":"","type":"place_of_worship"},{"id":"xx298006_525144","name":"آموزشگاه متوسطه اول  احسان","lat":29.800592,"lng":52.514412,"addr":"فارابی","type":"school"},{"id":"xx294899_526349","name":"نمازخانه","lat":29.489865,"lng":52.634877,"addr":"","type":"place_of_worship"},{"id":"xx294930_526352","name":"نمازخانه","lat":29.493003,"lng":52.635205,"addr":"","type":"place_of_worship"},{"id":"xx295905_526097","name":"مسجد محمد رسول الله","lat":29.590539,"lng":52.609736,"addr":"","type":"place_of_worship"},{"id":"xx296176_524515","name":"حسینیه شهدا سیمان","lat":29.617646,"lng":52.451484,"addr":"","type":"place_of_worship"},{"id":"xx295690_525214","name":"مسجد امام حسین","lat":29.568982,"lng":52.521369,"addr":"","type":"place_of_worship"},{"id":"xx285074_535403","name":"مسجد جوادالائمه","lat":28.507378,"lng":53.540264,"addr":"","type":"mosque"},{"id":"xx287562_545530","name":"Islamic place","lat":28.756241,"lng":54.553046,"addr":"","type":"place_of_worship"},{"id":"xx286380_536395","name":"مسجد جامع الزهرا","lat":28.637992,"lng":53.639534,"addr":"","type":"mosque"},{"id":"xx265227_540367","name":"مسجد امام حسین","lat":26.522743,"lng":54.036724,"addr":"","type":"place_of_worship"},{"id":"xx276302_524521","name":"مسجد سید الشهدا","lat":27.630159,"lng":52.452056,"addr":"","type":"place_of_worship"},{"id":"xx284588_511224","name":"امامزاده موسی بن جعفر","lat":28.458767,"lng":51.122431,"addr":"","type":"place_of_worship"},{"id":"xx286941_510816","name":"Islamic place","lat":28.694075,"lng":51.081644,"addr":"","type":"place_of_worship"},{"id":"xx282475_512726","name":"Islamic place","lat":28.24751,"lng":51.272629,"addr":"","type":"place_of_worship"},{"id":"xx298361_524462","name":"مسجد خاتم الانبیا","lat":29.836083,"lng":52.446221,"addr":"","type":"place_of_worship"},{"id":"xx296873_524615","name":"Islamic place","lat":29.687307,"lng":52.461485,"addr":"","type":"place_of_worship"},{"id":"xx289430_533174","name":"امامزاده محمد","lat":28.94303,"lng":53.317384,"addr":"","type":"place_of_worship"},{"id":"xx289031_533116","name":"مسجد بین راهی","lat":28.903138,"lng":53.311636,"addr":"","type":"place_of_worship"},{"id":"xx277805_544226","name":"Islamic place","lat":27.78055,"lng":54.422614,"addr":"","type":"place_of_worship"},{"id":"xx271029_544461","name":"Islamic place","lat":27.102875,"lng":54.446095,"addr":"","type":"place_of_worship"},{"id":"xx270846_545011","name":"مسجد جامع","lat":27.084601,"lng":54.501097,"addr":"","type":"place_of_worship"},{"id":"xx270898_544884","name":"Islamic place","lat":27.089805,"lng":54.48843,"addr":"","type":"place_of_worship"},{"id":"xx270858_544876","name":"Islamic place","lat":27.085818,"lng":54.487599,"addr":"","type":"place_of_worship"},{"id":"xx270938_544804","name":"مسجد بلال","lat":27.093784,"lng":54.480417,"addr":"","type":"place_of_worship"},{"id":"xx267483_545393","name":"Islamic place","lat":26.748255,"lng":54.539276,"addr":"","type":"place_of_worship"},{"id":"xx267132_548967","name":"Islamic place","lat":26.713202,"lng":54.896672,"addr":"","type":"place_of_worship"},{"id":"xx265900_549267","name":"مسجد موج گوری","lat":26.589982,"lng":54.926686,"addr":"","type":"place_of_worship"},{"id":"xx270664_540122","name":"مسجد جامع","lat":27.066391,"lng":54.012245,"addr":"","type":"place_of_worship"},{"id":"xx269407_545906","name":"مسجد کافه دین","lat":26.940669,"lng":54.590557,"addr":"","type":"place_of_worship"},{"id":"xx278524_544221","name":"Islamic place","lat":27.852418,"lng":54.422143,"addr":"","type":"place_of_worship"},{"id":"xx272234_536089","name":"مسجد جامع","lat":27.223375,"lng":53.608853,"addr":"","type":"place_of_worship"},{"id":"xx271791_537222","name":"Islamic place","lat":27.179077,"lng":53.722174,"addr":"","type":"place_of_worship"},{"id":"xx299190_538883","name":"امامزاده شاهزاده خاقان","lat":29.918964,"lng":53.888254,"addr":"","type":"shrine"},{"id":"xx298251_524656","name":"مسجد امام سجاد","lat":29.825149,"lng":52.465586,"addr":"","type":"place_of_worship"},{"id":"xx298166_524798","name":"Islamic place","lat":29.816593,"lng":52.479761,"addr":"","type":"place_of_worship"},{"id":"xx297867_525217","name":"Islamic place","lat":29.786702,"lng":52.521683,"addr":"","type":"place_of_worship"},{"id":"xx294994_533202","name":"آستان مقدس امامزاده اسحاق","lat":29.499426,"lng":53.320195,"addr":"","type":"place_of_worship"},{"id":"xx297171_538608","name":"Islamic place","lat":29.717065,"lng":53.860809,"addr":"","type":"place_of_worship"},{"id":"xx297212_538614","name":"Islamic place","lat":29.721241,"lng":53.861396,"addr":"","type":"place_of_worship"},{"id":"xx283596_533302","name":"مسجد امام خمینی مبارک آباد","lat":28.359581,"lng":53.330232,"addr":"","type":"place_of_worship"},{"id":"xx296113_525747","name":"مسجد حضرت ابوالفضل","lat":29.611251,"lng":52.574709,"addr":"","type":"place_of_worship"},{"id":"xx295949_525782","name":"مسجد امام حسن","lat":29.594878,"lng":52.578245,"addr":"","type":"place_of_worship"},{"id":"xx297286_525989","name":"نمازخانه","lat":29.728602,"lng":52.598858,"addr":"","type":"place_of_worship"},{"id":"xx296822_525469","name":"مسجد امام حسن","lat":29.682189,"lng":52.546939,"addr":"","type":"place_of_worship"},{"id":"xx296605_525628","name":"مسجد امام محمد باقر","lat":29.660539,"lng":52.562776,"addr":"","type":"place_of_worship"},{"id":"xx296234_525627","name":"مسجد امام جعفر صادق","lat":29.623417,"lng":52.562748,"addr":"","type":"place_of_worship"},{"id":"xx296308_524783","name":"مسجد بیت الزهرا","lat":29.630834,"lng":52.47829,"addr":"","type":"place_of_worship"},{"id":"xx295540_526040","name":"امامزاده سید محمد","lat":29.553967,"lng":52.603977,"addr":"","type":"place_of_worship"},{"id":"xx278425_523225","name":"حسینیه امیرالمومنین علی آباد","lat":27.842493,"lng":52.322456,"addr":"","type":"place_of_worship"},{"id":"xx278456_523235","name":"امام سجاد","lat":27.845603,"lng":52.32349,"addr":"","type":"place_of_worship"},{"id":"xx278555_523291","name":"مرکز علمی کاربردی","lat":27.855547,"lng":52.329077,"addr":"","type":"school"},{"id":"xx278424_523230","name":"مسجد صاحب الزمان","lat":27.842375,"lng":52.323013,"addr":"","type":"place_of_worship"},{"id":"xx278312_523181","name":"مسجد الزهرا","lat":27.831229,"lng":52.318085,"addr":"","type":"place_of_worship"},{"id":"xx278313_523183","name":"هنرستان کاردانش رازی","lat":27.831276,"lng":52.318321,"addr":"","type":"school"},{"id":"xx278316_523193","name":"دبیرستان علامه دهخدا","lat":27.831561,"lng":52.319329,"addr":"","type":"school"},{"id":"xx278314_523193","name":"دبیرستان فاضل جمی","lat":27.831409,"lng":52.31934,"addr":"","type":"school"},{"id":"xx278308_523213","name":"مسجد ابوالفضل","lat":27.830792,"lng":52.321271,"addr":"","type":"place_of_worship"},{"id":"xx278558_523063","name":"حسینیه سیدالشهدا","lat":27.855802,"lng":52.306294,"addr":"","type":"monastery"},{"id":"xx278598_522912","name":"حسینیه ابوالفضل قايدی","lat":27.859791,"lng":52.291236,"addr":"","type":"monastery"},{"id":"xx278521_522923","name":"حسینیه قمر بنی هاشم هنگدان","lat":27.852138,"lng":52.292291,"addr":"","type":"place_of_worship"},{"id":"xx278580_522902","name":"مسجد صاحب الزمان","lat":27.857965,"lng":52.290222,"addr":"","type":"place_of_worship"},{"id":"xx278555_522904","name":"حسینیه الزهرا","lat":27.85547,"lng":52.290351,"addr":"","type":"monastery"},{"id":"xx278521_522851","name":"دبستان هفده شهریور","lat":27.852084,"lng":52.285136,"addr":"","type":"school"},{"id":"xx278498_522872","name":"آموزشگاه دخترانه صاحب الزمان","lat":27.849785,"lng":52.287194,"addr":"","type":"school"},{"id":"xx278497_522872","name":"آموزشگاهدخترانه حدیث","lat":27.849723,"lng":52.287178,"addr":"","type":"school"},{"id":"xx278193_523632","name":"مسجد ابوالفضل","lat":27.819312,"lng":52.363159,"addr":"","type":"place_of_worship"},{"id":"xx278217_523588","name":"دبستان پسرانه انقلاب","lat":27.821685,"lng":52.358792,"addr":"","type":"school"},{"id":"xx278214_523713","name":"مسجد ابوالفضل","lat":27.821352,"lng":52.37127,"addr":"","type":"place_of_worship"},{"id":"xx278257_523545","name":"دبستان دخترانه آسیه","lat":27.825717,"lng":52.354522,"addr":"","type":"school"},{"id":"xx278255_523546","name":"دبستان دخترانه کامران","lat":27.825509,"lng":52.35464,"addr":"","type":"school"},{"id":"xx278291_523535","name":"حسینیه علی اصضر بهارستان","lat":27.829057,"lng":52.353546,"addr":"","type":"place_of_worship"},{"id":"xx278347_523531","name":"مسجد حسین ابن علی","lat":27.834693,"lng":52.353084,"addr":"","type":"place_of_worship"},{"id":"xx278352_523533","name":"حسینیه ثارالله","lat":27.835186,"lng":52.35332,"addr":"","type":"place_of_worship"},{"id":"xx278355_523539","name":"Islamic place","lat":27.835547,"lng":52.35391,"addr":"","type":"grave_yard"},{"id":"xx278391_523513","name":"دبستان پسرانه استاد شهریار","lat":27.839095,"lng":52.351335,"addr":"","type":"school"},{"id":"xx278442_523249","name":"دبستان ایثار","lat":27.844188,"lng":52.324941,"addr":"","type":"school"},{"id":"xx278443_523250","name":"دبستان دخترانه معراج","lat":27.84433,"lng":52.325038,"addr":"","type":"school"},{"id":"xx278428_523285","name":"مدرسه شهید فتحی","lat":27.842772,"lng":52.328514,"addr":"","type":"school"},{"id":"xx278448_523357","name":"مسجد زمان پور","lat":27.84484,"lng":52.335734,"addr":"","type":"place_of_worship"},{"id":"xx278385_523261","name":"مسجد صداقت","lat":27.838534,"lng":52.326132,"addr":"","type":"place_of_worship"},{"id":"xx278385_523298","name":"مسجد صاحب الزمان بهر حاج نوشاد","lat":27.838477,"lng":52.329823,"addr":"","type":"place_of_worship"},{"id":"xx278383_523299","name":"حسینیه سید الشهدا بهر حاج نوشاد","lat":27.838325,"lng":52.329941,"addr":"","type":"monastery"},{"id":"xx278387_523356","name":"مسجد استوار","lat":27.838676,"lng":52.335616,"addr":"","type":"place_of_worship"},{"id":"xx278407_523374","name":"دبیرستان دخترانه پروین اعتصامی","lat":27.840737,"lng":52.337429,"addr":"","type":"school"},{"id":"xx278374_523392","name":"دبستان پسرانه امام صادق","lat":27.837403,"lng":52.339205,"addr":"","type":"school"},{"id":"xx278353_523359","name":"دبستان دخترانه نرگس","lat":27.835334,"lng":52.335932,"addr":"","type":"school"},{"id":"xx278406_523424","name":"مسجد فاطمه الزهرا","lat":27.840559,"lng":52.342408,"addr":"","type":"place_of_worship"},{"id":"xx278352_523319","name":"مسجد امیرالمومنین","lat":27.835208,"lng":52.331947,"addr":"","type":"place_of_worship"},{"id":"xx278237_523489","name":"مسجد علی ابن الحسین","lat":27.82369,"lng":52.348875,"addr":"","type":"place_of_worship"},{"id":"xx278335_523464","name":"مسجد امام حسین","lat":27.83351,"lng":52.346413,"addr":"","type":"place_of_worship"},{"id":"xx278069_523622","name":"مسجد امام حسین","lat":27.806882,"lng":52.362211,"addr":"","type":"place_of_worship"},{"id":"xx278019_523630","name":"مدرسه ابتدایی توحید جنوب جم","lat":27.80194,"lng":52.362971,"addr":"","type":"school"},{"id":"xx278024_523622","name":"حسینیه امام حسن مجتبی","lat":27.802367,"lng":52.36222,"addr":"","type":"place_of_worship"},{"id":"xx278355_523107","name":"مسجد صاحب الزمان","lat":27.835486,"lng":52.310686,"addr":"","type":"place_of_worship"},{"id":"xx278273_523011","name":"دبستان شهید رجایی","lat":27.8273,"lng":52.301051,"addr":"","type":"school"},{"id":"xx278287_523038","name":"حسینیه ابوالفضل عباس","lat":27.828657,"lng":52.303755,"addr":"","type":"monastery"},{"id":"xx278279_523029","name":"مسجد صاحب الزمان","lat":27.827898,"lng":52.302864,"addr":"","type":"place_of_worship"},{"id":"xx278241_523207","name":"آموزش و پرورش","lat":27.824115,"lng":52.320739,"addr":"","type":"mosque"},{"id":"xx278281_523230","name":"حسینیه چهارده معصوم خواجه احمدی","lat":27.828061,"lng":52.322958,"addr":"","type":"monastery"},{"id":"xx278291_523292","name":"حوزه علمیه خواهران","lat":27.829128,"lng":52.329192,"addr":"","type":"school"},{"id":"xx277927_523506","name":"حسینیه بیدخوار","lat":27.792712,"lng":52.350611,"addr":"","type":"monastery"},{"id":"xx278275_523239","name":"مسجد علی ابن ابیطالب","lat":27.827528,"lng":52.323858,"addr":"","type":"place_of_worship"},{"id":"xx278267_523205","name":"دبستان شهید علمداری","lat":27.826737,"lng":52.320493,"addr":"","type":"school"},{"id":"xx278405_523136","name":"مسجد محمد رسول الله","lat":27.840526,"lng":52.313581,"addr":"","type":"place_of_worship"},{"id":"xx278417_523074","name":"حسینیه صاحب الزمان کوری منظر","lat":27.841688,"lng":52.30742,"addr":"","type":"monastery"},{"id":"xx278364_523083","name":"حسینیه فاطمه الزهرا","lat":27.836421,"lng":52.308295,"addr":"","type":"monastery"},{"id":"xx278405_523080","name":"حسینیه صاحب الزمان حاج آباد","lat":27.840453,"lng":52.307965,"addr":"","type":"monastery"},{"id":"xx278405_523084","name":"مسجد امام سجاد","lat":27.840522,"lng":52.308424,"addr":"","type":"place_of_worship"},{"id":"xx278434_523028","name":"مسجد علی بن ابیطالب","lat":27.843446,"lng":52.302824,"addr":"","type":"place_of_worship"},{"id":"xx278393_523008","name":"مسجد الزهرا","lat":27.839298,"lng":52.300751,"addr":"","type":"place_of_worship"},{"id":"xx278391_523005","name":"حسینیه ثامن الحجج","lat":27.83912,"lng":52.300512,"addr":"","type":"monastery"},{"id":"xx277917_523897","name":"حسینیه ابوالفضل","lat":27.791689,"lng":52.389742,"addr":"","type":"monastery"},{"id":"xx277937_523883","name":"مسجد امام علی","lat":27.793658,"lng":52.388266,"addr":"","type":"place_of_worship"},{"id":"xx277968_523864","name":"دبستان شهید علمداری","lat":27.796828,"lng":52.3864,"addr":"","type":"school"},{"id":"xx277974_523846","name":"مسجد امام حسن مجتبی","lat":27.797383,"lng":52.384581,"addr":"","type":"place_of_worship"},{"id":"xx277916_523881","name":"Islamic place","lat":27.791596,"lng":52.38814,"addr":"","type":"grave_yard"},{"id":"xx277886_523869","name":"حسینیه شهید جوهری","lat":27.788633,"lng":52.386874,"addr":"","type":"monastery"},{"id":"xx277896_523839","name":"مسجد ابوالفضل","lat":27.789556,"lng":52.383897,"addr":"","type":"place_of_worship"},{"id":"xx278130_523241","name":"مسجد النبی","lat":27.813002,"lng":52.324147,"addr":"","type":"place_of_worship"},{"id":"xx278132_523228","name":"دبستان تلاش","lat":27.81323,"lng":52.322827,"addr":"","type":"school"},{"id":"xx278125_523281","name":"دبیرستان دخترانه ریحانه النبی","lat":27.812509,"lng":52.328065,"addr":"","type":"school"},{"id":"xx278175_523491","name":"دبیرستان غیر دولتی افتخار","lat":27.817486,"lng":52.349067,"addr":"","type":"school"},{"id":"xx278187_523367","name":"دبستان دخترانه چراغ اندیشه","lat":27.818744,"lng":52.336651,"addr":"","type":"school"},{"id":"xx278196_523347","name":"آموزشگاه زبان شهید مطهری","lat":27.819569,"lng":52.33472,"addr":"","type":"school"},{"id":"xx278162_523309","name":"دبیرستان دخترانه کوثر","lat":27.816182,"lng":52.330911,"addr":"","type":"school"},{"id":"xx278161_523315","name":"دبیرستان دخترانه ام البنین","lat":27.816077,"lng":52.331533,"addr":"","type":"school"},{"id":"xx278158_523320","name":"مدرسه حضرت رقیه","lat":27.815849,"lng":52.332038,"addr":"","type":"school"},{"id":"xx278120_523373","name":"دبستان شهید تندگویان","lat":27.811987,"lng":52.337295,"addr":"","type":"school"},{"id":"xx278124_523374","name":"دبیرستان شهید باقری","lat":27.812376,"lng":52.33737,"addr":"","type":"school"},{"id":"xx278129_523377","name":"دبیرستان امام خمینی","lat":27.812936,"lng":52.337724,"addr":"","type":"school"},{"id":"xx278201_523270","name":"دبیرستان پسرانه مفید","lat":27.820129,"lng":52.327027,"addr":"","type":"school"},{"id":"xx278200_523271","name":"دبستان پسرانه نخبگان","lat":27.819996,"lng":52.327081,"addr":"","type":"school"},{"id":"xx278193_523259","name":"دبیرستان حضرت مریم","lat":27.819275,"lng":52.325912,"addr":"","type":"school"},{"id":"xx278250_523213","name":"مسجد امام حسین خواجه احمدی","lat":27.82502,"lng":52.321338,"addr":"","type":"place_of_worship"},{"id":"xx278270_523268","name":"مسجد ابوالفضل عباس","lat":27.827003,"lng":52.326848,"addr":"","type":"place_of_worship"},{"id":"xx278513_522955","name":"مسجد ابوالفضل عباس","lat":27.851286,"lng":52.295458,"addr":"","type":"place_of_worship"},{"id":"xx278634_522809","name":"حسینیه سید الشهدا","lat":27.86338,"lng":52.280867,"addr":"","type":"monastery"},{"id":"xx278726_522736","name":"دبیرستان امام حسین","lat":27.872579,"lng":52.273601,"addr":"","type":"school"},{"id":"xx278781_522651","name":"حسینیه امام حسین حسین آباد","lat":27.878066,"lng":52.265135,"addr":"","type":"monastery"},{"id":"xx279007_522313","name":"مسجد امام حسین","lat":27.90072,"lng":52.231312,"addr":"","type":"place_of_worship"},{"id":"xx279025_522280","name":"مسجد صاحب الزمان","lat":27.902472,"lng":52.22798,"addr":"","type":"place_of_worship"},{"id":"xx279035_522254","name":"مسجد امیر المومنین","lat":27.903548,"lng":52.225375,"addr":"","type":"place_of_worship"},{"id":"xx279109_522221","name":"مسجد صاحب الزمان","lat":27.910925,"lng":52.222123,"addr":"","type":"place_of_worship"},{"id":"xx279115_522190","name":"دبستان شهید رهبر","lat":27.911505,"lng":52.219001,"addr":"","type":"school"},{"id":"xx279126_522195","name":"مسجد النبی","lat":27.912578,"lng":52.219451,"addr":"","type":"place_of_worship"},{"id":"xx289292_510687","name":"مسجد فاطمة الزهرا","lat":28.92918,"lng":51.068687,"addr":"","type":"place_of_worship"},{"id":"xx272952_532947","name":"حسینیه حاج عباس (سیدالشهدا) جری","lat":27.295235,"lng":53.294676,"addr":"","type":"monastery"},{"id":"xx285640_535744","name":"Islamic place","lat":28.563964,"lng":53.574411,"addr":"","type":"place_of_worship"},{"id":"xx265277_539103","name":"نمازخانه","lat":26.527657,"lng":53.910347,"addr":"","type":"place_of_worship"},{"id":"xx265104_546565","name":"Islamic place","lat":26.510395,"lng":54.656502,"addr":"","type":"place_of_worship"},{"id":"xx265480_548782","name":"حسینیه امام حسن","lat":26.547962,"lng":54.878211,"addr":"","type":"place_of_worship"},{"id":"xx295747_526916","name":"مسجد امام حسین","lat":29.574747,"lng":52.691621,"addr":"","type":"mosque"},{"id":"xx291161_535820","name":"استراحت گاه امام زاده اسماعیل","lat":29.116145,"lng":53.582024,"addr":"","type":"place_of_worship"},{"id":"xx265444_540200","name":"مسجد ثامن الحجج","lat":26.544396,"lng":54.019994,"addr":"بلوار ساحل","type":"place_of_worship"},{"id":"xx265577_540225","name":"مسجد ماشه","lat":26.557742,"lng":54.022538,"addr":"ماشه","type":"place_of_worship"},{"id":"xx265542_539779","name":"حسینیه بازار هرمز","lat":26.554197,"lng":53.977919,"addr":"کنارگذر ایران","type":"place_of_worship"},{"id":"xx297931_524958","name":"مهدیه صدرا","lat":29.79313,"lng":52.495795,"addr":"بلوار جانبازان","type":"place_of_worship"},{"id":"xx297931_524957","name":"هیئت امام رضا(ع)","lat":29.793121,"lng":52.49573,"addr":"بلوار جانبازان","type":"place_of_worship"},{"id":"xx297895_525196","name":"حسینیه علی بن ابیطالب(ع)","lat":29.789504,"lng":52.519554,"addr":"خیابان پیشگامان","type":"place_of_worship"},{"id":"xx265397_540121","name":"حسینیه بیت العباس","lat":26.539655,"lng":54.012107,"addr":"کیش","type":"place_of_worship"},{"id":"xx265622_539987","name":"مسجد المهدی","lat":26.562248,"lng":53.99872,"addr":"بلوار بندرگاه","type":"place_of_worship"},{"id":"xx295652_525715","name":"Islamic place","lat":29.565227,"lng":52.571527,"addr":"","type":"place_of_worship"},{"id":"xx297908_525252","name":"مسجد امیرالمومنین(ع)","lat":29.790806,"lng":52.525223,"addr":"توس","type":"place_of_worship"},{"id":"xx268049_533754","name":"مسجد امیر مومنین","lat":26.804904,"lng":53.375415,"addr":"","type":"place_of_worship"},{"id":"xx296325_525226","name":"الزهرا","lat":29.632459,"lng":52.522623,"addr":"","type":"mosque"},{"id":"xx296342_530310","name":"مسجد امام جعفر صادق","lat":29.634214,"lng":53.030982,"addr":"","type":"place_of_worship"},{"id":"xx297872_543210","name":"مسجد ولیعصر","lat":29.787216,"lng":54.320956,"addr":"","type":"place_of_worship"},{"id":"xx283707_539415","name":"مسجد ابوالفضل العباس","lat":28.370665,"lng":53.941474,"addr":"","type":"place_of_worship"},{"id":"xx289482_510518","name":"امامزاده امیر عبدالله","lat":28.948237,"lng":51.051767,"addr":"","type":"place_of_worship"},{"id":"xx289519_536323","name":"مسجد امام باقر","lat":28.951921,"lng":53.632302,"addr":"","type":"place_of_worship"},{"id":"xx274354_527475","name":"Islamic place","lat":27.435413,"lng":52.747536,"addr":"","type":"place_of_worship"},{"id":"xx292585_503318","name":"مسجد امیرالمومنین","lat":29.258542,"lng":50.331807,"addr":"","type":"place_of_worship"},{"id":"xx296132_516362","name":"مسجد چهارده معصوم","lat":29.613192,"lng":51.636243,"addr":"","type":"place_of_worship"},{"id":"xx291493_515305","name":"مسجد ابوالفضل","lat":29.149271,"lng":51.530467,"addr":"","type":"place_of_worship"},{"id":"xx295364_526234","name":"امامزاده ابوطالب","lat":29.536398,"lng":52.623356,"addr":"","type":"place_of_worship"},{"id":"xx295962_525583","name":"حسینیه صاحب الزمان","lat":29.5962,"lng":52.558269,"addr":"بلوار الزهرا","type":"place_of_worship"},{"id":"xx296161_525426","name":"Islamic place","lat":29.616064,"lng":52.542591,"addr":"پیروزی","type":"place_of_worship"},{"id":"xx296560_516011","name":"مسجد دانشگاه","lat":29.656031,"lng":51.601063,"addr":"","type":"place_of_worship"},{"id":"xx289376_533143","name":"Islamic place","lat":28.937623,"lng":53.31432,"addr":"","type":"place_of_worship"},{"id":"xx296264_525011","name":"هیئت مذهبی منتظران ظهور","lat":29.626374,"lng":52.501105,"addr":"","type":"place_of_worship"},{"id":"xx284936_535739","name":"مسجد امیرالمومنین","lat":28.49358,"lng":53.573943,"addr":"","type":"mosque"},{"id":"xx296796_525536","name":"مسجد ابوالفضل","lat":29.679605,"lng":52.553559,"addr":"","type":"place_of_worship"},{"id":"xx265254_539269","name":"مسجد النبی","lat":26.52543,"lng":53.926875,"addr":"","type":"place_of_worship"},{"id":"xx289623_508447","name":"مسجد امام سجاد","lat":28.962255,"lng":50.844671,"addr":"","type":"place_of_worship"},{"id":"xx289769_508489","name":"مسجد امام سجاد کوی صلح آباد","lat":28.976926,"lng":50.848944,"addr":"","type":"place_of_worship"},{"id":"xx296392_527526","name":"مسجد جامع بردج","lat":29.639202,"lng":52.752553,"addr":"","type":"place_of_worship"},{"id":"xx282500_539834","name":"مسجد جامع","lat":28.249976,"lng":53.98343,"addr":"","type":"place_of_worship"},{"id":"xx282599_539821","name":"مسجد النبی","lat":28.259947,"lng":53.982068,"addr":"","type":"place_of_worship"},{"id":"xx289303_510396","name":"مسجد خاتم الانبیاء گورک دژگاه","lat":28.930322,"lng":51.039621,"addr":"گورک دژگاه","type":"place_of_worship"},{"id":"xx294031_511907","name":"Islamic place","lat":29.403052,"lng":51.190722,"addr":"","type":"place_of_worship"},{"id":"xx270963_546048","name":"Islamic place","lat":27.096276,"lng":54.604836,"addr":"","type":"place_of_worship"},{"id":"xx270484_547653","name":"Islamic place","lat":27.048441,"lng":54.765344,"addr":"","type":"place_of_worship"},{"id":"xx269985_548062","name":"Islamic place","lat":26.998461,"lng":54.806187,"addr":"","type":"place_of_worship"},{"id":"xx269989_548023","name":"Islamic place","lat":26.998905,"lng":54.802269,"addr":"","type":"place_of_worship"},{"id":"xx272198_546754","name":"Islamic place","lat":27.219805,"lng":54.675351,"addr":"","type":"place_of_worship"},{"id":"xx272186_546750","name":"Islamic place","lat":27.21864,"lng":54.674996,"addr":"","type":"place_of_worship"},{"id":"xx291212_540429","name":"مسجد حضرت ابوالفضل","lat":29.12123,"lng":54.042944,"addr":"","type":"place_of_worship"},{"id":"xx286608_546816","name":"مسجد امام رضا","lat":28.660842,"lng":54.681573,"addr":"","type":"place_of_worship"},{"id":"xx286640_546859","name":"مسجد اهل بیت","lat":28.663979,"lng":54.685876,"addr":"","type":"place_of_worship"},{"id":"xx286514_546853","name":"Islamic place","lat":28.651438,"lng":54.685258,"addr":"","type":"place_of_worship"},{"id":"xx286567_546792","name":"مسجد چهارده معصوم","lat":28.656714,"lng":54.679197,"addr":"","type":"place_of_worship"},{"id":"xx286482_546930","name":"مسجد امام جعفر صادق","lat":28.648213,"lng":54.692994,"addr":"","type":"place_of_worship"},{"id":"xx265241_548245","name":"Islamic place","lat":26.524099,"lng":54.824511,"addr":"","type":"place_of_worship"},{"id":"xx265608_548874","name":"Islamic place","lat":26.560838,"lng":54.887366,"addr":"","type":"place_of_worship"},{"id":"xx296042_525390","name":"مسجد فاموری","lat":29.604198,"lng":52.539,"addr":"","type":"place_of_worship"},{"id":"xx296048_525394","name":"Islamic place","lat":29.604821,"lng":52.539428,"addr":"","type":"place_of_worship"},{"id":"xx293001_511907","name":"حسینیه حضرت رقیه بنت الحسین (ع) دهقاید","lat":29.300091,"lng":51.190704,"addr":"کوچه شهید ظنجرسیم","type":"place_of_worship"},{"id":"xx292994_511898","name":"مسجد شهید صادقی فرد دهقاید","lat":29.299384,"lng":51.189813,"addr":"","type":"place_of_worship"},{"id":"xx292997_511892","name":"حسینیه سید ابوالقاسم درویشی دهقاید","lat":29.299745,"lng":51.18916,"addr":"","type":"place_of_worship"},{"id":"xx292933_511952","name":"مسجد امام زمان (عج) دهقاید","lat":29.293268,"lng":51.195209,"addr":"","type":"place_of_worship"},{"id":"xx292954_511937","name":"مسجد امام زین العابدین (ع) دهقاید","lat":29.295432,"lng":51.193746,"addr":"","type":"place_of_worship"},{"id":"xx292985_511913","name":"مسجد جامع دهقاید","lat":29.298487,"lng":51.191342,"addr":"","type":"place_of_worship"},{"id":"xx292983_511915","name":"حسینیه سیدالشهداء مسجد جامع دهقاید","lat":29.298315,"lng":51.191451,"addr":"","type":"place_of_worship"},{"id":"xx284849_530424","name":"مسجد اهل بیت","lat":28.484933,"lng":53.042406,"addr":"","type":"place_of_worship"},{"id":"xx284748_530456","name":"مسجد امام خمینی","lat":28.474807,"lng":53.04563,"addr":"","type":"place_of_worship"},{"id":"xx296062_525152","name":"مسجد امام حسین","lat":29.606243,"lng":52.515249,"addr":"بهشتی45","type":"place_of_worship"},{"id":"xx289470_510497","name":"مدرسه راهنمایی 12 فروردین (دبستان 9 دی)","lat":28.94697,"lng":51.049664,"addr":"گورک سادات","type":"school"},{"id":"xx288334_516933","name":"Islamic place","lat":28.833365,"lng":51.693326,"addr":"","type":"place_of_worship"},{"id":"xx279495_519596","name":"Islamic place","lat":27.949543,"lng":51.959602,"addr":"","type":"place_of_worship"},{"id":"xx279451_519654","name":"مسجد خدیجه کبری","lat":27.945095,"lng":51.965422,"addr":"","type":"place_of_worship"},{"id":"xx278710_520235","name":"Islamic place","lat":27.871044,"lng":52.023502,"addr":"","type":"place_of_worship"},{"id":"xx291792_513092","name":"امامزاده شاهزاده ابراهیم (بن موسی کاظم)","lat":29.179193,"lng":51.309247,"addr":"","type":"place_of_worship"},{"id":"xx292185_512420","name":"Islamic place","lat":29.218512,"lng":51.242021,"addr":"","type":"place_of_worship"},{"id":"xx292977_511931","name":"حسینیه سید اسماعیل جعفری","lat":29.29767,"lng":51.193107,"addr":"","type":"place_of_worship"},{"id":"xx286485_513742","name":"مسجد زین الدین","lat":28.648477,"lng":51.374156,"addr":"","type":"place_of_worship"},{"id":"xx286413_513766","name":"Islamic place","lat":28.641284,"lng":51.376599,"addr":"","type":"place_of_worship"},{"id":"xx283336_515238","name":"مسجد خدیجه کبری","lat":28.333607,"lng":51.523754,"addr":"","type":"place_of_worship"},{"id":"xx283382_515188","name":"مسجد بهشتی","lat":28.338176,"lng":51.518845,"addr":"","type":"place_of_worship"},{"id":"xx283466_515286","name":"مسجد چهارده معصوم","lat":28.346555,"lng":51.528563,"addr":"","type":"place_of_worship"},{"id":"xx282681_515953","name":"Islamic place","lat":28.268103,"lng":51.595254,"addr":"","type":"place_of_worship"},{"id":"xx276715_523268","name":"Islamic place","lat":27.67155,"lng":52.326786,"addr":"","type":"place_of_worship"},{"id":"xx274823_526708","name":"Islamic place","lat":27.482317,"lng":52.670772,"addr":"","type":"place_of_worship"},{"id":"xx274359_527544","name":"Islamic place","lat":27.435903,"lng":52.754449,"addr":"","type":"place_of_worship"},{"id":"xx274764_526623","name":"حسینه یادگار امام","lat":27.476433,"lng":52.662345,"addr":"","type":"place_of_worship"},{"id":"xx274506_527359","name":"Islamic place","lat":27.450598,"lng":52.735936,"addr":"","type":"place_of_worship"},{"id":"xx274592_527329","name":"Islamic place","lat":27.459243,"lng":52.732864,"addr":"","type":"place_of_worship"},{"id":"xx274048_527550","name":"Islamic place","lat":27.404833,"lng":52.754954,"addr":"","type":"place_of_worship"},{"id":"xx272740_529342","name":"Islamic place","lat":27.273999,"lng":52.934215,"addr":"","type":"place_of_worship"},{"id":"xx273527_528110","name":"Islamic place","lat":27.352667,"lng":52.811018,"addr":"","type":"place_of_worship"},{"id":"xx272152_530386","name":"Islamic place","lat":27.215179,"lng":53.038626,"addr":"","type":"place_of_worship"},{"id":"xx272061_530423","name":"Islamic place","lat":27.206099,"lng":53.042292,"addr":"","type":"place_of_worship"},{"id":"xx272032_530416","name":"مسجد جامع اهل سنت","lat":27.203222,"lng":53.041648,"addr":"","type":"place_of_worship"},{"id":"xx271219_533162","name":"Islamic place","lat":27.121915,"lng":53.316245,"addr":"","type":"place_of_worship"},{"id":"xx270619_536141","name":"مسجد ابوبکر","lat":27.061888,"lng":53.614059,"addr":"","type":"place_of_worship"},{"id":"xx270630_536160","name":"مسجد جامع","lat":27.062959,"lng":53.61603,"addr":"","type":"place_of_worship"},{"id":"xx270656_536077","name":"مسجد صاحب زمان","lat":27.065603,"lng":53.607669,"addr":"","type":"place_of_worship"},{"id":"xx267362_542707","name":"مسجد جامع","lat":26.736236,"lng":54.270677,"addr":"","type":"place_of_worship"},{"id":"xx266013_545077","name":"Islamic place","lat":26.601253,"lng":54.507677,"addr":"","type":"place_of_worship"},{"id":"xx266084_545100","name":"مسجد علی ابن ابی طالب","lat":26.608383,"lng":54.509968,"addr":"","type":"place_of_worship"},{"id":"xx265825_549159","name":"Islamic place","lat":26.582533,"lng":54.915882,"addr":"","type":"place_of_worship"},{"id":"xx266146_549393","name":"Islamic place","lat":26.614559,"lng":54.939268,"addr":"","type":"place_of_worship"},{"id":"xx289641_508166","name":"Islamic place","lat":28.964101,"lng":50.816644,"addr":"خیابان خلیج‌فارس","type":"place_of_worship"},{"id":"xx273416_531625","name":"مسجد امام محمد باقر علیه السلام","lat":27.341618,"lng":53.162516,"addr":"","type":"place_of_worship"},{"id":"xx273400_531916","name":"مسجد کوشک","lat":27.340009,"lng":53.191555,"addr":"","type":"place_of_worship"},{"id":"xx273349_531903","name":"Islamic place","lat":27.33487,"lng":53.190282,"addr":"","type":"place_of_worship"},{"id":"xx273342_531988","name":"مسجد","lat":27.334209,"lng":53.198844,"addr":"","type":"place_of_worship"},{"id":"xx273172_532543","name":"Islamic place","lat":27.317222,"lng":53.254304,"addr":"","type":"place_of_worship"},{"id":"xx276859_527391","name":"حضرت معصومه","lat":27.685939,"lng":52.739137,"addr":"","type":"school"},{"id":"xx289185_508272","name":"مسجد حضرت ولی عصر کوی مخ بلند","lat":28.918502,"lng":50.827249,"addr":"","type":"place_of_worship"},{"id":"xx289187_508272","name":"حسینیه حضرت عباس","lat":28.918681,"lng":50.827205,"addr":"","type":"place_of_worship"},{"id":"xx297076_524925","name":"Islamic place","lat":29.707562,"lng":52.492514,"addr":"","type":"place_of_worship"},{"id":"xx299283_539335","name":"مسجد صاحب الزمان","lat":29.928328,"lng":53.93348,"addr":"","type":"place_of_worship"},{"id":"xx285142_535403","name":"مسجد علی‌اصغر","lat":28.514228,"lng":53.540307,"addr":"","type":"mosque"},{"id":"xx297023_516751","name":"آرامگاه علامه دوانی (آرامگاه علامه جلال‌الدین محمد دوانی)","lat":29.702328,"lng":51.675113,"addr":"","type":"mosque"},{"id":"xx277187_526565","name":"مسجد محمد رسول الله","lat":27.718657,"lng":52.656476,"addr":"","type":"place_of_worship"},{"id":"xx284888_523061","name":"Islamic place","lat":28.488828,"lng":52.306076,"addr":"","type":"place_of_worship"},{"id":"xx287171_538558","name":"مسجد امام جعفر صادق","lat":28.717053,"lng":53.855775,"addr":"","type":"place_of_worship"},{"id":"xx284825_530280","name":"مسجد امام حسن عسکری (ع)","lat":28.482501,"lng":53.027991,"addr":"","type":"place_of_worship"},{"id":"xx295938_524952","name":"Islamic place","lat":29.593755,"lng":52.495221,"addr":"","type":"place_of_worship"},{"id":"xx295976_524902","name":"Islamic place","lat":29.597554,"lng":52.490172,"addr":"","type":"place_of_worship"},{"id":"xx296080_525332","name":"مسجد امامزاده عبدالله","lat":29.607988,"lng":52.533158,"addr":"","type":"place_of_worship"},{"id":"xx296150_516604","name":"مسجد حاج طالب","lat":29.615026,"lng":51.660405,"addr":"","type":"place_of_worship"},{"id":"xx296157_525382","name":"حرم مطهر بی بی زینبیه دختر موسی بن جعفر","lat":29.615707,"lng":52.538217,"addr":"خیابان لطفعلی خان زند","type":"place_of_worship"},{"id":"xx295968_525339","name":"مسجد الرضا","lat":29.59683,"lng":52.533853,"addr":"","type":"place_of_worship"},{"id":"xx296192_525328","name":"Islamic place","lat":29.619246,"lng":52.532844,"addr":"","type":"place_of_worship"},{"id":"xx296117_525441","name":"Islamic place","lat":29.611686,"lng":52.544121,"addr":"","type":"place_of_worship"},{"id":"xx289016_508505","name":"مسجد شهدای امامزاده","lat":28.901611,"lng":50.850502,"addr":"","type":"place_of_worship"},{"id":"xx289059_508455","name":"مسجد امام حسن مجتبی کوی امامزاده","lat":28.905904,"lng":50.845519,"addr":"","type":"place_of_worship"},{"id":"xx295792_525578","name":"Islamic place","lat":29.579192,"lng":52.557811,"addr":"","type":"place_of_worship"},{"id":"xx295866_525560","name":"Islamic place","lat":29.586564,"lng":52.556019,"addr":"","type":"place_of_worship"},{"id":"xx296320_525559","name":"مسجد فیضیه","lat":29.63203,"lng":52.555943,"addr":"","type":"place_of_worship"},{"id":"xx296033_525496","name":"Islamic place","lat":29.603311,"lng":52.549576,"addr":"","type":"place_of_worship"},{"id":"xx296073_525350","name":"مسجد ساجدین","lat":29.607278,"lng":52.535013,"addr":"","type":"place_of_worship"},{"id":"xx273467_531852","name":"حسینیه صاحب الزمان خطیمی","lat":27.346744,"lng":53.18521,"addr":"","type":"place_of_worship"},{"id":"xx295710_524878","name":"مسجد و حسینیه قائم آل محمد","lat":29.570959,"lng":52.487825,"addr":"","type":"place_of_worship"},{"id":"xx295583_513375","name":"شهید حسینی","lat":29.558298,"lng":51.337465,"addr":"رازی","type":"school"},{"id":"xx296189_540300","name":"دبستان شهید رضا حمیدی","lat":29.618899,"lng":54.030031,"addr":"","type":"school"},{"id":"xx296669_524867","name":"کانون فرهنگی معیار شیراز","lat":29.6669,"lng":52.486657,"addr":"پل شاهد","type":"mosque"},{"id":"xx289449_536339","name":"مسجد الرضا","lat":28.944925,"lng":53.633877,"addr":"","type":"place_of_worship"},{"id":"xx285040_535573","name":"Islamic place","lat":28.503982,"lng":53.557286,"addr":"","type":"place_of_worship"},{"id":"xx284978_535728","name":"مسجد امام حسین علیه السلام","lat":28.497812,"lng":53.572794,"addr":"","type":"place_of_worship"},{"id":"xx284966_535674","name":"مسجد مصلی","lat":28.496564,"lng":53.567384,"addr":"","type":"place_of_worship"},{"id":"xx271946_541685","name":"مسجد شیخ حسن عالی\nSheikh Hassan Ãli mosque","lat":27.194552,"lng":54.168546,"addr":"","type":"place_of_worship"},{"id":"xx295768_524717","name":"مسجد القرآن و حسینیه جان شاران ابالفضل العباس","lat":29.576843,"lng":52.471724,"addr":"","type":"place_of_worship"},{"id":"xx265090_539941","name":"مسجد امام سجاد","lat":26.508978,"lng":53.994096,"addr":"","type":"place_of_worship"},{"id":"xx294526_525293","name":"Islamic place","lat":29.452622,"lng":52.529348,"addr":"","type":"place_of_worship"},{"id":"xx277882_544124","name":"Islamic place","lat":27.788183,"lng":54.412396,"addr":"","type":"place_of_worship"},{"id":"xx295688_527071","name":"امامزاده سید حسن","lat":29.568753,"lng":52.70709,"addr":"","type":"place_of_worship"},{"id":"xx292511_512289","name":"مسجد امام علی","lat":29.25109,"lng":51.228889,"addr":"","type":"place_of_worship"},{"id":"xx294187_526545","name":"حسینیه و مسجد حضرت ابوالفضل (ع)","lat":29.418735,"lng":52.654508,"addr":"شیراز روستای تفیهان خیابان ولیعصر خیابان شهدا","type":"place_of_worship"},{"id":"xx277578_540156","name":"مسجد امام شافعی","lat":27.757768,"lng":54.015614,"addr":"اوز","type":"place_of_worship"},{"id":"xx286551_536276","name":"امامزاده بی بی حور","lat":28.655097,"lng":53.62764,"addr":"","type":"place_of_worship"},{"id":"xx283781_535712","name":"امامزاده شاه کرم","lat":28.378114,"lng":53.571242,"addr":"","type":"imamzadeh"},{"id":"xx296358_525096","name":"دبستان تربیت محور مستعان","lat":29.635768,"lng":52.5096,"addr":"بلوار چمران","type":"school"},{"id":"xx296117_525449","name":"بنای مقدس فاطمیه شیراز","lat":29.611745,"lng":52.54486,"addr":"","type":"place_of_worship"},{"id":"xx274746_526070","name":"Islamic place","lat":27.474594,"lng":52.606982,"addr":"","type":"place_of_worship"},{"id":"xx296311_525046","name":"دبیرستان پسرانه پرتو علوی متوسطه اول","lat":29.631078,"lng":52.504611,"addr":"۳ ولیعصر","type":"school"},{"id":"xx296268_524793","name":"دبیرستان دخترانه پرتو علوی متوسطه دوم","lat":29.626779,"lng":52.479306,"addr":"پاسداران۶۸","type":"school"},{"id":"xx296173_525514","name":"بنای مقدس بنی فاطمه(س)شیراز","lat":29.617268,"lng":52.551433,"addr":"","type":"place_of_worship"},{"id":"xx294775_526351","name":"شرکت قارچ شیراز","lat":29.477525,"lng":52.635071,"addr":"","type":"mosque"},{"id":"xx295701_525092","name":"مسجد فاطمیه","lat":29.570073,"lng":52.509172,"addr":"","type":"place_of_worship"},{"id":"xx296476_524578","name":"دبیرستان پرتو علوی متوسطه اول دخترانه","lat":29.647641,"lng":52.457829,"addr":"بلوار شهید رجایی","type":"school"},{"id":"xx295395_531747","name":"مسجد صاحب الزمان","lat":29.53946,"lng":53.174718,"addr":"","type":"place_of_worship"},{"id":"xx295790_526054","name":"هنرستان دارالعلم","lat":29.578978,"lng":52.605436,"addr":"","type":"school"},{"id":"xx296870_515778","name":"مسجد مرتضی علی دریس","lat":29.686998,"lng":51.57778,"addr":"دریس","type":"place_of_worship"},{"id":"xx296884_515722","name":"بهشت زهرای دریس","lat":29.688374,"lng":51.572208,"addr":"","type":"mosque"},{"id":"xx296886_515725","name":"گلزار شهدای دریس","lat":29.688588,"lng":51.572483,"addr":"","type":"mosque"},{"id":"xx296914_515784","name":"امامزاده جابر انصاری","lat":29.691396,"lng":51.578406,"addr":"","type":"mosque"},{"id":"xx296881_515775","name":"قبرستان قدیمی دریس","lat":29.688065,"lng":51.577533,"addr":"","type":"mosque"},{"id":"xx296872_515846","name":"دبیرستان دخترانه قبازرد دریس","lat":29.687203,"lng":51.584622,"addr":"جاده کازرون - چنارشاهیچان","type":"school"},{"id":"xx292542_512297","name":"دبیرستان غیردولتی دخترانه شایستگان متوسطه دوم","lat":29.254161,"lng":51.229679,"addr":"","type":"school"},{"id":"xx270224_542827","name":"Islamic place","lat":27.022379,"lng":54.28272,"addr":"","type":"place_of_worship"},{"id":"xx278376_519335","name":"مصلی","lat":27.83761,"lng":51.933496,"addr":"","type":"place_of_worship"},{"id":"xx278399_519285","name":"Islamic place","lat":27.839897,"lng":51.928518,"addr":"","type":"place_of_worship"},{"id":"xx285300_510954","name":"Islamic place","lat":28.529997,"lng":51.095399,"addr":"","type":"place_of_worship"},{"id":"xx292564_512257","name":"مسجد پیامبر اعظم (ص)","lat":29.25638,"lng":51.22574,"addr":"","type":"place_of_worship"},{"id":"xx292491_512394","name":"Islamic place","lat":29.249066,"lng":51.239371,"addr":"","type":"place_of_worship"},{"id":"xx273466_531848","name":"مسجد صاحب الزمان خطیمی","lat":27.346566,"lng":53.184759,"addr":"","type":"place_of_worship"},{"id":"xx296853_515809","name":"مدرسه شهید صمد نظری","lat":29.685339,"lng":51.580943,"addr":"دریس","type":"school"},{"id":"xx294836_525359","name":"Islamic place","lat":29.483579,"lng":52.535937,"addr":"","type":"place_of_worship"},{"id":"xx292593_532194","name":"Islamic place","lat":29.259336,"lng":53.219445,"addr":"","type":"place_of_worship"},{"id":"xx280832_540430","name":"Islamic place","lat":28.083203,"lng":54.043031,"addr":"","type":"place_of_worship"},{"id":"xx280859_540565","name":"Islamic place","lat":28.085927,"lng":54.05649,"addr":"","type":"place_of_worship"},{"id":"xx289126_539226","name":"Islamic place","lat":28.912566,"lng":53.922558,"addr":"","type":"place_of_worship"},{"id":"xx286708_513830","name":"مسجد جوادالائمه","lat":28.670825,"lng":51.382993,"addr":"","type":"place_of_worship"},{"id":"xx278712_519567","name":"Islamic place","lat":27.871202,"lng":51.956738,"addr":"","type":"place_of_worship"},{"id":"xx288983_508339","name":"مسجد امام حسن مجتبی کوی ریشهر","lat":28.898326,"lng":50.833855,"addr":"","type":"place_of_worship"},{"id":"xx288415_512835","name":"Islamic place","lat":28.841474,"lng":51.283534,"addr":"","type":"place_of_worship"},{"id":"xx288786_528379","name":"امامزاده شاه عطاالله","lat":28.878557,"lng":52.837863,"addr":"خیابان امامزاده","type":"place_of_worship"},{"id":"xx295807_525461","name":"گلزار دارالرحمه","lat":29.580683,"lng":52.546081,"addr":"","type":"mosque"},{"id":"xx265735_539545","name":"مسجد خاتم","lat":26.57354,"lng":53.954465,"addr":"شقایق","type":"mosque"},{"id":"xx296172_525922","name":"آرامستان سعدی","lat":29.617239,"lng":52.59216,"addr":"","type":"mosque"},{"id":"xx295640_529068","name":"Islamic place","lat":29.564028,"lng":52.906847,"addr":"","type":"mosque"},{"id":"xx296139_516649","name":"آرامستان سید محمد نور بخش","lat":29.613875,"lng":51.664897,"addr":"","type":"mosque"},{"id":"xx296241_516783","name":"بهشت زهرا","lat":29.624117,"lng":51.678256,"addr":"","type":"mosque"},{"id":"xx296240_524824","name":"مسجد امام سجاد","lat":29.623981,"lng":52.482388,"addr":"بلوار پاسداران","type":"yes"},{"id":"xx278895_534341","name":"مسجد جامع خنج","lat":27.889517,"lng":53.43412,"addr":"","type":"place_of_worship"},{"id":"xx278931_534227","name":"مسجد سیدنا حمزه(رضی الله عنه","lat":27.89307,"lng":53.422668,"addr":"","type":"yes"},{"id":"xx296129_525390","name":"امامزاده بی بی دختران","lat":29.612949,"lng":52.538965,"addr":"سنگ سیاه","type":"mausoleum"},{"id":"xx296122_525407","name":"مسجد بیت المهدی","lat":29.612156,"lng":52.54073,"addr":"","type":"mosque"},{"id":"xx298712_527945","name":"مسجد امام حسین","lat":29.871175,"lng":52.794487,"addr":"","type":"yes"},{"id":"xx299179_524414","name":"Islamic place","lat":29.917935,"lng":52.441385,"addr":"","type":"yes"},{"id":"xx296135_524630","name":"مسجد بقیه الله الاعظم","lat":29.613455,"lng":52.462995,"addr":"خیابان سروش شرقی","type":"yes"},{"id":"xx265535_548701","name":"بهشت زهرا","lat":26.553493,"lng":54.870118,"addr":"","type":"mosque"},{"id":"xx285018_535484","name":"امامزاده عبدالطیف","lat":28.50178,"lng":53.548355,"addr":"","type":"yes"},{"id":"xx284939_535696","name":"نماز جمعه","lat":28.493885,"lng":53.569583,"addr":"","type":"mosque"},{"id":"xx284971_535698","name":"Islamic place","lat":28.497107,"lng":53.569799,"addr":"","type":"yes"},{"id":"xx284976_535673","name":"مسجد امام محمد باقر علیه السلام","lat":28.497611,"lng":53.567314,"addr":"","type":"yes"},{"id":"xx284939_535667","name":"مسجد صاحب الزمان عج","lat":28.493942,"lng":53.566682,"addr":"","type":"yes"},{"id":"xx284932_535697","name":"مصلی نماز جمعه","lat":28.493206,"lng":53.569659,"addr":"","type":"yes"},{"id":"xx284971_535727","name":"حسینیه شفیعی","lat":28.497127,"lng":53.572728,"addr":"","type":"yes"},{"id":"xx284984_535637","name":"حسینه آبادانی ها","lat":28.498377,"lng":53.563684,"addr":"","type":"yes"},{"id":"xx285032_535528","name":"مسجد جامع جهرم","lat":28.503165,"lng":53.552793,"addr":"","type":"yes"},{"id":"xx285032_535524","name":"دبیرستان دخترانه علویه","lat":28.503239,"lng":53.552393,"addr":"","type":"school"},{"id":"xx285012_535516","name":"مسجد بازار","lat":28.501201,"lng":53.551639,"addr":"","type":"place_of_worship"},{"id":"xx284685_535495","name":"Islamic place","lat":28.468542,"lng":53.549521,"addr":"","type":"yes"},{"id":"xx284817_535432","name":"مسجد الزهرا","lat":28.481675,"lng":53.543161,"addr":"","type":"yes"},{"id":"xx284976_535569","name":"مسجد گوهر شاد","lat":28.49763,"lng":53.55694,"addr":"","type":"yes"},{"id":"xx285015_535646","name":"مسجد غدیریه","lat":28.501466,"lng":53.564611,"addr":"","type":"yes"},{"id":"xx285100_535886","name":"بهشت رضوان","lat":28.509965,"lng":53.588627,"addr":"","type":"mosque"},{"id":"xx285122_535876","name":"Islamic place","lat":28.512153,"lng":53.58756,"addr":"","type":"mosque"},{"id":"xx284893_535457","name":"مسجد امام سجاد علیه السلام","lat":28.48931,"lng":53.545699,"addr":"","type":"yes"},{"id":"xx285059_535835","name":"مسجد فاطمیه","lat":28.505945,"lng":53.583501,"addr":"","type":"yes"},{"id":"xx284949_535643","name":"مسجد سید","lat":28.494925,"lng":53.564341,"addr":"","type":"yes"},{"id":"xx284969_535630","name":"مسجد شیخ ابراهیم فاطمیون","lat":28.496877,"lng":53.563,"addr":"","type":"yes"},{"id":"xx285155_535740","name":"Islamic place","lat":28.515474,"lng":53.573963,"addr":"","type":"yes"},{"id":"xx284984_535515","name":"امامزاده اسمائیل","lat":28.49841,"lng":53.551474,"addr":"","type":"yes"},{"id":"xx285001_535546","name":"مسجد شیخ ابراهیم","lat":28.500115,"lng":53.554637,"addr":"","type":"yes"},{"id":"xx285009_535568","name":"مسجد خواجویی","lat":28.500949,"lng":53.556849,"addr":"","type":"yes"},{"id":"xx284995_535627","name":"امامزاده محمد","lat":28.499523,"lng":53.562686,"addr":"","type":"yes"},{"id":"xx285026_535456","name":"مسجد خان","lat":28.502629,"lng":53.545574,"addr":"","type":"yes"},{"id":"xx284963_535442","name":"مقبره امامزاده حسین","lat":28.496274,"lng":53.544214,"addr":"","type":"yes"},{"id":"xx285058_535538","name":"مسجد شاه حنظلیه","lat":28.505804,"lng":53.553823,"addr":"","type":"yes"},{"id":"xx285014_535553","name":"مسجد اسد الدهر","lat":28.501367,"lng":53.555296,"addr":"","type":"yes"},{"id":"xx292720_512229","name":"آرامگاه برازجان","lat":29.272007,"lng":51.222854,"addr":"خیابان اسدی","type":"mosque"},{"id":"xx296293_525244","name":"مسجد الزهرا","lat":29.62931,"lng":52.524368,"addr":"","type":"yes"},{"id":"xx295471_525907","name":"مسجد فرودگاه شیراز","lat":29.547111,"lng":52.590685,"addr":"","type":"mosque"},{"id":"xx289479_536372","name":"مصلی امام خمینی","lat":28.947862,"lng":53.637175,"addr":"","type":"yes"},{"id":"xx297832_527217","name":"آرامستان سید نسیمی","lat":29.783183,"lng":52.721675,"addr":"","type":"mosque"},{"id":"xx297707_527329","name":"آرامستان محله حیدر","lat":29.77075,"lng":52.732894,"addr":"","type":"mosque"},{"id":"xx265255_547966","name":"مسجد جامع سید ابراهیم اول","lat":26.5255,"lng":54.796608,"addr":"","type":"yes"},{"id":"xx265280_547950","name":"مسجد","lat":26.528023,"lng":54.794982,"addr":"","type":"yes"},{"id":"xx265240_547982","name":"مسجد جامع شناس","lat":26.523955,"lng":54.798195,"addr":"","type":"yes"},{"id":"xx265264_547993","name":"مسجد ابوبکر صدیق","lat":26.526425,"lng":54.799307,"addr":"","type":"yes"},{"id":"xx265298_547917","name":"مسجد فاطمه الزهراء","lat":26.52984,"lng":54.791714,"addr":"","type":"yes"},{"id":"xx286613_513920","name":"مسجد","lat":28.661265,"lng":51.391976,"addr":"","type":"yes"},{"id":"xx291422_547006","name":"بهشت زهرا","lat":29.142159,"lng":54.700627,"addr":"","type":"mosque"},{"id":"xx292086_542935","name":"دارالرحمه","lat":29.208585,"lng":54.293514,"addr":"","type":"mosque"},{"id":"xx291916_543188","name":"مسجد جامع کبیر","lat":29.191603,"lng":54.318796,"addr":"","type":"yes"},{"id":"xx291483_547049","name":"مسجد ابوالفضل","lat":29.148283,"lng":54.704867,"addr":"","type":"yes"},{"id":"xx291433_547036","name":"گلزار شهدا","lat":29.143317,"lng":54.70356,"addr":"","type":"mosque"},{"id":"xx291431_547048","name":"مسجد جامع","lat":29.143071,"lng":54.704786,"addr":"","type":"yes"},{"id":"xx291420_547074","name":"مسجد","lat":29.142046,"lng":54.707364,"addr":"","type":"yes"},{"id":"xx291413_547071","name":"حسینیه","lat":29.141274,"lng":54.707101,"addr":"","type":"yes"},{"id":"xx292026_543284","name":"مصلی نیریز","lat":29.202601,"lng":54.328437,"addr":"","type":"yes"},{"id":"xx292025_543291","name":"امامزادگان حسن و حسین","lat":29.202534,"lng":54.329083,"addr":"","type":"shrine"},{"id":"xx288890_549625","name":"Islamic place","lat":28.888971,"lng":54.962453,"addr":"","type":"yes"},{"id":"xx288864_549628","name":"مسجد","lat":28.886419,"lng":54.962824,"addr":"","type":"yes"},{"id":"xx291297_540311","name":"امامزاده پیرمراد","lat":29.129741,"lng":54.031075,"addr":"","type":"shrine"},{"id":"xx291747_543023","name":"مسجد معراج","lat":29.17468,"lng":54.302322,"addr":"","type":"place_of_worship"},{"id":"xx291947_543155","name":"Islamic place","lat":29.194699,"lng":54.315517,"addr":"","type":"yes"},{"id":"xx278449_534485","name":"مسجد","lat":27.844922,"lng":53.4485,"addr":"","type":"yes"},{"id":"xx295560_505180","name":"مسجد گمرک","lat":29.556048,"lng":50.517978,"addr":"","type":"yes"},{"id":"xx295650_505139","name":"مسجد جامع","lat":29.565035,"lng":50.513902,"addr":"","type":"yes"},{"id":"xx295604_505142","name":"مسجد اهل تسنن","lat":29.560447,"lng":50.514163,"addr":"","type":"yes"},{"id":"xx298634_528113","name":"Islamic place","lat":29.863361,"lng":52.811324,"addr":"","type":"mosque"},{"id":"xx276781_543161","name":"مسجد دارالرحمه","lat":27.678081,"lng":54.316059,"addr":"","type":"yes"},{"id":"xx295680_505165","name":"حسینیه ثارالله","lat":29.567956,"lng":50.51651,"addr":"","type":"yes"},{"id":"xx295683_505207","name":"مسجد","lat":29.568259,"lng":50.520675,"addr":"","type":"yes"},{"id":"xx296103_505333","name":"آرامگاه سیدرضا","lat":29.610269,"lng":50.533279,"addr":"","type":"mausoleum"},{"id":"xx296109_505327","name":"آرامستان سیدرضا","lat":29.610862,"lng":50.53273,"addr":"","type":"mosque"},{"id":"xx295726_505190","name":"حسینیه امیرالمومنین","lat":29.572602,"lng":50.518979,"addr":"خیابان ثبت احوال","type":"husayniyyah"},{"id":"xx293819_511157","name":"مسجدامیرالمومنین","lat":29.381875,"lng":51.115704,"addr":"","type":"yes"},{"id":"xx292870_509584","name":"Islamic place","lat":29.286957,"lng":50.958401,"addr":"","type":"yes"},{"id":"xx296342_524956","name":"مسجد امام سجاد","lat":29.634216,"lng":52.495575,"addr":"بلوار مطهرى شمالى","type":"mosque"},{"id":"xx291266_540396","name":"مسجد جامع استهبان","lat":29.126601,"lng":54.039582,"addr":"","type":"yes"},{"id":"xx289301_536335","name":"مسجد دانشگاه","lat":28.930122,"lng":53.633525,"addr":"","type":"yes"},{"id":"xx296338_524695","name":"حسینیه عاشقان ثارالله","lat":29.633845,"lng":52.469457,"addr":"بلوار پاسداران","type":"yes"},{"id":"xx295930_533112","name":"مسجد جامع","lat":29.592984,"lng":53.311241,"addr":"","type":"mosque"},{"id":"xx295896_533146","name":"حسینیه سید الشهدا","lat":29.589628,"lng":53.314633,"addr":"","type":"religious"},{"id":"xx278558_534299","name":"دارالرحمه","lat":27.855809,"lng":53.429904,"addr":"","type":"mosque"},{"id":"xx294758_506353","name":"قبرستان بندرریگ","lat":29.47581,"lng":50.635332,"addr":"","type":"grave_yard"},{"id":"xx284691_535494","name":"گلزار شهدای گمنام","lat":28.469099,"lng":53.549413,"addr":"","type":"mosque"},{"id":"xx296108_525417","name":"مسجد نو","lat":29.610838,"lng":52.541663,"addr":"","type":"mosque"},{"id":"xx295102_544707","name":"امامزاده حسن","lat":29.510166,"lng":54.470685,"addr":"","type":"shrine"},{"id":"xx295935_532880","name":"مسجد","lat":29.593492,"lng":53.288036,"addr":"","type":"mosque"},{"id":"xx297511_524132","name":"مسجد خاتم الانبیا","lat":29.751132,"lng":52.413209,"addr":"","type":"yes"},{"id":"xx298316_502648","name":"حسینیه عاشقان ثارالله","lat":29.831552,"lng":50.26484,"addr":"","type":"mosque"},{"id":"xx296218_516347","name":"مسجد الزهرا","lat":29.621793,"lng":51.634687,"addr":"","type":"mosque"},{"id":"xx297595_524030","name":"مسجد و حسینیه سید الشهدا","lat":29.759491,"lng":52.402971,"addr":"","type":"mosque"},{"id":"xx295890_525346","name":"حسینیه آقاباباخان","lat":29.589021,"lng":52.534586,"addr":"","type":"yes"},{"id":"xx295847_525319","name":"مسجد امام محمد باقر","lat":29.584741,"lng":52.531857,"addr":"خیابان بنی هاشمی","type":"yes"},{"id":"xx295909_525208","name":"مسجد الزهرا","lat":29.590856,"lng":52.520835,"addr":"","type":"yes"},{"id":"xx295919_525172","name":"مسجد رضا","lat":29.591893,"lng":52.517171,"addr":"سپاه جنوبی","type":"yes"},{"id":"xx295848_525201","name":"مسجد ابوالفضل","lat":29.584826,"lng":52.520076,"addr":"","type":"yes"},{"id":"xx296242_525330","name":"نهاد نماینده مقام معظم رهبری در استان فارس و امام جمعه","lat":29.624237,"lng":52.53301,"addr":"","type":"mosque"},{"id":"xx297643_524845","name":"مسجد پیامبر اعظم (ص)","lat":29.764276,"lng":52.48445,"addr":"","type":"yes"},{"id":"xx299661_522386","name":"قبرستان خلار","lat":29.966136,"lng":52.238611,"addr":"","type":"mosque"},{"id":"xx299660_522392","name":"مسجد خلار","lat":29.966016,"lng":52.239224,"addr":"جاده خلار","type":"yes"},{"id":"xx298289_523945","name":"Islamic place","lat":29.828853,"lng":52.394524,"addr":"","type":"yes"},{"id":"xx298284_523959","name":"قبرستان گویم","lat":29.828408,"lng":52.395883,"addr":"","type":"mosque"},{"id":"xx295731_505106","name":"جایگاه نماز","lat":29.573113,"lng":50.510558,"addr":"","type":"yes"},{"id":"xx295870_505081","name":"آرامستان گناوه","lat":29.587002,"lng":50.50806,"addr":"","type":"mosque"},{"id":"xx295863_505084","name":"امامزاده سلیمان بن علی","lat":29.586288,"lng":50.508409,"addr":"مال سیدا","type":"shrine"},{"id":"xx295695_505113","name":"مسجدالنبی","lat":29.569547,"lng":50.511283,"addr":"","type":"yes"},{"id":"xx295819_505087","name":"مسجد حر خسروی","lat":29.581854,"lng":50.50868,"addr":"بلوارمعلم","type":"husayniyyah"},{"id":"xx284964_535444","name":"امام زاده حسین","lat":28.496415,"lng":53.544441,"addr":"","type":"place_of_worship"},{"id":"xx288152_529903","name":"مسجد ولی‌عصر","lat":28.815163,"lng":52.990344,"addr":"","type":"yes"},{"id":"xx288159_529904","name":"حسینیه سیدالشهدا","lat":28.815918,"lng":52.990427,"addr":"","type":"yes"},{"id":"xx288076_529952","name":"امامزاده سیدمعلم","lat":28.807605,"lng":52.995249,"addr":"","type":"shrine"},{"id":"xx292022_543289","name":"گلزار شهدا","lat":29.202182,"lng":54.328947,"addr":"","type":"grave_yard"},{"id":"xx295810_525203","name":"حسینیه خلاری ها","lat":29.581015,"lng":52.520348,"addr":"بلوار قائم","type":"yes"},{"id":"xx298832_528076","name":"مصلی نماز جمعه","lat":29.88319,"lng":52.807624,"addr":"","type":"mosque"},{"id":"xx289930_508299","name":"مسجدباباحاجی(بهبهانی)","lat":28.99301,"lng":50.829854,"addr":"","type":"yes"},{"id":"xx289940_508312","name":"مسجد کوفه(جوانان بهبهانی)","lat":28.993977,"lng":50.831186,"addr":"","type":"yes"},{"id":"xx289934_508312","name":"مسجد غریب(زنان بهبهانی)","lat":28.993374,"lng":50.831246,"addr":"","type":"yes"},{"id":"xx289915_508326","name":"مسجد سیدالشهدا  (شنبدی)","lat":28.991527,"lng":50.83258,"addr":"","type":"yes"},{"id":"xx289904_508320","name":"المجلسی شیخ حسن آل اصفور","lat":28.990431,"lng":50.832003,"addr":"","type":"yes"},{"id":"xx289904_508323","name":"مسجد جمعه","lat":28.990403,"lng":50.83232,"addr":"","type":"yes"},{"id":"xx289913_508303","name":"مسجد امام خمینی ره","lat":28.991317,"lng":50.830276,"addr":"","type":"yes"},{"id":"xx289887_508301","name":"مسجدجامع اهل سنت بوشهر","lat":28.988677,"lng":50.830112,"addr":"","type":"yes"},{"id":"xx289863_508290","name":"مسجد امام حسن مجتبی (مسجد فیل)","lat":28.986252,"lng":50.829037,"addr":"","type":"yes"},{"id":"xx289881_508318","name":"مسجد امام حسن عسگری کوی شنبدی (قصابها)","lat":28.988148,"lng":50.83182,"addr":"","type":"yes"},{"id":"xx289898_508346","name":"مسجد دهدشتی","lat":28.989781,"lng":50.834572,"addr":"","type":"yes"},{"id":"xx289888_508348","name":"مسجد دوانیها","lat":28.988779,"lng":50.834825,"addr":"","type":"yes"},{"id":"xx289883_508338","name":"مسجد فاطمه زهرا (پیرزن)","lat":28.988252,"lng":50.83382,"addr":"","type":"yes"},{"id":"xx265550_540217","name":"مسجد امیرالمومنین","lat":26.554958,"lng":54.021682,"addr":"میثم تمار","type":"yes"},{"id":"xx295663_505070","name":"مسجد","lat":29.566306,"lng":50.507039,"addr":"","type":"yes"},{"id":"xx297888_527171","name":"امامزاده شاهزاده قاسم","lat":29.788781,"lng":52.717075,"addr":"","type":"shrine"},{"id":"xx265753_549020","name":"مصلی امام جعفر صادق ع","lat":26.575342,"lng":54.902038,"addr":"","type":"yes"},{"id":"xx296144_525455","name":"مسجد وکیل","lat":29.614371,"lng":52.545477,"addr":"","type":"mosque"},{"id":"xx295806_525460","name":"گلزار دارالرحمه","lat":29.580577,"lng":52.546034,"addr":"","type":"mosque"},{"id":"xx295639_529068","name":"Islamic place","lat":29.563917,"lng":52.90681,"addr":"","type":"mosque"},{"id":"xx296242_516780","name":"بهشت زهرا","lat":29.624168,"lng":51.678004,"addr":"","type":"mosque"},{"id":"xx296129_525389","name":"امامزاده بی بی دختران","lat":29.612924,"lng":52.538943,"addr":"سنگ سیاه","type":"mausoleum"},{"id":"xx296085_525484","name":"مسجد نصیرالملک","lat":29.608531,"lng":52.54843,"addr":"","type":"yes"},{"id":"xx296121_525407","name":"مسجد بیت المهدی","lat":29.612139,"lng":52.540715,"addr":"","type":"mosque"},{"id":"xx298711_527945","name":"مسجد امام حسین","lat":29.871138,"lng":52.794451,"addr":"","type":"yes"},{"id":"xx299180_524414","name":"Islamic place","lat":29.917951,"lng":52.44136,"addr":"","type":"yes"},{"id":"xx296134_524630","name":"مسجد بقیه الله الاعظم","lat":29.613434,"lng":52.462992,"addr":"خیابان سروش شرقی","type":"yes"},{"id":"xx265536_548701","name":"بهشت زهرا","lat":26.553556,"lng":54.870067,"addr":"","type":"mosque"},{"id":"xx285018_535483","name":"امامزاده عبدالطیف","lat":28.501802,"lng":53.548339,"addr":"","type":"yes"},{"id":"xx284938_535695","name":"نماز جمعه","lat":28.493825,"lng":53.56952,"addr":"","type":"mosque"},{"id":"xx284818_535432","name":"مسجد الزهرا","lat":28.481771,"lng":53.543154,"addr":"","type":"yes"},{"id":"xx285013_535553","name":"مسجد اسد الدهر","lat":28.501344,"lng":53.555289,"addr":"","type":"yes"},{"id":"xx292720_512227","name":"آرامگاه برازجان","lat":29.272037,"lng":51.222746,"addr":"خیابان اسدی","type":"mosque"},{"id":"xx296293_525243","name":"مسجد الزهرا","lat":29.629284,"lng":52.524337,"addr":"","type":"yes"},{"id":"xx297831_527215","name":"آرامستان سید نسیمی","lat":29.783099,"lng":52.721505,"addr":"","type":"mosque"},{"id":"xx297708_527327","name":"آرامستان محله حیدر","lat":29.770845,"lng":52.732674,"addr":"","type":"mosque"},{"id":"xx265280_547949","name":"مسجد","lat":26.528023,"lng":54.794949,"addr":"","type":"yes"},{"id":"xx286612_513919","name":"مسجد","lat":28.661231,"lng":51.39194,"addr":"","type":"yes"},{"id":"xx291420_547005","name":"بهشت زهرا","lat":29.14202,"lng":54.700462,"addr":"","type":"mosque"},{"id":"xx292082_542934","name":"دارالرحمه","lat":29.208158,"lng":54.293382,"addr":"","type":"mosque"},{"id":"xx291412_547071","name":"حسینیه","lat":29.141176,"lng":54.707058,"addr":"","type":"yes"},{"id":"xx292025_543290","name":"امامزادگان حسن و حسین","lat":29.202502,"lng":54.329047,"addr":"","type":"shrine"},{"id":"xx291747_543022","name":"مسجد معراج","lat":29.174663,"lng":54.302167,"addr":"","type":"place_of_worship"},{"id":"xx291947_543154","name":"Islamic place","lat":29.194675,"lng":54.315446,"addr":"","type":"yes"},{"id":"xx298634_528112","name":"Islamic place","lat":29.863414,"lng":52.811239,"addr":"","type":"mosque"},{"id":"xx276781_543160","name":"مسجد دارالرحمه","lat":27.678098,"lng":54.316001,"addr":"","type":"yes"},{"id":"xx293818_511157","name":"مسجدامیرالمومنین","lat":29.381844,"lng":51.115661,"addr":"","type":"yes"},{"id":"xx296338_524694","name":"حسینیه عاشقان ثارالله","lat":29.633774,"lng":52.469372,"addr":"بلوار پاسداران","type":"yes"},{"id":"xx278557_534294","name":"دارالرحمه","lat":27.855685,"lng":53.42945,"addr":"","type":"mosque"},{"id":"xx294757_506349","name":"قبرستان بندرریگ","lat":29.47567,"lng":50.634903,"addr":"","type":"grave_yard"},{"id":"xx295101_544706","name":"امامزاده حسن","lat":29.510073,"lng":54.470592,"addr":"","type":"shrine"},{"id":"xx295934_532880","name":"مسجد","lat":29.593445,"lng":53.287989,"addr":"","type":"mosque"},{"id":"xx295847_525318","name":"مسجد امام محمد باقر","lat":29.584708,"lng":52.531825,"addr":"خیابان بنی هاشمی","type":"yes"},{"id":"xx295908_525208","name":"مسجد الزهرا","lat":29.590794,"lng":52.520754,"addr":"","type":"yes"},{"id":"xx295919_525171","name":"مسجد رضا","lat":29.591861,"lng":52.517124,"addr":"سپاه جنوبی","type":"yes"},{"id":"xx295848_525200","name":"مسجد ابوالفضل","lat":29.584819,"lng":52.520008,"addr":"","type":"yes"},{"id":"xx297643_524844","name":"مسجد پیامبر اعظم (ص)","lat":29.764302,"lng":52.48442,"addr":"","type":"yes"},{"id":"xx299660_522391","name":"مسجد خلار","lat":29.965961,"lng":52.239142,"addr":"جاده خلار","type":"yes"},{"id":"xx298283_523958","name":"قبرستان گویم","lat":29.828348,"lng":52.395795,"addr":"","type":"mosque"},{"id":"xx295870_505080","name":"آرامستان گناوه","lat":29.586951,"lng":50.507994,"addr":"","type":"mosque"},{"id":"xx295818_505087","name":"مسجد حر خسروی","lat":29.581789,"lng":50.508677,"addr":"بلوارمعلم","type":"husayniyyah"},{"id":"xx288151_529903","name":"مسجد ولی‌عصر","lat":28.815135,"lng":52.990327,"addr":"","type":"yes"},{"id":"xx298831_528076","name":"مصلی نماز جمعه","lat":29.883147,"lng":52.807565,"addr":"","type":"mosque"},{"id":"xx289930_508298","name":"مسجدباباحاجی(بهبهانی)","lat":28.993006,"lng":50.829845,"addr":"","type":"yes"},{"id":"xx289905_508320","name":"المجلسی شیخ حسن آل اصفور","lat":28.990455,"lng":50.831992,"addr":"","type":"yes"},{"id":"xx289862_508290","name":"مسجد امام حسن مجتبی (مسجد فیل)","lat":28.98624,"lng":50.829009,"addr":"","type":"yes"},{"id":"xx289883_508337","name":"مسجد فاطمه زهرا (پیرزن)","lat":28.988306,"lng":50.833743,"addr":"","type":"yes"},{"id":"xx265752_549018","name":"مصلی امام جعفر صادق ع","lat":26.575159,"lng":54.901823,"addr":"","type":"yes"},{"id":"xx277205_526625","name":"گلزار شهدای بخش اسیر","lat":27.72053,"lng":52.662451,"addr":"","type":"mosque"},{"id":"xx273489_531690","name":"گلزار شهدای کهوردان","lat":27.348858,"lng":53.168995,"addr":"","type":"mosque"},