[{"id":"xx266652_612673","name":"Islamic place","lat":26.665229,"lng":61.26734,"addr":"","type":"place_of_worship"},{"id":"xx294886_608696","name":"Islamic place","lat":29.488624,"lng":60.869646,"addr":"","type":"place_of_worship"},{"id":"xx262309_607381","name":"مسجد جامع قصرقند","lat":26.230879,"lng":60.738117,"addr":"قصرقند","type":"place_of_worship"},{"id":"xx262453_607490","name":"مسجد رحمانیه محله بگان","lat":26.245262,"lng":60.749004,"addr":"قصرقند","type":"place_of_worship"},{"id":"xx273212_623942","name":"مسجد جامع آسپیچ","lat":27.321165,"lng":62.394206,"addr":"","type":"place_of_worship"},{"id":"xx273267_623942","name":"مسجد فاروقیه آسپیچ","lat":27.326715,"lng":62.394156,"addr":"","type":"place_of_worship"},{"id":"xx294741_608411","name":"المهدی","lat":29.474109,"lng":60.841067,"addr":"شهید برفی","type":"place_of_worship"},{"id":"xx295003_608651","name":"حسینیه رضویه","lat":29.500285,"lng":60.865109,"addr":"","type":"place_of_worship"},{"id":"xx295147_608449","name":"مسجد ابوالفضل","lat":29.514711,"lng":60.844949,"addr":"زاهدان","type":"place_of_worship"},{"id":"xx294536_608930","name":"مسجد ابوذرغفاری","lat":29.453606,"lng":60.892977,"addr":"","type":"mosque"},{"id":"xx272694_619844","name":"گورکائین","lat":27.269413,"lng":61.984406,"addr":"","type":"place_of_worship"},{"id":"xx253951_603918","name":"Islamic place","lat":25.395131,"lng":60.391782,"addr":"","type":"place_of_worship"},{"id":"xx252959_606862","name":"مسجد امام حسن مجتبی (ع)","lat":25.29593,"lng":60.686244,"addr":"","type":"place_of_worship"},{"id":"xx273242_624053","name":"عیدگاه آسپیچ","lat":27.324221,"lng":62.405254,"addr":"","type":"place_of_worship"},{"id":"xx294956_608692","name":"حسینیه بیرجندی ها","lat":29.495646,"lng":60.869152,"addr":"طالقانی","type":"place_of_worship"},{"id":"xx294808_608577","name":"مسجد طالقانی","lat":29.480827,"lng":60.857707,"addr":"خیابان مسجد طالقانی","type":"place_of_worship"},{"id":"xx294628_608718","name":"مسجد امام حسین","lat":29.462843,"lng":60.871823,"addr":"ناصر خسرو","type":"mosque"},{"id":"xx295029_608480","name":"Islamic place","lat":29.502891,"lng":60.848042,"addr":"","type":"place_of_worship"},{"id":"xx294508_608921","name":"شهدای گمنام","lat":29.450805,"lng":60.892138,"addr":"","type":"place_of_worship"},{"id":"xx255834_601118","name":"Islamic place","lat":25.583419,"lng":60.11178,"addr":"","type":"place_of_worship"},{"id":"xx272201_605034","name":"Islamic place","lat":27.220086,"lng":60.503356,"addr":"","type":"place_of_worship"},{"id":"xx290187_614503","name":"مسجد جامع اهل بیت","lat":29.01868,"lng":61.450297,"addr":"","type":"place_of_worship"},{"id":"xx272034_606849","name":"مسجد طوبی","lat":27.203448,"lng":60.68486,"addr":"","type":"place_of_worship"},{"id":"xx272059_606930","name":"مسجد آل رسول","lat":27.205854,"lng":60.69303,"addr":"","type":"place_of_worship"},{"id":"xx272020_606953","name":"مسجد محمد رسوال الله","lat":27.201977,"lng":60.695327,"addr":"","type":"place_of_worship"},{"id":"xx271892_606795","name":"مسجد جامع نورانی","lat":27.189181,"lng":60.679502,"addr":"","type":"place_of_worship"},{"id":"xx271851_606934","name":"مسجد ابراهیم خلیل الله","lat":27.185124,"lng":60.693425,"addr":"","type":"place_of_worship"},{"id":"xx272175_606708","name":"عیدگاه اهل تسنن","lat":27.217456,"lng":60.670779,"addr":"","type":"place_of_worship"},{"id":"xx252854_606621","name":"Korsar","lat":25.285415,"lng":60.662075,"addr":"","type":"place_of_worship"},{"id":"xx282109_611976","name":"مسجد حضرت ابوالفضل","lat":28.210851,"lng":61.197574,"addr":"","type":"place_of_worship"},{"id":"xx282232_612084","name":"مسجد جامع توحیدیه","lat":28.223174,"lng":61.208402,"addr":"","type":"place_of_worship"},{"id":"xx272961_620061","name":"مسجد جامع سوران","lat":27.296052,"lng":62.006142,"addr":"","type":"place_of_worship"},{"id":"xx253646_613077","name":"Islamic place","lat":25.364619,"lng":61.307713,"addr":"","type":"place_of_worship"},{"id":"xx253364_613059","name":"Islamic place","lat":25.336361,"lng":61.305862,"addr":"","type":"place_of_worship"},{"id":"xx272021_606126","name":"مسجد دانشگاه","lat":27.202076,"lng":60.61264,"addr":"","type":"place_of_worship"},{"id":"xx272037_606620","name":"مسجد جامع اهل تشیع (مصلی فاطمه زهرا)","lat":27.20373,"lng":60.662028,"addr":"","type":"place_of_worship"},{"id":"xx272004_606548","name":"مسجد شهرک نامجو","lat":27.200423,"lng":60.654795,"addr":"","type":"place_of_worship"},{"id":"xx252923_606494","name":"مسجد قباه","lat":25.292275,"lng":60.649374,"addr":"","type":"place_of_worship"},{"id":"xx290123_614496","name":"مسجد نور اهل تسنن","lat":29.012293,"lng":61.449634,"addr":"","type":"place_of_worship"},{"id":"xx290118_614518","name":"مسجد توحید اهل سنت","lat":29.011784,"lng":61.451797,"addr":"","type":"place_of_worship"},{"id":"xx252902_606461","name":"مسجد امیر حمزه","lat":25.290193,"lng":60.646062,"addr":"","type":"place_of_worship"},{"id":"xx252970_606597","name":"مسجد بسم الله","lat":25.296964,"lng":60.659653,"addr":"","type":"place_of_worship"},{"id":"xx267131_601575","name":"Islamic place","lat":26.713131,"lng":60.15749,"addr":"","type":"mosque"},{"id":"xx264381_600515","name":"Islamic place","lat":26.438085,"lng":60.0515,"addr":"","type":"mosque"},{"id":"xx255833_602255","name":"Islamic place","lat":25.583324,"lng":60.225516,"addr":"","type":"mosque"},{"id":"xx254778_604179","name":"زین العابدین","lat":25.47775,"lng":60.417938,"addr":"","type":"mosque"},{"id":"xx252746_607757","name":"Islamic place","lat":25.27461,"lng":60.775659,"addr":"","type":"mosque"},{"id":"xx251367_614663","name":"Islamic place","lat":25.136704,"lng":61.466322,"addr":"","type":"mosque"},{"id":"xx270700_606647","name":"Islamic place","lat":27.07002,"lng":60.664744,"addr":"","type":"mosque"},{"id":"xx252549_608321","name":"Islamic place","lat":25.254904,"lng":60.832087,"addr":"","type":"mosque"},{"id":"xx294687_608281","name":"مسجد ولیعصر","lat":29.46874,"lng":60.828138,"addr":"زاهدان","type":"place_of_worship"},{"id":"xx294728_608425","name":"مسجد مالک الملک","lat":29.472812,"lng":60.842504,"addr":"شهید برفی","type":"place_of_worship"},{"id":"xx294715_608332","name":"مسجد امام محمد شیبانی","lat":29.471482,"lng":60.833187,"addr":"شهید برفی","type":"place_of_worship"},{"id":"xx294707_608325","name":"مسجد امام حسن عسکری","lat":29.470675,"lng":60.832496,"addr":"شهید برفی","type":"place_of_worship"},{"id":"xx252885_606884","name":"مسجد خاتم الانبیا","lat":25.288499,"lng":60.688385,"addr":"","type":"place_of_worship"},{"id":"xx277851_619620","name":"مسجد حضرت علی","lat":27.785071,"lng":61.961955,"addr":"","type":"place_of_worship"},{"id":"xx277864_619603","name":"دبستان شهید سرگرد دهقان","lat":27.786395,"lng":61.960291,"addr":"گشت","type":"school"},{"id":"xx277785_619476","name":"مجتمع فرهنگی شهید مولوی فیض محمد حسین‌بر","lat":27.778479,"lng":61.947559,"addr":"بلوار حضرت صاحب","type":"place_of_worship"},{"id":"xx277850_619557","name":"مسجد حضرت صدیق اکبر","lat":27.785021,"lng":61.955739,"addr":"خیابان حضرت صاحب","type":"place_of_worship"},{"id":"xx277923_619579","name":"مسجد امام حسین","lat":27.792331,"lng":61.957892,"addr":"","type":"place_of_worship"},{"id":"xx277903_619582","name":"دبیرستان امام جعفر صادق","lat":27.790342,"lng":61.958185,"addr":"گشت","type":"school"},{"id":"xx276939_614221","name":"حوزه علمیه دارالفیوض","lat":27.693893,"lng":61.422142,"addr":"","type":"school"},{"id":"xx276939_614216","name":"مسجد جامع مجتبی","lat":27.693861,"lng":61.421555,"addr":"حق آباد","type":"place_of_worship"},{"id":"xx276875_614311","name":"عیدگاه حق‌آباد","lat":27.687546,"lng":61.431129,"addr":"","type":"place_of_worship"},{"id":"xx276909_614238","name":"مسجد حضرت صاحب","lat":27.690892,"lng":61.42379,"addr":"حق آباد","type":"place_of_worship"},{"id":"xx274941_617330","name":"Islamic place","lat":27.494073,"lng":61.733004,"addr":"","type":"place_of_worship"},{"id":"xx276827_614824","name":"مسجد کتوران","lat":27.682665,"lng":61.482366,"addr":"","type":"place_of_worship"},{"id":"xx276866_614234","name":"مسجد ابوذر غفاری","lat":27.686625,"lng":61.423434,"addr":"حق‌آباد","type":"place_of_worship"},{"id":"xx278141_618043","name":"Islamic place","lat":27.814106,"lng":61.804251,"addr":"","type":"place_of_worship"},{"id":"xx276616_614761","name":"Islamic place","lat":27.66158,"lng":61.476128,"addr":"","type":"place_of_worship"},{"id":"xx277918_619403","name":"مسجد حضرت علی شهرک","lat":27.791812,"lng":61.940341,"addr":"","type":"place_of_worship"},{"id":"xx273819_623260","name":"دبیرستان نمونه شهید مطهری","lat":27.381896,"lng":62.326043,"addr":"بلوار معلم","type":"school"},{"id":"xx277904_619581","name":"دبیرستان شهید فیض محمد حسین‌بر","lat":27.790414,"lng":61.95814,"addr":"گشت","type":"school"},{"id":"xx298157_609208","name":"Islamic place","lat":29.815708,"lng":60.920812,"addr":"","type":"place_of_worship"},{"id":"xx273517_623680","name":"Imam Reza Mosque","lat":27.351677,"lng":62.368019,"addr":"","type":"place_of_worship"},{"id":"xx273456_623657","name":"مسجد خاتم الانبیا","lat":27.345558,"lng":62.365654,"addr":"","type":"place_of_worship"},{"id":"xx273434_623682","name":"مسجد امیر معاویه","lat":27.343374,"lng":62.368168,"addr":"","type":"place_of_worship"},{"id":"xx273315_623754","name":"مسجد جامع عمر فاروق","lat":27.33153,"lng":62.375352,"addr":"","type":"place_of_worship"},{"id":"xx273525_623430","name":"مسجد حضرت بلال","lat":27.352451,"lng":62.343018,"addr":"","type":"place_of_worship"},{"id":"xx273643_623406","name":"مسجد جامع نور","lat":27.36434,"lng":62.340553,"addr":"خیابان نبوت","type":"place_of_worship"},{"id":"xx273371_623661","name":"مسجد عثمانی","lat":27.337078,"lng":62.366096,"addr":"","type":"place_of_worship"},{"id":"xx273532_623418","name":"مسجد الاقصی","lat":27.353228,"lng":62.341782,"addr":"","type":"place_of_worship"},{"id":"xx273333_623715","name":"مسجد عمر فاروق","lat":27.333303,"lng":62.371513,"addr":"","type":"place_of_worship"},{"id":"xx273523_623389","name":"مسجد بسم الله","lat":27.352314,"lng":62.338856,"addr":"","type":"place_of_worship"},{"id":"xx273401_623681","name":"مسجد جامع","lat":27.340057,"lng":62.368095,"addr":"","type":"place_of_worship"},{"id":"xx273497_623651","name":"مسجد قبا","lat":27.349705,"lng":62.365112,"addr":"","type":"place_of_worship"},{"id":"xx273467_623395","name":"مسجد سید الانبیا","lat":27.346663,"lng":62.339485,"addr":"","type":"place_of_worship"},{"id":"xx273392_623640","name":"مسجد تاریخی دزک","lat":27.339153,"lng":62.364029,"addr":"","type":"place_of_worship"},{"id":"xx273387_623421","name":"مسجد جامع فاطمه الزهرا","lat":27.338749,"lng":62.342114,"addr":"","type":"place_of_worship"},{"id":"xx273367_623740","name":"مسجد جامع صدیق اکبر","lat":27.336653,"lng":62.373981,"addr":"","type":"place_of_worship"},{"id":"xx274119_622888","name":"Islamic place","lat":27.411894,"lng":62.288834,"addr":"","type":"place_of_worship"},{"id":"xx274040_622877","name":"مسجد حضرت یوسف","lat":27.404045,"lng":62.287685,"addr":"","type":"place_of_worship"},{"id":"xx274071_622912","name":"مسجد قدیمی هوشک","lat":27.407066,"lng":62.291164,"addr":"","type":"place_of_worship"},{"id":"xx272871_619821","name":"مسجد جامع کهن ملک","lat":27.287075,"lng":61.982052,"addr":"","type":"place_of_worship"},{"id":"xx272464_620501","name":"مسجد توحید","lat":27.246364,"lng":62.050089,"addr":"","type":"place_of_worship"},{"id":"xx272387_620486","name":"مسجد جامع گنک","lat":27.238714,"lng":62.048649,"addr":"","type":"place_of_worship"},{"id":"xx272427_620450","name":"مسجد مکی گنک","lat":27.242688,"lng":62.045038,"addr":"","type":"place_of_worship"},{"id":"xx272859_619950","name":"مسجد جامع سوران","lat":27.285946,"lng":61.994984,"addr":"","type":"place_of_worship"},{"id":"xx272816_619943","name":"مسجد بلال","lat":27.281571,"lng":61.994305,"addr":"","type":"place_of_worship"},{"id":"xx272844_619969","name":"مسجد نور","lat":27.284447,"lng":61.996891,"addr":"","type":"place_of_worship"},{"id":"xx271321_616723","name":"مسجد امام حسین","lat":27.132113,"lng":61.672275,"addr":"","type":"place_of_worship"},{"id":"xx271984_606913","name":"مسجد رحمان","lat":27.198414,"lng":60.691299,"addr":"","type":"place_of_worship"},{"id":"xx272003_606960","name":"مسجد رسول الله","lat":27.200331,"lng":60.695969,"addr":"","type":"place_of_worship"},{"id":"xx271865_606975","name":"مسجد سلمان فارسی","lat":27.186501,"lng":60.697536,"addr":"","type":"place_of_worship"},{"id":"xx271917_606972","name":"مسجد الغدیر","lat":27.191723,"lng":60.697166,"addr":"","type":"place_of_worship"},{"id":"xx272078_606927","name":"مسجد","lat":27.207792,"lng":60.692684,"addr":"","type":"place_of_worship"},{"id":"xx271940_607003","name":"مسجد جامع غریب‌آباد","lat":27.194031,"lng":60.700264,"addr":"","type":"place_of_worship"},{"id":"xx272162_606824","name":"مسجد الحسین","lat":27.216227,"lng":60.682415,"addr":"","type":"place_of_worship"},{"id":"xx272126_606781","name":"مسجد اهل بیت","lat":27.212566,"lng":60.678081,"addr":"","type":"place_of_worship"},{"id":"xx271970_606987","name":"مسجد","lat":27.19696,"lng":60.69865,"addr":"","type":"place_of_worship"},{"id":"xx252904_606409","name":"مسجد نور","lat":25.290358,"lng":60.640873,"addr":"","type":"place_of_worship"},{"id":"xx253010_606366","name":"مسجد حیدری","lat":25.301046,"lng":60.636601,"addr":"","type":"place_of_worship"},{"id":"xx253027_606435","name":"Islamic place","lat":25.302746,"lng":60.643536,"addr":"","type":"place_of_worship"},{"id":"xx252899_607029","name":"مسجد مکی","lat":25.289892,"lng":60.702919,"addr":"","type":"place_of_worship"},{"id":"xx252853_606905","name":"مسجد عثمان ابن علی","lat":25.285274,"lng":60.690506,"addr":"","type":"place_of_worship"},{"id":"xx253223_606290","name":"مسجد امام جعفر صادق","lat":25.322342,"lng":60.628979,"addr":"","type":"place_of_worship"},{"id":"xx252982_606285","name":"Islamic place","lat":25.298181,"lng":60.628468,"addr":"","type":"place_of_worship"},{"id":"xx252878_607075","name":"مسجد النبی","lat":25.287819,"lng":60.707489,"addr":"","type":"place_of_worship"},{"id":"xx253066_606359","name":"Islamic place","lat":25.30661,"lng":60.635948,"addr":"","type":"place_of_worship"},{"id":"xx253083_606263","name":"مسجد نبی اکرم","lat":25.30827,"lng":60.626331,"addr":"","type":"place_of_worship"},{"id":"xx252874_606421","name":"مسجد خاتم الانبیا","lat":25.287393,"lng":60.642141,"addr":"","type":"place_of_worship"},{"id":"xx252922_606255","name":"مسجد خضرا اهل سنت","lat":25.292215,"lng":60.625462,"addr":"","type":"place_of_worship"},{"id":"xx253002_606488","name":"مسجد ابوحنیفه","lat":25.300171,"lng":60.648838,"addr":"","type":"place_of_worship"},{"id":"xx252936_606371","name":"مسجد محمدی","lat":25.293591,"lng":60.637135,"addr":"","type":"place_of_worship"},{"id":"xx252897_606987","name":"مسجد حقانی","lat":25.289736,"lng":60.698706,"addr":"","type":"place_of_worship"},{"id":"xx253045_606430","name":"Islamic place","lat":25.304487,"lng":60.642961,"addr":"","type":"place_of_worship"},{"id":"xx253016_606394","name":"Islamic place","lat":25.301582,"lng":60.639366,"addr":"","type":"place_of_worship"},{"id":"xx252808_606978","name":"Islamic place","lat":25.280841,"lng":60.697805,"addr":"","type":"place_of_worship"},{"id":"xx252991_606463","name":"مسجد حضرت علی","lat":25.299124,"lng":60.646316,"addr":"","type":"place_of_worship"},{"id":"xx253048_606456","name":"مسجد امام حسین","lat":25.304777,"lng":60.645641,"addr":"","type":"place_of_worship"},{"id":"xx252878_607022","name":"مسجد امیر المومنین","lat":25.287819,"lng":60.702187,"addr":"","type":"place_of_worship"},{"id":"xx252840_607032","name":"مسجد حضرت علی","lat":25.284039,"lng":60.703238,"addr":"","type":"place_of_worship"},{"id":"xx252847_607107","name":"مسجد حضرت علی","lat":25.284674,"lng":60.710735,"addr":"","type":"place_of_worship"},{"id":"xx252894_606916","name":"مسجد زین‌العابدین","lat":25.289353,"lng":60.691603,"addr":"","type":"place_of_worship"},{"id":"xx252835_607075","name":"مسجد فاطمه الزهرا","lat":25.283498,"lng":60.707502,"addr":"","type":"place_of_worship"},{"id":"xx252924_606949","name":"مسجد نبی","lat":25.292413,"lng":60.694864,"addr":"","type":"place_of_worship"},{"id":"xx252821_607095","name":"مسجد آل رسول","lat":25.282089,"lng":60.709473,"addr":"","type":"place_of_worship"},{"id":"xx252921_606908","name":"مسجد فاروق اعظم","lat":25.292127,"lng":60.690824,"addr":"","type":"place_of_worship"},{"id":"xx252898_606933","name":"مسجد چهاریار","lat":25.289785,"lng":60.693279,"addr":"","type":"place_of_worship"},{"id":"xx268430_601725","name":"مسجد نور","lat":26.843018,"lng":60.172516,"addr":"","type":"place_of_worship"},{"id":"xx273822_623429","name":"مسجد ابراهیم خلیل الله","lat":27.382195,"lng":62.342853,"addr":"","type":"place_of_worship"},{"id":"xx273830_623189","name":"مسجد امام حسن","lat":27.383026,"lng":62.318932,"addr":"","type":"place_of_worship"},{"id":"xx295194_608850","name":"مسجد امام هادی","lat":29.519377,"lng":60.885021,"addr":"","type":"place_of_worship"},{"id":"xx253571_603974","name":"مسجد توحیدی","lat":25.357064,"lng":60.397405,"addr":"","type":"place_of_worship"},{"id":"xx253621_603155","name":"Islamic place","lat":25.362087,"lng":60.315468,"addr":"","type":"place_of_worship"},{"id":"xx253578_603173","name":"مسجد حضرت بلال","lat":25.357832,"lng":60.317272,"addr":"","type":"place_of_worship"},{"id":"xx278568_601803","name":"مسجد جامع بزمان","lat":27.856758,"lng":60.180286,"addr":"","type":"place_of_worship"},{"id":"xx253543_603132","name":"مسجد توحیدی","lat":25.354299,"lng":60.313164,"addr":"","type":"place_of_worship"},{"id":"xx253564_603171","name":"Islamic place","lat":25.35643,"lng":60.317129,"addr":"","type":"place_of_worship"},{"id":"xx253548_604015","name":"مسجد جامع کنارک","lat":25.354767,"lng":60.401451,"addr":"","type":"place_of_worship"},{"id":"xx253522_604009","name":"Islamic place","lat":25.352182,"lng":60.400898,"addr":"","type":"place_of_worship"},{"id":"xx253493_603975","name":"مسجد امام ابوحنیفه","lat":25.349281,"lng":60.397457,"addr":"","type":"place_of_worship"},{"id":"xx253576_603933","name":"مسجد امام علی","lat":25.357599,"lng":60.393345,"addr":"","type":"place_of_worship"},{"id":"xx277054_613954","name":"مسجد","lat":27.70537,"lng":61.395403,"addr":"","type":"place_of_worship"},{"id":"xx276464_613291","name":"مسجد","lat":27.646431,"lng":61.329067,"addr":"","type":"place_of_worship"},{"id":"xx276733_613401","name":"مسجد پیرسیر","lat":27.673274,"lng":61.340147,"addr":"","type":"place_of_worship"},{"id":"xx277065_613926","name":"مسجد گلکوشن","lat":27.706491,"lng":61.392567,"addr":"","type":"place_of_worship"},{"id":"xx277087_613914","name":"مسجد","lat":27.708653,"lng":61.391415,"addr":"","type":"place_of_worship"},{"id":"xx276788_614495","name":"مسجد","lat":27.678802,"lng":61.449463,"addr":"","type":"place_of_worship"},{"id":"xx276949_614156","name":"مسجد","lat":27.694934,"lng":61.415638,"addr":"","type":"place_of_worship"},{"id":"xx276766_614488","name":"مسجد اکبرآباد","lat":27.676634,"lng":61.448833,"addr":"","type":"place_of_worship"},{"id":"xx276738_614605","name":"مسجد","lat":27.673761,"lng":61.460487,"addr":"","type":"place_of_worship"},{"id":"xx276612_614730","name":"مسجد جامع","lat":27.661184,"lng":61.473038,"addr":"","type":"place_of_worship"},{"id":"xx276824_614777","name":"مسجد","lat":27.682407,"lng":61.477745,"addr":"","type":"place_of_worship"},{"id":"xx276804_614800","name":"مسجد کتوران","lat":27.680414,"lng":61.480003,"addr":"","type":"place_of_worship"},{"id":"xx276583_614821","name":"مسجد","lat":27.658302,"lng":61.482098,"addr":"","type":"place_of_worship"},{"id":"xx276585_614795","name":"مسجد امام حسین","lat":27.658474,"lng":61.479549,"addr":"","type":"place_of_worship"},{"id":"xx276169_615604","name":"خاتم الانبیا","lat":27.61692,"lng":61.560429,"addr":"","type":"place_of_worship"},{"id":"xx276138_615576","name":"مسجد","lat":27.613813,"lng":61.557602,"addr":"","type":"place_of_worship"},{"id":"xx276094_615629","name":"مسجد سرسوره","lat":27.609413,"lng":61.562862,"addr":"","type":"place_of_worship"},{"id":"xx280110_616459","name":"مسجد گیدبست","lat":28.011038,"lng":61.645872,"addr":"","type":"place_of_worship"},{"id":"xx295172_608817","name":"مسجد امام ابوحنیفه","lat":29.517199,"lng":60.881702,"addr":"","type":"place_of_worship"},{"id":"xx280203_615474","name":"مسجد","lat":28.020267,"lng":61.547401,"addr":"","type":"place_of_worship"},{"id":"xx257888_614863","name":"مسجد مریم","lat":25.788821,"lng":61.486326,"addr":"","type":"place_of_worship"},{"id":"xx273839_623171","name":"دبستان آزادی بخشان","lat":27.383901,"lng":62.317143,"addr":"","type":"school"},{"id":"xx273843_623174","name":"دبیرستان اقبال لاهوری بخشان","lat":27.384293,"lng":62.317417,"addr":"","type":"school"},{"id":"xx273576_623678","name":"مسجد الرحمن","lat":27.35755,"lng":62.367812,"addr":"","type":"place_of_worship"},{"id":"xx271283_618295","name":"Islamic place","lat":27.128255,"lng":61.829491,"addr":"","type":"place_of_worship"},{"id":"xx273445_623801","name":"مرکز جماعت تبلیغ","lat":27.344506,"lng":62.380085,"addr":"","type":"place_of_worship"},{"id":"xx276092_615999","name":"Islamic place","lat":27.609218,"lng":61.599858,"addr":"","type":"place_of_worship"},{"id":"xx273985_618133","name":"Islamic place","lat":27.398542,"lng":61.813288,"addr":"","type":"place_of_worship"},{"id":"xx273730_620232","name":"Islamic place","lat":27.372997,"lng":62.023171,"addr":"","type":"place_of_worship"},{"id":"xx282249_612068","name":"مسجد نور","lat":28.224941,"lng":61.206768,"addr":"","type":"place_of_worship"},{"id":"xx285401_607601","name":"مسجد جامع نوک آباد","lat":28.540148,"lng":60.76014,"addr":"","type":"place_of_worship"},{"id":"xx271446_615901","name":"مسجد آل رسول","lat":27.144637,"lng":61.590085,"addr":"","type":"place_of_worship"},{"id":"xx277888_619510","name":"مسجد عمر فاروق","lat":27.788848,"lng":61.950986,"addr":"","type":"place_of_worship"},{"id":"xx251386_611893","name":"مسجد جامع بریس","lat":25.13859,"lng":61.189266,"addr":"","type":"place_of_worship"},{"id":"xx277892_619537","name":"مسجد فاروقیه","lat":27.789165,"lng":61.953664,"addr":"","type":"place_of_worship"},{"id":"xx272087_606692","name":"Islamic place","lat":27.208681,"lng":60.669174,"addr":"","type":"place_of_worship"},{"id":"xx272058_606675","name":"Islamic place","lat":27.205836,"lng":60.667496,"addr":"","type":"place_of_worship"},{"id":"xx288843_603806","name":"مسجد سرجنگل","lat":28.884264,"lng":60.380617,"addr":"","type":"place_of_worship"},{"id":"xx279160_616524","name":"Islamic place","lat":27.915957,"lng":61.652449,"addr":"","type":"place_of_worship"},{"id":"xx271178_628331","name":"Islamic place","lat":27.117795,"lng":62.833108,"addr":"","type":"place_of_worship"},{"id":"xx271087_628346","name":"Islamic place","lat":27.108692,"lng":62.83462,"addr":"","type":"place_of_worship"},{"id":"xx271085_628375","name":"Islamic place","lat":27.108525,"lng":62.837543,"addr":"","type":"place_of_worship"},{"id":"xx277733_619494","name":"مصلای شهر گشت","lat":27.773271,"lng":61.949374,"addr":"","type":"place_of_worship"},{"id":"xx277096_619247","name":"Islamic place","lat":27.709645,"lng":61.92468,"addr":"","type":"place_of_worship"},{"id":"xx252933_606602","name":"Islamic place","lat":25.293285,"lng":60.660223,"addr":"","type":"place_of_worship"},{"id":"xx282755_613802","name":"Islamic place","lat":28.275524,"lng":61.380196,"addr":"","type":"place_of_worship"},{"id":"xx280908_617747","name":"مسجد بندران","lat":28.090754,"lng":61.774721,"addr":"","type":"place_of_worship"},{"id":"xx277897_619522","name":"مسجد","lat":27.789687,"lng":61.952189,"addr":"","type":"place_of_worship"},{"id":"xx273671_623360","name":"مسجد جامع حضرت علی بن ابی طالب","lat":27.367072,"lng":62.336024,"addr":"","type":"place_of_worship"},{"id":"xx273565_623216","name":"Islamic place","lat":27.356489,"lng":62.321564,"addr":"","type":"place_of_worship"},{"id":"xx273633_623233","name":"Islamic place","lat":27.363264,"lng":62.323315,"addr":"","type":"place_of_worship"},{"id":"xx273371_623978","name":"Islamic place","lat":27.337144,"lng":62.397846,"addr":"","type":"place_of_worship"},{"id":"xx275181_621760","name":"Islamic place","lat":27.51815,"lng":62.175964,"addr":"","type":"place_of_worship"},{"id":"xx277887_619512","name":"مسجد عمر فاروق","lat":27.788694,"lng":61.951177,"addr":"","type":"place_of_worship"},{"id":"xx273677_623380","name":"مسجد اصحاب","lat":27.367743,"lng":62.337982,"addr":"","type":"place_of_worship"},{"id":"xx277882_619578","name":"مسجد جامع خواجه","lat":27.788232,"lng":61.957759,"addr":"خیابان حضرت صاحب","type":"place_of_worship"},{"id":"xx275616_616308","name":"Islamic place","lat":27.561564,"lng":61.630777,"addr":"","type":"place_of_worship"},{"id":"xx251382_611948","name":"Islamic place","lat":25.138232,"lng":61.194752,"addr":"","type":"place_of_worship"},{"id":"xx266392_604888","name":"مصلا و عیدگاه چانف","lat":26.639233,"lng":60.488823,"addr":"","type":"place_of_worship"},{"id":"xx273142_623660","name":"Islamic place","lat":27.314249,"lng":62.366017,"addr":"","type":"place_of_worship"},{"id":"xx277884_619586","name":"حوزه عین العلوم","lat":27.788442,"lng":61.958649,"addr":"","type":"school"},{"id":"xx277193_620212","name":"Islamic place","lat":27.719322,"lng":62.021234,"addr":"","type":"place_of_worship"},{"id":"xx277370_619950","name":"Islamic place","lat":27.736982,"lng":61.994998,"addr":"","type":"place_of_worship"},{"id":"xx273753_623373","name":"مسجد سیدالشهدا حمزه","lat":27.375327,"lng":62.33726,"addr":"","type":"place_of_worship"},{"id":"xx283877_605194","name":"Islamic place","lat":28.387745,"lng":60.519362,"addr":"","type":"place_of_worship"},{"id":"xx273846_623222","name":"مسجد النبی","lat":27.384572,"lng":62.322168,"addr":"معلم","type":"place_of_worship"},{"id":"xx274596_618220","name":"Islamic place","lat":27.459626,"lng":61.822034,"addr":"","type":"place_of_worship"},{"id":"xx277907_610657","name":"Islamic place","lat":27.790749,"lng":61.065703,"addr":"","type":"place_of_worship"},{"id":"xx280190_615458","name":"Islamic place","lat":28.019034,"lng":61.545778,"addr":"","type":"place_of_worship"},{"id":"xx280976_614893","name":"Islamic place","lat":28.097606,"lng":61.489309,"addr":"","type":"place_of_worship"},{"id":"xx273735_623323","name":"مسجد امام ابوحنیفه","lat":27.373489,"lng":62.332323,"addr":"","type":"place_of_worship"},{"id":"xx273883_623201","name":"Islamic place","lat":27.388319,"lng":62.320124,"addr":"","type":"place_of_worship"},{"id":"xx271451_633195","name":"Islamic place","lat":27.145098,"lng":63.319469,"addr":"","type":"place_of_worship"},{"id":"xx275733_611321","name":"Islamic place","lat":27.573346,"lng":61.132087,"addr":"","type":"place_of_worship"},{"id":"xx275369_611928","name":"Islamic place","lat":27.536937,"lng":61.192842,"addr":"","type":"place_of_worship"},{"id":"xx275168_611926","name":"Islamic place","lat":27.516844,"lng":61.192615,"addr":"","type":"place_of_worship"},{"id":"xx254912_611784","name":"مسجد جامع نوبندیان","lat":25.491155,"lng":61.178395,"addr":"","type":"place_of_worship"},{"id":"xx278385_619573","name":"Islamic place","lat":27.8385,"lng":61.957286,"addr":"","type":"place_of_worship"},{"id":"xx266697_611795","name":"Islamic place","lat":26.669676,"lng":61.179465,"addr":"","type":"place_of_worship"},{"id":"xx266732_611992","name":"Islamic place","lat":26.673245,"lng":61.199232,"addr":"","type":"place_of_worship"},{"id":"xx266720_612016","name":"Islamic place","lat":26.672038,"lng":61.201561,"addr":"","type":"place_of_worship"},{"id":"xx266813_612097","name":"Islamic place","lat":26.681256,"lng":61.209658,"addr":"","type":"place_of_worship"},{"id":"xx266811_612126","name":"Islamic place","lat":26.681072,"lng":61.212557,"addr":"","type":"place_of_worship"},{"id":"xx266811_611916","name":"Islamic place","lat":26.681115,"lng":61.19156,"addr":"","type":"place_of_worship"},{"id":"xx266724_611719","name":"Islamic place","lat":26.672394,"lng":61.171929,"addr":"","type":"place_of_worship"},{"id":"xx262447_605413","name":"Islamic place","lat":26.244696,"lng":60.541264,"addr":"","type":"place_of_worship"},{"id":"xx254111_609064","name":"Islamic place","lat":25.411061,"lng":60.906369,"addr":"","type":"place_of_worship"},{"id":"xx254618_609487","name":"Islamic place","lat":25.461817,"lng":60.948658,"addr":"","type":"place_of_worship"},{"id":"xx256185_609336","name":"Islamic place","lat":25.618475,"lng":60.933551,"addr":"","type":"place_of_worship"},{"id":"xx254337_608271","name":"Islamic place","lat":25.433651,"lng":60.82705,"addr":"","type":"place_of_worship"},{"id":"xx254712_609415","name":"Islamic place","lat":25.471237,"lng":60.941544,"addr":"","type":"place_of_worship"},{"id":"xx255934_609002","name":"Islamic place","lat":25.593378,"lng":60.900192,"addr":"","type":"place_of_worship"},{"id":"xx262374_613965","name":"Islamic place","lat":26.23743,"lng":61.396486,"addr":"","type":"place_of_worship"},{"id":"xx254099_607813","name":"Islamic place","lat":25.409869,"lng":60.78127,"addr":"","type":"place_of_worship"},{"id":"xx253787_608770","name":"Islamic place","lat":25.378659,"lng":60.876978,"addr":"","type":"place_of_worship"},{"id":"xx261271_615211","name":"Islamic place","lat":26.127066,"lng":61.521074,"addr":"","type":"place_of_worship"},{"id":"xx261294_615139","name":"Islamic place","lat":26.129444,"lng":61.513917,"addr":"","type":"place_of_worship"},{"id":"xx261382_614803","name":"Islamic place","lat":26.138161,"lng":61.480341,"addr":"","type":"place_of_worship"},{"id":"xx261335_614762","name":"Islamic place","lat":26.133533,"lng":61.476172,"addr":"","type":"place_of_worship"},{"id":"xx261307_615196","name":"Islamic place","lat":26.130749,"lng":61.519556,"addr":"","type":"place_of_worship"},{"id":"xx261271_615123","name":"Islamic place","lat":26.127147,"lng":61.512317,"addr":"","type":"place_of_worship"},{"id":"xx261769_614448","name":"Islamic place","lat":26.176937,"lng":61.444767,"addr":"","type":"place_of_worship"},{"id":"xx254643_609472","name":"Islamic place","lat":25.464258,"lng":60.947242,"addr":"","type":"place_of_worship"},{"id":"xx262351_613991","name":"Islamic place","lat":26.235145,"lng":61.399147,"addr":"","type":"place_of_worship"},{"id":"xx261245_615145","name":"Islamic place","lat":26.124516,"lng":61.514483,"addr":"","type":"place_of_worship"},{"id":"xx261950_614371","name":"Islamic place","lat":26.194973,"lng":61.437139,"addr":"","type":"place_of_worship"},{"id":"xx273657_623533","name":"مسجد حضرت محمد رسول‌الله","lat":27.365727,"lng":62.353283,"addr":"","type":"place_of_worship"},{"id":"xx276142_615660","name":"Islamic place","lat":27.614241,"lng":61.565951,"addr":"","type":"place_of_worship"},{"id":"xx264216_600712","name":"Islamic place","lat":26.42162,"lng":60.071182,"addr":"","type":"place_of_worship"},{"id":"xx286909_611559","name":"Islamic place","lat":28.690902,"lng":61.155873,"addr":"","type":"place_of_worship"},{"id":"xx252811_607258","name":"Islamic place","lat":25.281107,"lng":60.72585,"addr":"","type":"place_of_worship"},{"id":"xx252788_607308","name":"Islamic place","lat":25.27881,"lng":60.730846,"addr":"","type":"place_of_worship"},{"id":"xx277563_619498","name":"مسجد جلال‌آباد","lat":27.75631,"lng":61.949833,"addr":"","type":"place_of_worship"},{"id":"xx278186_618012","name":"Islamic place","lat":27.818584,"lng":61.801247,"addr":"","type":"place_of_worship"},{"id":"xx277997_618422","name":"مسجد هوت‌آباد","lat":27.799675,"lng":61.842159,"addr":"","type":"place_of_worship"},{"id":"xx277446_620226","name":"Islamic place","lat":27.744623,"lng":62.022621,"addr":"","type":"place_of_worship"},{"id":"xx279170_616182","name":"Islamic place","lat":27.917046,"lng":61.618229,"addr":"","type":"place_of_worship"},{"id":"xx279109_616562","name":"Islamic place","lat":27.910881,"lng":61.656219,"addr":"","type":"place_of_worship"},{"id":"xx288511_607034","name":"مسجد بین راهی","lat":28.851088,"lng":60.703417,"addr":"","type":"place_of_worship"},{"id":"xx279583_616018","name":"Islamic place","lat":27.958302,"lng":61.601768,"addr":"","type":"place_of_worship"},{"id":"xx280185_627138","name":"Islamic place","lat":28.018477,"lng":62.713788,"addr":"","type":"place_of_worship"},{"id":"xx280050_627453","name":"Islamic place","lat":28.005032,"lng":62.745293,"addr":"","type":"place_of_worship"},{"id":"xx274879_627873","name":"Islamic place","lat":27.487922,"lng":62.787263,"addr":"","type":"place_of_worship"},{"id":"xx274700_627998","name":"Islamic place","lat":27.470016,"lng":62.799773,"addr":"","type":"place_of_worship"},{"id":"xx274278_627775","name":"Islamic place","lat":27.427752,"lng":62.777455,"addr":"","type":"place_of_worship"},{"id":"xx274317_627792","name":"Islamic place","lat":27.431719,"lng":62.779166,"addr":"","type":"place_of_worship"},{"id":"xx270442_625203","name":"Islamic place","lat":27.044189,"lng":62.520317,"addr":"","type":"place_of_worship"},{"id":"xx263675_612904","name":"Islamic place","lat":26.367465,"lng":61.290365,"addr":"","type":"place_of_worship"},{"id":"xx263996_616420","name":"Islamic place","lat":26.399628,"lng":61.642047,"addr":"","type":"place_of_worship"},{"id":"xx251373_614662","name":"Islamic place","lat":25.137284,"lng":61.466228,"addr":"","type":"place_of_worship"},{"id":"xx275937_627106","name":"Islamic place","lat":27.593748,"lng":62.71061,"addr":"","type":"place_of_worship"},{"id":"xx275122_624106","name":"Islamic place","lat":27.512199,"lng":62.410602,"addr":"","type":"place_of_worship"},{"id":"xx275191_623733","name":"Islamic place","lat":27.519139,"lng":62.373334,"addr":"","type":"place_of_worship"},{"id":"xx276078_627046","name":"Islamic place","lat":27.607803,"lng":62.704552,"addr":"","type":"place_of_worship"},{"id":"xx276026_627052","name":"Islamic place","lat":27.602629,"lng":62.705228,"addr":"","type":"place_of_worship"},{"id":"xx273325_625790","name":"Islamic place","lat":27.332519,"lng":62.579021,"addr":"","type":"place_of_worship"},{"id":"xx273228_624044","name":"Islamic place","lat":27.322797,"lng":62.404406,"addr":"","type":"place_of_worship"},{"id":"xx279602_608140","name":"Islamic place","lat":27.960159,"lng":60.813983,"addr":"","type":"place_of_worship"},{"id":"xx279556_608215","name":"Islamic place","lat":27.9556,"lng":60.821547,"addr":"","type":"place_of_worship"},{"id":"xx278985_607958","name":"Islamic place","lat":27.898481,"lng":60.795758,"addr":"","type":"place_of_worship"},{"id":"xx271294_608843","name":"Islamic place","lat":27.129354,"lng":60.884295,"addr":"","type":"place_of_worship"},{"id":"xx271322_608821","name":"Islamic place","lat":27.132178,"lng":60.882139,"addr":"","type":"place_of_worship"},{"id":"xx271474_607757","name":"Islamic place","lat":27.147419,"lng":60.775678,"addr":"","type":"place_of_worship"},{"id":"xx264658_612582","name":"Islamic place","lat":26.465762,"lng":61.258245,"addr":"","type":"place_of_worship"},{"id":"xx263772_612818","name":"Islamic place","lat":26.377205,"lng":61.28178,"addr":"","type":"place_of_worship"},{"id":"xx275624_616282","name":"Islamic place","lat":27.56239,"lng":61.628166,"addr":"","type":"place_of_worship"},{"id":"xx275662_616312","name":"Islamic place","lat":27.566246,"lng":61.631228,"addr":"","type":"place_of_worship"},{"id":"xx275609_616388","name":"Islamic place","lat":27.560892,"lng":61.638807,"addr":"","type":"place_of_worship"},{"id":"xx274248_617565","name":"Islamic place","lat":27.424777,"lng":61.756547,"addr":"","type":"place_of_worship"},{"id":"xx274221_617685","name":"Islamic place","lat":27.422056,"lng":61.768546,"addr":"","type":"place_of_worship"},{"id":"xx274172_617753","name":"Islamic place","lat":27.417196,"lng":61.77534,"addr":"","type":"place_of_worship"},{"id":"xx274014_617729","name":"Islamic place","lat":27.401394,"lng":61.772877,"addr":"","type":"place_of_worship"},{"id":"xx273920_618413","name":"Islamic place","lat":27.391951,"lng":61.84133,"addr":"","type":"place_of_worship"},{"id":"xx276465_615213","name":"Islamic place","lat":27.646531,"lng":61.521276,"addr":"","type":"place_of_worship"},{"id":"xx275599_616290","name":"Islamic place","lat":27.559884,"lng":61.62897,"addr":"","type":"place_of_worship"},{"id":"xx275505_616258","name":"Islamic place","lat":27.550521,"lng":61.625752,"addr":"","type":"place_of_worship"},{"id":"xx275449_616304","name":"Islamic place","lat":27.544862,"lng":61.630389,"addr":"","type":"place_of_worship"},{"id":"xx276140_615600","name":"Islamic place","lat":27.614032,"lng":61.559966,"addr":"","type":"place_of_worship"},{"id":"xx276171_615633","name":"Islamic place","lat":27.617115,"lng":61.563348,"addr":"","type":"place_of_worship"},{"id":"xx260250_611879","name":"Islamic place","lat":26.024997,"lng":61.187888,"addr":"","type":"place_of_worship"},{"id":"xx271163_616224","name":"Islamic place","lat":27.116298,"lng":61.622427,"addr":"","type":"place_of_worship"},{"id":"xx271316_616691","name":"Islamic place","lat":27.131612,"lng":61.669053,"addr":"","type":"place_of_worship"},{"id":"xx271250_616675","name":"Islamic place","lat":27.124974,"lng":61.667483,"addr":"","type":"place_of_worship"},{"id":"xx271229_616614","name":"Islamic place","lat":27.122855,"lng":61.661417,"addr":"","type":"place_of_worship"},{"id":"xx272502_609355","name":"Islamic place","lat":27.250245,"lng":60.935497,"addr":"","type":"place_of_worship"},{"id":"xx272516_609369","name":"Islamic place","lat":27.251589,"lng":60.936928,"addr":"","type":"place_of_worship"},{"id":"xx280159_613404","name":"Islamic place","lat":28.015877,"lng":61.340446,"addr":"","type":"place_of_worship"},{"id":"xx280214_613404","name":"Islamic place","lat":28.021372,"lng":61.340363,"addr":"","type":"place_of_worship"},{"id":"xx274577_611063","name":"Islamic place","lat":27.457679,"lng":61.106303,"addr":"","type":"place_of_worship"},{"id":"xx273810_623383","name":"Islamic place","lat":27.380978,"lng":62.338281,"addr":"","type":"place_of_worship"},{"id":"xx273801_623389","name":"Islamic place","lat":27.380089,"lng":62.338912,"addr":"","type":"place_of_worship"},{"id":"xx294919_608493","name":"Islamic place","lat":29.491878,"lng":60.849313,"addr":"","type":"place_of_worship"},{"id":"xx275569_616352","name":"Islamic place","lat":27.556944,"lng":61.635178,"addr":"","type":"place_of_worship"},{"id":"xx271200_617670","name":"Islamic place","lat":27.119972,"lng":61.767005,"addr":"","type":"place_of_worship"},{"id":"xx271009_617253","name":"Islamic place","lat":27.100887,"lng":61.725274,"addr":"","type":"place_of_worship"},{"id":"xx270988_617247","name":"Islamic place","lat":27.098795,"lng":61.724748,"addr":"","type":"place_of_worship"},{"id":"xx271187_616787","name":"Islamic place","lat":27.118744,"lng":61.678653,"addr":"","type":"place_of_worship"},{"id":"xx271259_616875","name":"Islamic place","lat":27.125909,"lng":61.687529,"addr":"","type":"place_of_worship"},{"id":"xx271183_616835","name":"Islamic place","lat":27.118336,"lng":61.683544,"addr":"","type":"place_of_worship"},{"id":"xx271174_616613","name":"Islamic place","lat":27.117366,"lng":61.661259,"addr":"","type":"place_of_worship"},{"id":"xx271357_616775","name":"Islamic place","lat":27.135683,"lng":61.677467,"addr":"جمهوری","type":"place_of_worship"},{"id":"xx273783_623215","name":"مسجد عطایی","lat":27.378268,"lng":62.321513,"addr":"","type":"place_of_worship"},{"id":"xx277814_610798","name":"Islamic place","lat":27.781357,"lng":61.079816,"addr":"","type":"place_of_worship"},{"id":"xx278597_611220","name":"Islamic place","lat":27.859671,"lng":61.121966,"addr":"","type":"place_of_worship"},{"id":"xx277860_612996","name":"Islamic place","lat":27.785985,"lng":61.299586,"addr":"","type":"place_of_worship"},{"id":"xx278013_610573","name":"Islamic place","lat":27.801278,"lng":61.057262,"addr":"","type":"place_of_worship"},{"id":"xx278473_610980","name":"Islamic place","lat":27.847286,"lng":61.098039,"addr":"","type":"place_of_worship"},{"id":"xx278442_611001","name":"Islamic place","lat":27.844173,"lng":61.100105,"addr":"","type":"place_of_worship"},{"id":"xx277324_613667","name":"Islamic place","lat":27.732433,"lng":61.366682,"addr":"","type":"place_of_worship"},{"id":"xx272435_620716","name":"Islamic place","lat":27.24349,"lng":62.071562,"addr":"","type":"place_of_worship"},{"id":"xx291407_602446","name":"Islamic place","lat":29.140684,"lng":60.244588,"addr":"","type":"place_of_worship"},{"id":"xx291368_602408","name":"Islamic place","lat":29.136806,"lng":60.240777,"addr":"","type":"place_of_worship"},{"id":"xx291518_602489","name":"Islamic place","lat":29.151761,"lng":60.248855,"addr":"","type":"place_of_worship"},{"id":"xx291360_602382","name":"Islamic place","lat":29.135979,"lng":60.238186,"addr":"","type":"place_of_worship"},{"id":"xx291116_602863","name":"Islamic place","lat":29.111567,"lng":60.286265,"addr":"","type":"place_of_worship"},{"id":"xx291102_602760","name":"Islamic place","lat":29.110206,"lng":60.275989,"addr":"","type":"place_of_worship"},{"id":"xx291156_602896","name":"Islamic place","lat":29.115586,"lng":60.289565,"addr":"","type":"place_of_worship"},{"id":"xx290225_604183","name":"Islamic place","lat":29.0225,"lng":60.418251,"addr":"","type":"place_of_worship"},{"id":"xx270886_606709","name":"Islamic place","lat":27.088566,"lng":60.670909,"addr":"","type":"place_of_worship"},{"id":"xx290569_611106","name":"Islamic place","lat":29.056899,"lng":61.110622,"addr":"","type":"place_of_worship"},{"id":"xx286201_604110","name":"Islamic place","lat":28.620133,"lng":60.411012,"addr":"","type":"place_of_worship"},{"id":"xx286078_604109","name":"Islamic place","lat":28.60781,"lng":60.410893,"addr":"","type":"place_of_worship"},{"id":"xx286144_604173","name":"Islamic place","lat":28.614428,"lng":60.417263,"addr":"","type":"place_of_worship"},{"id":"xx255801_600798","name":"Islamic place","lat":25.580133,"lng":60.079772,"addr":"","type":"place_of_worship"},{"id":"xx255930_600966","name":"Islamic place","lat":25.592992,"lng":60.096604,"addr":"جلال آباد","type":"place_of_worship"},{"id":"xx255881_601215","name":"Islamic place","lat":25.588082,"lng":60.121485,"addr":"","type":"place_of_worship"},{"id":"xx255874_601284","name":"Islamic place","lat":25.587433,"lng":60.128401,"addr":"","type":"place_of_worship"},{"id":"xx255266_602995","name":"Islamic place","lat":25.526568,"lng":60.299499,"addr":"","type":"place_of_worship"},{"id":"xx255225_602964","name":"Islamic place","lat":25.52249,"lng":60.29638,"addr":"","type":"place_of_worship"},{"id":"xx264308_617642","name":"Islamic place","lat":26.430773,"lng":61.764248,"addr":"مورتک","type":"place_of_worship"},{"id":"xx264340_617664","name":"Islamic place","lat":26.434027,"lng":61.766351,"addr":"","type":"place_of_worship"},{"id":"xx264197_617620","name":"Islamic place","lat":26.419747,"lng":61.762018,"addr":"","type":"place_of_worship"},{"id":"xx264834_619047","name":"Islamic place","lat":26.48344,"lng":61.904666,"addr":"","type":"place_of_worship"},{"id":"xx265088_622802","name":"Islamic place","lat":26.508781,"lng":62.280248,"addr":"","type":"place_of_worship"},{"id":"xx269294_620464","name":"Islamic place","lat":26.929406,"lng":62.04643,"addr":"","type":"place_of_worship"},{"id":"xx270061_619641","name":"Islamic place","lat":27.006065,"lng":61.964073,"addr":"","type":"place_of_worship"},{"id":"xx264217_616637","name":"Islamic place","lat":26.421655,"lng":61.663691,"addr":"","type":"place_of_worship"},{"id":"xx281647_611657","name":"Islamic place","lat":28.164694,"lng":61.165736,"addr":"","type":"place_of_worship"},{"id":"xx281673_610147","name":"Islamic place","lat":28.167276,"lng":61.014725,"addr":"","type":"place_of_worship"},{"id":"xx281508_611193","name":"Islamic place","lat":28.150825,"lng":61.119339,"addr":"","type":"place_of_worship"},{"id":"xx279152_610797","name":"Islamic place","lat":27.915178,"lng":61.079742,"addr":"","type":"place_of_worship"},{"id":"xx278756_610964","name":"Islamic place","lat":27.875591,"lng":61.096443,"addr":"","type":"place_of_worship"},{"id":"xx278705_610978","name":"Islamic place","lat":27.870507,"lng":61.097815,"addr":"","type":"place_of_worship"},{"id":"xx278483_609573","name":"Islamic place","lat":27.848335,"lng":60.957278,"addr":"","type":"place_of_worship"},{"id":"xx278169_609598","name":"Islamic place","lat":27.81691,"lng":60.959779,"addr":"","type":"place_of_worship"},{"id":"xx278133_609583","name":"Islamic place","lat":27.813331,"lng":60.958255,"addr":"","type":"place_of_worship"},{"id":"xx275894_607862","name":"Islamic place","lat":27.589367,"lng":60.786192,"addr":"","type":"place_of_worship"},{"id":"xx275895_607833","name":"Islamic place","lat":27.589503,"lng":60.783326,"addr":"","type":"place_of_worship"},{"id":"xx274661_608296","name":"Islamic place","lat":27.466126,"lng":60.829602,"addr":"","type":"place_of_worship"},{"id":"xx274108_608293","name":"Islamic place","lat":27.410836,"lng":60.829302,"addr":"","type":"place_of_worship"},{"id":"xx274253_608347","name":"Islamic place","lat":27.425274,"lng":60.834739,"addr":"","type":"place_of_worship"},{"id":"xx274465_608342","name":"Islamic place","lat":27.446521,"lng":60.834229,"addr":"","type":"place_of_worship"},{"id":"xx274293_608238","name":"Islamic place","lat":27.429317,"lng":60.823751,"addr":"","type":"place_of_worship"},{"id":"xx274139_608215","name":"Islamic place","lat":27.413869,"lng":60.821518,"addr":"","type":"place_of_worship"},{"id":"xx274091_608170","name":"Islamic place","lat":27.40907,"lng":60.81701,"addr":"","type":"place_of_worship"},{"id":"xx271910_617564","name":"Islamic place","lat":27.190961,"lng":61.756407,"addr":"","type":"place_of_worship"},{"id":"xx271983_617409","name":"Islamic place","lat":27.198303,"lng":61.740893,"addr":"","type":"place_of_worship"},{"id":"xx272532_607228","name":"Islamic place","lat":27.253223,"lng":60.722782,"addr":"","type":"place_of_worship"},{"id":"xx272542_607196","name":"Islamic place","lat":27.254153,"lng":60.719555,"addr":"","type":"place_of_worship"},{"id":"xx272520_607236","name":"Islamic place","lat":27.252,"lng":60.72359,"addr":"","type":"place_of_worship"},{"id":"xx272363_606880","name":"Islamic place","lat":27.236295,"lng":60.688039,"addr":"","type":"place_of_worship"},{"id":"xx272417_607013","name":"Islamic place","lat":27.241721,"lng":60.70133,"addr":"","type":"place_of_worship"},{"id":"xx272411_606856","name":"Islamic place","lat":27.241105,"lng":60.685558,"addr":"","type":"place_of_worship"},{"id":"xx271418_617056","name":"Islamic place","lat":27.141787,"lng":61.705649,"addr":"","type":"place_of_worship"},{"id":"xx289135_612057","name":"Islamic place","lat":28.913469,"lng":61.205659,"addr":"","type":"place_of_worship"},{"id":"xx289112_612894","name":"Islamic place","lat":28.911155,"lng":61.289397,"addr":"","type":"place_of_worship"},{"id":"xx274580_623485","name":"Islamic place","lat":27.458024,"lng":62.348456,"addr":"","type":"place_of_worship"},{"id":"xx289031_614008","name":"Islamic place","lat":28.903066,"lng":61.400766,"addr":"","type":"place_of_worship"},{"id":"xx274883_616944","name":"Islamic place","lat":27.488308,"lng":61.694365,"addr":"","type":"place_of_worship"},{"id":"xx274204_616189","name":"Islamic place","lat":27.420449,"lng":61.618883,"addr":"","type":"place_of_worship"},{"id":"xx274498_616654","name":"Islamic place","lat":27.449845,"lng":61.665415,"addr":"","type":"place_of_worship"},{"id":"xx274438_616059","name":"Islamic place","lat":27.443841,"lng":61.605887,"addr":"","type":"place_of_worship"},{"id":"xx273723_623349","name":"Islamic place","lat":27.372318,"lng":62.334878,"addr":"","type":"place_of_worship"},{"id":"xx269289_605393","name":"Islamic place","lat":26.928897,"lng":60.539316,"addr":"","type":"place_of_worship"},{"id":"xx270711_606613","name":"Islamic place","lat":27.071053,"lng":60.661251,"addr":"","type":"place_of_worship"},{"id":"xx271805_606715","name":"Islamic place","lat":27.180472,"lng":60.671506,"addr":"","type":"place_of_worship"},{"id":"xx271792_606470","name":"Islamic place","lat":27.1792,"lng":60.646956,"addr":"","type":"place_of_worship"},{"id":"xx271723_606689","name":"Islamic place","lat":27.172295,"lng":60.668935,"addr":"","type":"place_of_worship"},{"id":"xx271579_606624","name":"Islamic place","lat":27.157932,"lng":60.662424,"addr":"","type":"place_of_worship"},{"id":"xx271069_606767","name":"Islamic place","lat":27.106897,"lng":60.676695,"addr":"","type":"place_of_worship"},{"id":"xx273401_623462","name":"Islamic place","lat":27.340117,"lng":62.346224,"addr":"","type":"place_of_worship"},{"id":"xx273249_623433","name":"Islamic place","lat":27.324934,"lng":62.343271,"addr":"","type":"place_of_worship"},{"id":"xx273343_623392","name":"Islamic place","lat":27.334336,"lng":62.339203,"addr":"","type":"place_of_worship"},{"id":"xx274007_622930","name":"Islamic place","lat":27.400714,"lng":62.293006,"addr":"","type":"place_of_worship"},{"id":"xx265852_600202","name":"Islamic place","lat":26.585195,"lng":60.020172,"addr":"","type":"place_of_worship"},{"id":"xx265851_600228","name":"Islamic place","lat":26.585131,"lng":60.022838,"addr":"","type":"place_of_worship"},{"id":"xx265891_600499","name":"Islamic place","lat":26.5891,"lng":60.049879,"addr":"","type":"place_of_worship"},{"id":"xx266292_601184","name":"Islamic place","lat":26.629203,"lng":60.118419,"addr":"","type":"place_of_worship"},{"id":"xx266247_601176","name":"Islamic place","lat":26.624705,"lng":60.117589,"addr":"","type":"place_of_worship"},{"id":"xx266342_601188","name":"Islamic place","lat":26.634154,"lng":60.118752,"addr":"","type":"place_of_worship"},{"id":"xx266728_601613","name":"Islamic place","lat":26.672767,"lng":60.16127,"addr":"","type":"place_of_worship"},{"id":"xx267183_601568","name":"Islamic place","lat":26.718331,"lng":60.15684,"addr":"","type":"place_of_worship"},{"id":"xx267153_601541","name":"Islamic place","lat":26.71531,"lng":60.1541,"addr":"","type":"place_of_worship"},{"id":"xx266962_602349","name":"Islamic place","lat":26.69623,"lng":60.234924,"addr":"","type":"place_of_worship"},{"id":"xx267533_601687","name":"Islamic place","lat":26.753302,"lng":60.168658,"addr":"","type":"place_of_worship"},{"id":"xx267772_601801","name":"Islamic place","lat":26.77721,"lng":60.180125,"addr":"","type":"place_of_worship"},{"id":"xx267994_601725","name":"Islamic place","lat":26.799391,"lng":60.172474,"addr":"","type":"place_of_worship"},{"id":"xx268339_601731","name":"Islamic place","lat":26.833931,"lng":60.173109,"addr":"","type":"place_of_worship"},{"id":"xx268916_602044","name":"Islamic place","lat":26.891552,"lng":60.204359,"addr":"","type":"place_of_worship"},{"id":"xx269069_601735","name":"Islamic place","lat":26.906925,"lng":60.173468,"addr":"","type":"place_of_worship"},{"id":"xx282954_604065","name":"Islamic place","lat":28.29544,"lng":60.406548,"addr":"","type":"place_of_worship"},{"id":"xx283021_604093","name":"Islamic place","lat":28.302078,"lng":60.40925,"addr":"","type":"place_of_worship"},{"id":"xx283536_604718","name":"Islamic place","lat":28.353636,"lng":60.471816,"addr":"","type":"place_of_worship"},{"id":"xx283553_604745","name":"Islamic place","lat":28.355344,"lng":60.474514,"addr":"","type":"place_of_worship"},{"id":"xx283573_604833","name":"Islamic place","lat":28.357258,"lng":60.483312,"addr":"","type":"place_of_worship"},{"id":"xx295247_607039","name":"Islamic place","lat":29.524664,"lng":60.703883,"addr":"","type":"place_of_worship"},{"id":"xx295337_606966","name":"Islamic place","lat":29.533707,"lng":60.696601,"addr":"","type":"place_of_worship"},{"id":"xx296041_606518","name":"Islamic place","lat":29.604097,"lng":60.65179,"addr":"","type":"place_of_worship"},{"id":"xx293969_605469","name":"Islamic place","lat":29.396879,"lng":60.546927,"addr":"","type":"place_of_worship"},{"id":"xx273816_617926","name":"مسجد ابوبکر صدیق","lat":27.381643,"lng":61.79261,"addr":"","type":"place_of_worship"},{"id":"xx275666_616247","name":"Islamic place","lat":27.566605,"lng":61.624714,"addr":"","type":"place_of_worship"},{"id":"xx275493_616289","name":"Islamic place","lat":27.549265,"lng":61.628918,"addr":"","type":"place_of_worship"},{"id":"xx254842_611602","name":"Islamic place","lat":25.484195,"lng":61.160225,"addr":"","type":"place_of_worship"},{"id":"xx252970_606894","name":"Islamic place","lat":25.296982,"lng":60.689431,"addr":"","type":"place_of_worship"},{"id":"xx253123_607323","name":"Islamic place","lat":25.312264,"lng":60.73225,"addr":"","type":"place_of_worship"},{"id":"xx272206_600759","name":"Islamic place","lat":27.220576,"lng":60.075866,"addr":"","type":"place_of_worship"},{"id":"xx271855_603652","name":"Islamic place","lat":27.185532,"lng":60.365204,"addr":"","type":"place_of_worship"},{"id":"xx264426_620291","name":"Islamic place","lat":26.442576,"lng":62.029128,"addr":"","type":"place_of_worship"},{"id":"xx288285_616252","name":"Islamic place","lat":28.828545,"lng":61.625155,"addr":"","type":"place_of_worship"},{"id":"xx287925_616421","name":"Islamic place","lat":28.792489,"lng":61.642064,"addr":"","type":"place_of_worship"},{"id":"xx287815_616549","name":"Islamic place","lat":28.781492,"lng":61.65492,"addr":"","type":"place_of_worship"},{"id":"xx287803_616660","name":"Islamic place","lat":28.780282,"lng":61.665998,"addr":"","type":"place_of_worship"},{"id":"xx287702_616784","name":"Islamic place","lat":28.770234,"lng":61.67844,"addr":"","type":"place_of_worship"},{"id":"xx287542_616969","name":"Islamic place","lat":28.754212,"lng":61.696942,"addr":"","type":"place_of_worship"},{"id":"xx287543_616936","name":"Islamic place","lat":28.754285,"lng":61.693606,"addr":"","type":"place_of_worship"},{"id":"xx287564_616988","name":"Islamic place","lat":28.75642,"lng":61.698771,"addr":"","type":"place_of_worship"},{"id":"xx287540_616990","name":"Islamic place","lat":28.753985,"lng":61.698951,"addr":"","type":"place_of_worship"},{"id":"xx286273_618281","name":"Islamic place","lat":28.627335,"lng":61.82807,"addr":"","type":"place_of_worship"},{"id":"xx286170_618345","name":"Islamic place","lat":28.616955,"lng":61.834458,"addr":"","type":"place_of_worship"},{"id":"xx284923_619651","name":"Islamic place","lat":28.492289,"lng":61.965097,"addr":"","type":"place_of_worship"},{"id":"xx284938_619609","name":"Islamic place","lat":28.493773,"lng":61.960866,"addr":"","type":"place_of_worship"},{"id":"xx284904_619617","name":"Islamic place","lat":28.490355,"lng":61.961693,"addr":"","type":"place_of_worship"},{"id":"xx273022_625168","name":"Islamic place","lat":27.302217,"lng":62.516808,"addr":"","type":"place_of_worship"},{"id":"xx272978_625190","name":"Islamic place","lat":27.297809,"lng":62.518966,"addr":"","type":"place_of_worship"},{"id":"xx272984_624502","name":"Islamic place","lat":27.298445,"lng":62.450152,"addr":"","type":"place_of_worship"},{"id":"xx273067_624536","name":"Islamic place","lat":27.306659,"lng":62.453632,"addr":"","type":"place_of_worship"},{"id":"xx273391_623784","name":"Islamic place","lat":27.339114,"lng":62.378405,"addr":"","type":"place_of_worship"},{"id":"xx273292_623784","name":"Islamic place","lat":27.32921,"lng":62.378395,"addr":"","type":"place_of_worship"},{"id":"xx273278_623846","name":"Islamic place","lat":27.327785,"lng":62.384629,"addr":"","type":"place_of_worship"},{"id":"xx273307_623877","name":"Islamic place","lat":27.330725,"lng":62.387728,"addr":"","type":"place_of_worship"},{"id":"xx273234_623874","name":"Islamic place","lat":27.323425,"lng":62.387376,"addr":"","type":"place_of_worship"},{"id":"xx273223_623892","name":"Islamic place","lat":27.3223,"lng":62.389212,"addr":"","type":"place_of_worship"},{"id":"xx273217_623918","name":"Islamic place","lat":27.32166,"lng":62.391787,"addr":"","type":"place_of_worship"},{"id":"xx292370_606456","name":"Islamic place","lat":29.237019,"lng":60.64559,"addr":"","type":"place_of_worship"},{"id":"xx282235_607284","name":"Islamic place","lat":28.22347,"lng":60.72844,"addr":"","type":"place_of_worship"},{"id":"xx282227_607401","name":"Islamic place","lat":28.222675,"lng":60.740131,"addr":"","type":"place_of_worship"},{"id":"xx280577_607802","name":"Islamic place","lat":28.057682,"lng":60.780178,"addr":"","type":"place_of_worship"},{"id":"xx280569_608319","name":"Islamic place","lat":28.056864,"lng":60.831881,"addr":"","type":"place_of_worship"},{"id":"xx280557_609147","name":"Islamic place","lat":28.055744,"lng":60.914726,"addr":"","type":"place_of_worship"},{"id":"xx280647_609422","name":"Islamic place","lat":28.064721,"lng":60.942206,"addr":"","type":"place_of_worship"},{"id":"xx280760_609821","name":"Islamic place","lat":28.07603,"lng":60.982097,"addr":"","type":"place_of_worship"},{"id":"xx281606_612642","name":"Islamic place","lat":28.160562,"lng":61.264209,"addr":"","type":"place_of_worship"},{"id":"xx261299_615308","name":"Islamic place","lat":26.129858,"lng":61.530811,"addr":"","type":"place_of_worship"},{"id":"xx260798_616874","name":"Islamic place","lat":26.079839,"lng":61.687407,"addr":"","type":"place_of_worship"},{"id":"xx260817_616950","name":"Islamic place","lat":26.081682,"lng":61.69495,"addr":"","type":"place_of_worship"},{"id":"xx260836_616909","name":"Islamic place","lat":26.083583,"lng":61.690892,"addr":"","type":"place_of_worship"},{"id":"xx260682_616986","name":"Islamic place","lat":26.068176,"lng":61.698624,"addr":"","type":"place_of_worship"},{"id":"xx260790_617446","name":"Islamic place","lat":26.07902,"lng":61.744608,"addr":"","type":"place_of_worship"},{"id":"xx260778_617458","name":"Islamic place","lat":26.077777,"lng":61.745837,"addr":"","type":"place_of_worship"},{"id":"xx260815_617580","name":"Islamic place","lat":26.081522,"lng":61.758001,"addr":"","type":"place_of_worship"},{"id":"xx260795_617560","name":"Islamic place","lat":26.079522,"lng":61.755999,"addr":"","type":"place_of_worship"},{"id":"xx260847_617622","name":"Islamic place","lat":26.084685,"lng":61.76221,"addr":"","type":"place_of_worship"},{"id":"xx260801_617608","name":"Islamic place","lat":26.080136,"lng":61.760819,"addr":"","type":"place_of_worship"},{"id":"xx260872_617478","name":"Islamic place","lat":26.087234,"lng":61.747762,"addr":"","type":"place_of_worship"},{"id":"xx260743_617396","name":"Islamic place","lat":26.074273,"lng":61.739641,"addr":"","type":"place_of_worship"},{"id":"xx260841_617499","name":"Islamic place","lat":26.08407,"lng":61.749922,"addr":"","type":"place_of_worship"},{"id":"xx260753_617012","name":"Islamic place","lat":26.075307,"lng":61.701214,"addr":"","type":"place_of_worship"},{"id":"xx260872_617033","name":"Islamic place","lat":26.087184,"lng":61.703256,"addr":"","type":"place_of_worship"},{"id":"xx295749_608620","name":"Islamic place","lat":29.574873,"lng":60.862031,"addr":"","type":"place_of_worship"},{"id":"xx252984_606767","name":"مسجد امام شافعی","lat":25.298361,"lng":60.676728,"addr":"","type":"place_of_worship"},{"id":"xx252851_607012","name":"Islamic place","lat":25.28508,"lng":60.70118,"addr":"","type":"place_of_worship"},{"id":"xx252770_607272","name":"Islamic place","lat":25.277049,"lng":60.727166,"addr":"","type":"place_of_worship"},{"id":"xx252827_607239","name":"Islamic place","lat":25.282733,"lng":60.723887,"addr":"","type":"place_of_worship"},{"id":"xx252748_607536","name":"Islamic place","lat":25.274832,"lng":60.753619,"addr":"","type":"place_of_worship"},{"id":"xx268248_626408","name":"Islamic place","lat":26.82476,"lng":62.640804,"addr":"","type":"place_of_worship"},{"id":"xx268321_626331","name":"Islamic place","lat":26.832106,"lng":62.633098,"addr":"","type":"place_of_worship"},{"id":"xx266414_604967","name":"Islamic place","lat":26.641434,"lng":60.496654,"addr":"","type":"place_of_worship"},{"id":"xx265822_605197","name":"Islamic place","lat":26.582204,"lng":60.519699,"addr":"","type":"place_of_worship"},{"id":"xx265920_605379","name":"Islamic place","lat":26.591952,"lng":60.537878,"addr":"","type":"place_of_worship"},{"id":"xx266079_605514","name":"Islamic place","lat":26.607932,"lng":60.551416,"addr":"","type":"place_of_worship"},{"id":"xx265884_605556","name":"Islamic place","lat":26.588403,"lng":60.555645,"addr":"","type":"place_of_worship"},{"id":"xx265339_607575","name":"Islamic place","lat":26.533909,"lng":60.757453,"addr":"","type":"place_of_worship"},{"id":"xx265472_607836","name":"Islamic place","lat":26.547235,"lng":60.783608,"addr":"","type":"place_of_worship"},{"id":"xx265576_607787","name":"Islamic place","lat":26.557592,"lng":60.77867,"addr":"","type":"place_of_worship"},{"id":"xx264908_606596","name":"Islamic place","lat":26.490776,"lng":60.659563,"addr":"","type":"place_of_worship"},{"id":"xx264800_607350","name":"Islamic place","lat":26.479955,"lng":60.735038,"addr":"","type":"place_of_worship"},{"id":"xx264985_607530","name":"Islamic place","lat":26.498454,"lng":60.753038,"addr":"","type":"place_of_worship"},{"id":"xx264348_607516","name":"Islamic place","lat":26.43475,"lng":60.75164,"addr":"","type":"place_of_worship"},{"id":"xx265063_605644","name":"Islamic place","lat":26.506286,"lng":60.564376,"addr":"","type":"place_of_worship"},{"id":"xx262549_607652","name":"Islamic place","lat":26.254875,"lng":60.765231,"addr":"","type":"place_of_worship"},{"id":"xx262551_607608","name":"Islamic place","lat":26.255101,"lng":60.760784,"addr":"","type":"place_of_worship"},{"id":"xx262116_607682","name":"Islamic place","lat":26.21156,"lng":60.768182,"addr":"","type":"place_of_worship"},{"id":"xx262233_607581","name":"Islamic place","lat":26.223253,"lng":60.758092,"addr":"","type":"place_of_worship"},{"id":"xx254142_609111","name":"Islamic place","lat":25.414241,"lng":60.911121,"addr":"","type":"place_of_worship"},{"id":"xx254015_609074","name":"Islamic place","lat":25.4015,"lng":60.907402,"addr":"","type":"place_of_worship"},{"id":"xx254433_609066","name":"Islamic place","lat":25.443308,"lng":60.906631,"addr":"","type":"place_of_worship"},{"id":"xx254674_609442","name":"Islamic place","lat":25.467416,"lng":60.944161,"addr":"","type":"place_of_worship"},{"id":"xx260150_608875","name":"Islamic place","lat":26.014979,"lng":60.887528,"addr":"","type":"place_of_worship"},{"id":"xx255776_609026","name":"Islamic place","lat":25.577637,"lng":60.90256,"addr":"","type":"place_of_worship"},{"id":"xx286069_613532","name":"Islamic place","lat":28.606869,"lng":61.353222,"addr":"","type":"place_of_worship"},{"id":"xx285655_612989","name":"Islamic place","lat":28.565519,"lng":61.298899,"addr":"","type":"place_of_worship"},{"id":"xx283997_612023","name":"Islamic place","lat":28.399681,"lng":61.202265,"addr":"","type":"place_of_worship"},{"id":"xx268408_627663","name":"Islamic place","lat":26.840825,"lng":62.766285,"addr":"","type":"place_of_worship"},{"id":"xx288681_603557","name":"Islamic place","lat":28.868116,"lng":60.355705,"addr":"","type":"place_of_worship"},{"id":"xx269214_626927","name":"Islamic place","lat":26.921415,"lng":62.692653,"addr":"","type":"place_of_worship"},{"id":"xx288583_603550","name":"Islamic place","lat":28.85827,"lng":60.35497,"addr":"","type":"place_of_worship"},{"id":"xx268933_625933","name":"Islamic place","lat":26.893273,"lng":62.593329,"addr":"","type":"place_of_worship"},{"id":"xx268045_627594","name":"Islamic place","lat":26.804532,"lng":62.759389,"addr":"","type":"place_of_worship"},{"id":"xx268126_627629","name":"Islamic place","lat":26.812562,"lng":62.762899,"addr":"","type":"place_of_worship"},{"id":"xx267788_626512","name":"Islamic place","lat":26.778773,"lng":62.651214,"addr":"","type":"place_of_worship"},{"id":"xx270387_623127","name":"Islamic place","lat":27.038743,"lng":62.312729,"addr":"","type":"place_of_worship"},{"id":"xx266474_601825","name":"Islamic place","lat":26.647418,"lng":60.182499,"addr":"","type":"place_of_worship"},{"id":"xx266450_601772","name":"Islamic place","lat":26.644969,"lng":60.177155,"addr":"","type":"place_of_worship"},{"id":"xx268813_604244","name":"Islamic place","lat":26.881267,"lng":60.42436,"addr":"","type":"place_of_worship"},{"id":"xx271842_606407","name":"Islamic place","lat":27.184184,"lng":60.640715,"addr":"","type":"place_of_worship"},{"id":"xx271801_606397","name":"Islamic place","lat":27.180141,"lng":60.639654,"addr":"","type":"place_of_worship"},{"id":"xx293795_608780","name":"Islamic place","lat":29.379542,"lng":60.878006,"addr":"","type":"place_of_worship"},{"id":"xx293846_608705","name":"Islamic place","lat":29.38457,"lng":60.870512,"addr":"","type":"place_of_worship"},{"id":"xx293286_608458","name":"Islamic place","lat":29.32861,"lng":60.8458,"addr":"","type":"place_of_worship"},{"id":"xx292958_608510","name":"Islamic place","lat":29.295816,"lng":60.85096,"addr":"","type":"place_of_worship"},{"id":"xx292758_608406","name":"مسجد خلفای راشدین","lat":29.275767,"lng":60.840601,"addr":"","type":"place_of_worship"},{"id":"xx292860_608257","name":"Islamic place","lat":29.285992,"lng":60.825718,"addr":"","type":"place_of_worship"},{"id":"xx292890_608328","name":"Islamic place","lat":29.288967,"lng":60.832764,"addr":"","type":"place_of_worship"},{"id":"xx292935_608233","name":"Islamic place","lat":29.293529,"lng":60.82334,"addr":"","type":"place_of_worship"},{"id":"xx293035_608274","name":"Islamic place","lat":29.303469,"lng":60.827403,"addr":"","type":"place_of_worship"},{"id":"xx292881_608007","name":"Islamic place","lat":29.288126,"lng":60.800722,"addr":"","type":"place_of_worship"},{"id":"xx292550_608164","name":"مسجد حضرت حمزه","lat":29.25497,"lng":60.816429,"addr":"","type":"place_of_worship"},{"id":"xx292177_608081","name":"Islamic place","lat":29.217713,"lng":60.808068,"addr":"","type":"place_of_worship"},{"id":"xx291781_608342","name":"Islamic place","lat":29.178102,"lng":60.834175,"addr":"","type":"place_of_worship"},{"id":"xx292344_609228","name":"Islamic place","lat":29.234436,"lng":60.922845,"addr":"","type":"place_of_worship"},{"id":"xx293404_608889","name":"Islamic place","lat":29.340417,"lng":60.888895,"addr":"","type":"place_of_worship"},{"id":"xx293340_608847","name":"Islamic place","lat":29.333984,"lng":60.884661,"addr":"","type":"place_of_worship"},{"id":"xx293935_609059","name":"Islamic place","lat":29.3935,"lng":60.905877,"addr":"","type":"place_of_worship"},{"id":"xx292939_608736","name":"Islamic place","lat":29.293865,"lng":60.873596,"addr":"","type":"place_of_worship"},{"id":"xx292842_608037","name":"Islamic place","lat":29.28416,"lng":60.803663,"addr":"","type":"place_of_worship"},{"id":"xx273428_623604","name":"Islamic place","lat":27.342766,"lng":62.360372,"addr":"","type":"place_of_worship"},{"id":"xx273399_623700","name":"Islamic place","lat":27.339864,"lng":62.369981,"addr":"","type":"place_of_worship"},{"id":"xx273476_623716","name":"Islamic place","lat":27.347624,"lng":62.371564,"addr":"","type":"place_of_worship"},{"id":"xx272006_605640","name":"Islamic place","lat":27.200641,"lng":60.564004,"addr":"","type":"place_of_worship"},{"id":"xx271968_605519","name":"Islamic place","lat":27.196753,"lng":60.551908,"addr":"","type":"place_of_worship"},{"id":"xx271954_605749","name":"Islamic place","lat":27.195422,"lng":60.57485,"addr":"","type":"place_of_worship"},{"id":"xx271994_605660","name":"Islamic place","lat":27.199372,"lng":60.566006,"addr":"","type":"place_of_worship"},{"id":"xx272009_605683","name":"Islamic place","lat":27.200884,"lng":60.568329,"addr":"","type":"place_of_worship"},{"id":"xx271983_605712","name":"Islamic place","lat":27.198325,"lng":60.571247,"addr":"","type":"place_of_worship"},{"id":"xx271938_606126","name":"Islamic place","lat":27.193785,"lng":60.612631,"addr":"","type":"place_of_worship"},{"id":"xx271977_605979","name":"Islamic place","lat":27.197651,"lng":60.597916,"addr":"","type":"place_of_worship"},{"id":"xx294004_606913","name":"Islamic place","lat":29.400447,"lng":60.691311,"addr":"","type":"place_of_worship"},{"id":"xx294984_607815","name":"Islamic place","lat":29.498365,"lng":60.781509,"addr":"","type":"place_of_worship"},{"id":"xx293687_605850","name":"Islamic place","lat":29.368737,"lng":60.585015,"addr":"","type":"place_of_worship"},{"id":"xx293501_605809","name":"Islamic place","lat":29.350112,"lng":60.580926,"addr":"","type":"place_of_worship"},{"id":"xx292797_605338","name":"Islamic place","lat":29.279661,"lng":60.533754,"addr":"","type":"place_of_worship"},{"id":"xx294997_607825","name":"Islamic place","lat":29.499695,"lng":60.78254,"addr":"","type":"place_of_worship"},{"id":"xx295024_608984","name":"Islamic place","lat":29.502369,"lng":60.89836,"addr":"","type":"place_of_worship"},{"id":"xx294560_608655","name":"مسجد حضرت صهیب رومی (رض)","lat":29.456036,"lng":60.865462,"addr":"","type":"place_of_worship"},{"id":"xx284932_607501","name":"Islamic place","lat":28.49317,"lng":60.750105,"addr":"","type":"place_of_worship"},{"id":"xx284990_605973","name":"Islamic place","lat":28.498988,"lng":60.597259,"addr":"","type":"place_of_worship"},{"id":"xx284028_605422","name":"Islamic place","lat":28.402817,"lng":60.542153,"addr":"","type":"place_of_worship"},{"id":"xx284778_604554","name":"Islamic place","lat":28.477757,"lng":60.45542,"addr":"","type":"place_of_worship"},{"id":"xx266625_631827","name":"Islamic place","lat":26.662542,"lng":63.182731,"addr":"","type":"place_of_worship"},{"id":"xx266790_631739","name":"Islamic place","lat":26.679041,"lng":63.173859,"addr":"","type":"place_of_worship"},{"id":"xx266738_631780","name":"Islamic place","lat":26.673839,"lng":63.177964,"addr":"","type":"place_of_worship"},{"id":"xx273718_623431","name":"Islamic place","lat":27.371846,"lng":62.343144,"addr":"","type":"place_of_worship"},{"id":"xx273863_623152","name":"Islamic place","lat":27.386283,"lng":62.315198,"addr":"","type":"place_of_worship"},{"id":"xx293295_607864","name":"Islamic place","lat":29.329483,"lng":60.786362,"addr":"","type":"place_of_worship"},{"id":"xx293348_608123","name":"Islamic place","lat":29.334755,"lng":60.812327,"addr":"","type":"place_of_worship"},{"id":"xx273803_623187","name":"Islamic place","lat":27.380257,"lng":62.318652,"addr":"","type":"place_of_worship"},{"id":"xx273813_623136","name":"Islamic place","lat":27.381349,"lng":62.313633,"addr":"","type":"place_of_worship"},{"id":"xx273821_623212","name":"Islamic place","lat":27.382126,"lng":62.321221,"addr":"","type":"place_of_worship"},{"id":"xx253533_606155","name":"Islamic place","lat":25.353315,"lng":60.615531,"addr":"","type":"place_of_worship"},{"id":"xx253482_606241","name":"Islamic place","lat":25.348242,"lng":60.624098,"addr":"","type":"place_of_worship"},{"id":"xx253517_607054","name":"Islamic place","lat":25.351743,"lng":60.705413,"addr":"","type":"place_of_worship"},{"id":"xx262402_600579","name":"Islamic place","lat":26.240163,"lng":60.057873,"addr":"","type":"place_of_worship"},{"id":"xx262289_600554","name":"Islamic place","lat":26.2289,"lng":60.055369,"addr":"","type":"place_of_worship"},{"id":"xx262622_600639","name":"Islamic place","lat":26.262236,"lng":60.063893,"addr":"","type":"place_of_worship"},{"id":"xx262806_600716","name":"Islamic place","lat":26.280588,"lng":60.071581,"addr":"","type":"place_of_worship"},{"id":"xx263460_600761","name":"Islamic place","lat":26.346041,"lng":60.07611,"addr":"","type":"place_of_worship"},{"id":"xx263478_600780","name":"Islamic place","lat":26.347815,"lng":60.078027,"addr":"","type":"place_of_worship"},{"id":"xx263517_600748","name":"Islamic place","lat":26.351675,"lng":60.074807,"addr":"","type":"place_of_worship"},{"id":"xx263493_600711","name":"Islamic place","lat":26.349348,"lng":60.071135,"addr":"","type":"place_of_worship"},{"id":"xx263493_600717","name":"Islamic place","lat":26.349298,"lng":60.071672,"addr":"","type":"place_of_worship"},{"id":"xx263626_600677","name":"Islamic place","lat":26.362573,"lng":60.067687,"addr":"","type":"place_of_worship"},{"id":"xx263555_600778","name":"Islamic place","lat":26.35545,"lng":60.077778,"addr":"","type":"place_of_worship"},{"id":"xx264459_600473","name":"Islamic place","lat":26.445943,"lng":60.047303,"addr":"","type":"place_of_worship"},{"id":"xx266818_602132","name":"Islamic place","lat":26.681806,"lng":60.213244,"addr":"","type":"place_of_worship"},{"id":"xx266911_602330","name":"Islamic place","lat":26.691146,"lng":60.232953,"addr":"","type":"place_of_worship"},{"id":"xx266978_602324","name":"Islamic place","lat":26.697827,"lng":60.232424,"addr":"","type":"place_of_worship"},{"id":"xx268680_602271","name":"Islamic place","lat":26.868044,"lng":60.227146,"addr":"","type":"place_of_worship"},{"id":"xx268671_602259","name":"Islamic place","lat":26.867054,"lng":60.225918,"addr":"","type":"place_of_worship"},{"id":"xx268155_603882","name":"Islamic place","lat":26.815546,"lng":60.388171,"addr":"","type":"place_of_worship"},{"id":"xx267890_603975","name":"Islamic place","lat":26.789001,"lng":60.397519,"addr":"","type":"place_of_worship"},{"id":"xx283813_611596","name":"Islamic place","lat":28.381303,"lng":61.159619,"addr":"","type":"place_of_worship"},{"id":"xx283787_611768","name":"Islamic place","lat":28.378707,"lng":61.176781,"addr":"","type":"place_of_worship"},{"id":"xx283672_612064","name":"Islamic place","lat":28.367155,"lng":61.206447,"addr":"","type":"place_of_worship"},{"id":"xx283345_612227","name":"Islamic place","lat":28.334548,"lng":61.222696,"addr":"","type":"place_of_worship"},{"id":"xx283165_612678","name":"Islamic place","lat":28.316492,"lng":61.267835,"addr":"","type":"place_of_worship"},{"id":"xx282397_612264","name":"Islamic place","lat":28.239716,"lng":61.226394,"addr":"","type":"place_of_worship"},{"id":"xx282285_612286","name":"Islamic place","lat":28.228455,"lng":61.228608,"addr":"","type":"place_of_worship"},{"id":"xx283861_611503","name":"Islamic place","lat":28.386098,"lng":61.150284,"addr":"","type":"place_of_worship"},{"id":"xx284124_611748","name":"Islamic place","lat":28.412369,"lng":61.174765,"addr":"","type":"place_of_worship"},{"id":"xx285679_610032","name":"Islamic place","lat":28.567933,"lng":61.003163,"addr":"","type":"place_of_worship"},{"id":"xx285618_609983","name":"Islamic place","lat":28.561754,"lng":60.998258,"addr":"","type":"place_of_worship"},{"id":"xx285475_609956","name":"Islamic place","lat":28.547547,"lng":60.995588,"addr":"","type":"place_of_worship"},{"id":"xx285418_609959","name":"Islamic place","lat":28.541796,"lng":60.995933,"addr":"","type":"place_of_worship"},{"id":"xx285249_610024","name":"Islamic place","lat":28.524914,"lng":61.002382,"addr":"","type":"place_of_worship"},{"id":"xx284568_610128","name":"Islamic place","lat":28.456783,"lng":61.01282,"addr":"","type":"place_of_worship"},{"id":"xx283504_611154","name":"Islamic place","lat":28.350378,"lng":61.11544,"addr":"","type":"place_of_worship"},{"id":"xx282825_610844","name":"Islamic place","lat":28.282465,"lng":61.084352,"addr":"","type":"place_of_worship"},{"id":"xx269119_623758","name":"Islamic place","lat":26.91186,"lng":62.375815,"addr":"","type":"place_of_worship"},{"id":"xx268512_623202","name":"Islamic place","lat":26.851218,"lng":62.320214,"addr":"","type":"place_of_worship"},{"id":"xx268460_623016","name":"Islamic place","lat":26.845992,"lng":62.301553,"addr":"","type":"place_of_worship"},{"id":"xx268157_622902","name":"Islamic place","lat":26.815672,"lng":62.290163,"addr":"","type":"place_of_worship"},{"id":"xx268139_622511","name":"Islamic place","lat":26.813898,"lng":62.251098,"addr":"","type":"place_of_worship"},{"id":"xx269213_618029","name":"Islamic place","lat":26.921291,"lng":61.802861,"addr":"","type":"place_of_worship"},{"id":"xx269703_614638","name":"Islamic place","lat":26.970278,"lng":61.463792,"addr":"","type":"place_of_worship"},{"id":"xx269729_614642","name":"Islamic place","lat":26.972923,"lng":61.464165,"addr":"","type":"place_of_worship"},{"id":"xx269367_615191","name":"Islamic place","lat":26.936748,"lng":61.519113,"addr":"","type":"place_of_worship"},{"id":"xx269652_616391","name":"Islamic place","lat":26.965194,"lng":61.639132,"addr":"","type":"place_of_worship"},{"id":"xx269599_616395","name":"Islamic place","lat":26.959855,"lng":61.639462,"addr":"","type":"place_of_worship"},{"id":"xx269539_616357","name":"Islamic place","lat":26.953898,"lng":61.635737,"addr":"","type":"place_of_worship"},{"id":"xx269503_616821","name":"Islamic place","lat":26.950258,"lng":61.682059,"addr":"","type":"place_of_worship"},{"id":"xx269944_617116","name":"Islamic place","lat":26.994395,"lng":61.711605,"addr":"","type":"place_of_worship"},{"id":"xx269960_617160","name":"Islamic place","lat":26.996009,"lng":61.715969,"addr":"","type":"place_of_worship"},{"id":"xx269958_617084","name":"Islamic place","lat":26.99582,"lng":61.708358,"addr":"","type":"place_of_worship"},{"id":"xx270071_617173","name":"Islamic place","lat":27.007132,"lng":61.71729,"addr":"","type":"place_of_worship"},{"id":"xx269409_618000","name":"Islamic place","lat":26.94093,"lng":61.799962,"addr":"","type":"place_of_worship"},{"id":"xx271060_615941","name":"Islamic place","lat":27.106028,"lng":61.594134,"addr":"","type":"place_of_worship"},{"id":"xx271062_615897","name":"Islamic place","lat":27.106183,"lng":61.589728,"addr":"","type":"place_of_worship"},{"id":"xx271767_616891","name":"Islamic place","lat":27.176682,"lng":61.689115,"addr":"","type":"place_of_worship"},{"id":"xx271799_616865","name":"Islamic place","lat":27.179897,"lng":61.686492,"addr":"","type":"place_of_worship"},{"id":"xx271312_616732","name":"Islamic place","lat":27.131158,"lng":61.6732,"addr":"","type":"place_of_worship"},{"id":"xx271331_616802","name":"Islamic place","lat":27.133071,"lng":61.680189,"addr":"","type":"place_of_worship"},{"id":"xx272144_617354","name":"Islamic place","lat":27.214389,"lng":61.735395,"addr":"","type":"place_of_worship"},{"id":"xx267931_613265","name":"Islamic place","lat":26.793062,"lng":61.326519,"addr":"","type":"place_of_worship"},{"id":"xx268798_613254","name":"Islamic place","lat":26.879752,"lng":61.325417,"addr":"","type":"place_of_worship"},{"id":"xx268967_612909","name":"Islamic place","lat":26.896663,"lng":61.290853,"addr":"","type":"place_of_worship"},{"id":"xx270801_615599","name":"Islamic place","lat":27.080116,"lng":61.559927,"addr":"","type":"place_of_worship"},{"id":"xx270839_615563","name":"Islamic place","lat":27.083907,"lng":61.556316,"addr":"","type":"place_of_worship"},{"id":"xx270617_615873","name":"Islamic place","lat":27.061724,"lng":61.587349,"addr":"","type":"place_of_worship"},{"id":"xx270614_615920","name":"Islamic place","lat":27.061373,"lng":61.591997,"addr":"","type":"place_of_worship"},{"id":"xx270735_612447","name":"Islamic place","lat":27.073511,"lng":61.244704,"addr":"","type":"place_of_worship"},{"id":"xx270765_612463","name":"Islamic place","lat":27.076469,"lng":61.246314,"addr":"","type":"place_of_worship"},{"id":"xx270765_612493","name":"Islamic place","lat":27.076493,"lng":61.249299,"addr":"","type":"place_of_worship"},{"id":"xx270778_612561","name":"Islamic place","lat":27.077837,"lng":61.256098,"addr":"","type":"place_of_worship"},{"id":"xx270987_612366","name":"Islamic place","lat":27.098681,"lng":61.236565,"addr":"","type":"place_of_worship"},{"id":"xx271028_612369","name":"Islamic place","lat":27.102782,"lng":61.236893,"addr":"","type":"place_of_worship"},{"id":"xx270639_612022","name":"Islamic place","lat":27.063884,"lng":61.202156,"addr":"","type":"place_of_worship"},{"id":"xx271653_612290","name":"Islamic place","lat":27.165298,"lng":61.228997,"addr":"","type":"place_of_worship"},{"id":"xx271642_612275","name":"Islamic place","lat":27.164216,"lng":61.227542,"addr":"","type":"place_of_worship"},{"id":"xx271854_611848","name":"Islamic place","lat":27.185413,"lng":61.184759,"addr":"","type":"place_of_worship"},{"id":"xx272167_612002","name":"Islamic place","lat":27.216651,"lng":61.200213,"addr":"","type":"place_of_worship"},{"id":"xx271635_611538","name":"Islamic place","lat":27.163496,"lng":61.153762,"addr":"","type":"place_of_worship"},{"id":"xx271683_611474","name":"Islamic place","lat":27.168305,"lng":61.147446,"addr":"","type":"place_of_worship"},{"id":"xx271792_611245","name":"Islamic place","lat":27.179211,"lng":61.124524,"addr":"","type":"place_of_worship"},{"id":"xx271850_610909","name":"Islamic place","lat":27.184976,"lng":61.090891,"addr":"","type":"place_of_worship"},{"id":"xx272310_610368","name":"Islamic place","lat":27.231003,"lng":61.036776,"addr":"","type":"place_of_worship"},{"id":"xx272758_609730","name":"Islamic place","lat":27.275814,"lng":60.972986,"addr":"","type":"place_of_worship"},{"id":"xx272669_609907","name":"Islamic place","lat":27.266881,"lng":60.990653,"addr":"","type":"place_of_worship"},{"id":"xx272763_609935","name":"Islamic place","lat":27.276271,"lng":60.993475,"addr":"","type":"place_of_worship"},{"id":"xx272644_609282","name":"Islamic place","lat":27.264419,"lng":60.928195,"addr":"","type":"place_of_worship"},{"id":"xx272615_609238","name":"Islamic place","lat":27.261464,"lng":60.923799,"addr":"","type":"place_of_worship"},{"id":"xx272867_609076","name":"Islamic place","lat":27.286663,"lng":60.90764,"addr":"","type":"place_of_worship"},{"id":"xx272496_608703","name":"Islamic place","lat":27.24958,"lng":60.870252,"addr":"","type":"place_of_worship"},{"id":"xx272512_608704","name":"Islamic place","lat":27.251197,"lng":60.870424,"addr":"","type":"place_of_worship"},{"id":"xx272513_608735","name":"Islamic place","lat":27.251265,"lng":60.87353,"addr":"","type":"place_of_worship"},{"id":"xx272400_608719","name":"Islamic place","lat":27.239996,"lng":60.871915,"addr":"","type":"place_of_worship"},{"id":"xx272301_608788","name":"Islamic place","lat":27.230063,"lng":60.87881,"addr":"","type":"place_of_worship"},{"id":"xx272321_608817","name":"Islamic place","lat":27.232106,"lng":60.881664,"addr":"","type":"place_of_worship"},{"id":"xx270953_614731","name":"Islamic place","lat":27.095268,"lng":61.473148,"addr":"","type":"place_of_worship"},{"id":"xx270881_614678","name":"Islamic place","lat":27.08815,"lng":61.467813,"addr":"","type":"place_of_worship"},{"id":"xx270995_614574","name":"Islamic place","lat":27.099537,"lng":61.457366,"addr":"","type":"place_of_worship"},{"id":"xx271124_614331","name":"Islamic place","lat":27.112409,"lng":61.433113,"addr":"","type":"place_of_worship"},{"id":"xx271128_614305","name":"Islamic place","lat":27.112849,"lng":61.430452,"addr":"","type":"place_of_worship"},{"id":"xx270839_615601","name":"Islamic place","lat":27.08387,"lng":61.56006,"addr":"","type":"place_of_worship"},{"id":"xx271277_615466","name":"Islamic place","lat":27.127687,"lng":61.546609,"addr":"","type":"place_of_worship"},{"id":"xx271510_615873","name":"Islamic place","lat":27.151022,"lng":61.587273,"addr":"","type":"place_of_worship"},{"id":"xx271459_615382","name":"Islamic place","lat":27.145902,"lng":61.538225,"addr":"","type":"place_of_worship"},{"id":"xx271555_615569","name":"Islamic place","lat":27.15552,"lng":61.556936,"addr":"","type":"place_of_worship"},{"id":"xx271534_615718","name":"Islamic place","lat":27.153423,"lng":61.57182,"addr":"","type":"place_of_worship"},{"id":"xx271500_615820","name":"Islamic place","lat":27.149963,"lng":61.581975,"addr":"","type":"place_of_worship"},{"id":"xx271486_615802","name":"Islamic place","lat":27.14856,"lng":61.580211,"addr":"","type":"place_of_worship"},{"id":"xx271411_615845","name":"Islamic place","lat":27.141113,"lng":61.584462,"addr":"","type":"place_of_worship"},{"id":"xx271797_615129","name":"Islamic place","lat":27.179699,"lng":61.512914,"addr":"","type":"place_of_worship"},{"id":"xx272101_614791","name":"Islamic place","lat":27.210147,"lng":61.479096,"addr":"","type":"place_of_worship"},{"id":"xx272119_614769","name":"Islamic place","lat":27.211877,"lng":61.476901,"addr":"","type":"place_of_worship"},{"id":"xx272162_614578","name":"Islamic place","lat":27.216167,"lng":61.457812,"addr":"","type":"place_of_worship"},{"id":"xx272259_614832","name":"Islamic place","lat":27.225858,"lng":61.483201,"addr":"","type":"place_of_worship"},{"id":"xx272280_614808","name":"Islamic place","lat":27.227984,"lng":61.480781,"addr":"","type":"place_of_worship"},{"id":"xx272038_615173","name":"Islamic place","lat":27.203804,"lng":61.517312,"addr":"","type":"place_of_worship"},{"id":"xx272063_615163","name":"Islamic place","lat":27.206301,"lng":61.516346,"addr":"","type":"place_of_worship"},{"id":"xx260449_605225","name":"Islamic place","lat":26.044857,"lng":60.52254,"addr":"","type":"place_of_worship"},{"id":"xx259966_605320","name":"Islamic place","lat":25.996594,"lng":60.532029,"addr":"","type":"place_of_worship"},{"id":"xx259499_605299","name":"Islamic place","lat":25.949945,"lng":60.529911,"addr":"","type":"place_of_worship"},{"id":"xx273573_623381","name":"Islamic place","lat":27.357269,"lng":62.338098,"addr":"","type":"place_of_worship"},{"id":"xx273486_623435","name":"Islamic place","lat":27.348551,"lng":62.34351,"addr":"","type":"place_of_worship"},{"id":"xx273447_623463","name":"Islamic place","lat":27.344715,"lng":62.3463,"addr":"","type":"place_of_worship"},{"id":"xx273437_623387","name":"Islamic place","lat":27.343741,"lng":62.33873,"addr":"","type":"place_of_worship"},{"id":"xx273483_623463","name":"Islamic place","lat":27.348291,"lng":62.34629,"addr":"","type":"place_of_worship"},{"id":"xx273487_623496","name":"Islamic place","lat":27.34873,"lng":62.349581,"addr":"","type":"place_of_worship"},{"id":"xx270417_617373","name":"Islamic place","lat":27.041678,"lng":61.737317,"addr":"","type":"place_of_worship"},{"id":"xx271313_616782","name":"Islamic place","lat":27.131264,"lng":61.678203,"addr":"","type":"place_of_worship"},{"id":"xx271348_616816","name":"Islamic place","lat":27.134782,"lng":61.681576,"addr":"","type":"place_of_worship"},{"id":"xx271151_616772","name":"Islamic place","lat":27.11512,"lng":61.677198,"addr":"","type":"place_of_worship"},{"id":"xx271173_616653","name":"Islamic place","lat":27.117346,"lng":61.665331,"addr":"","type":"place_of_worship"},{"id":"xx270948_617676","name":"Islamic place","lat":27.094771,"lng":61.767633,"addr":"","type":"place_of_worship"},{"id":"xx271146_616661","name":"Islamic place","lat":27.114618,"lng":61.666142,"addr":"","type":"place_of_worship"},{"id":"xx271201_616574","name":"Islamic place","lat":27.120101,"lng":61.657397,"addr":"","type":"place_of_worship"},{"id":"xx271013_616559","name":"Islamic place","lat":27.10133,"lng":61.655856,"addr":"","type":"place_of_worship"},{"id":"xx271144_616728","name":"Islamic place","lat":27.114402,"lng":61.672777,"addr":"","type":"place_of_worship"},{"id":"xx270965_617436","name":"Islamic place","lat":27.096512,"lng":61.743596,"addr":"","type":"place_of_worship"},{"id":"xx270980_617432","name":"Islamic place","lat":27.097989,"lng":61.743214,"addr":"","type":"place_of_worship"},{"id":"xx270483_617469","name":"Islamic place","lat":27.04835,"lng":61.746852,"addr":"","type":"place_of_worship"},{"id":"xx270580_617532","name":"Islamic place","lat":27.058001,"lng":61.753244,"addr":"","type":"place_of_worship"},{"id":"xx271728_615389","name":"Islamic place","lat":27.17275,"lng":61.538887,"addr":"","type":"place_of_worship"},{"id":"xx273422_614918","name":"Islamic place","lat":27.342227,"lng":61.491808,"addr":"","type":"place_of_worship"},{"id":"xx272789_614549","name":"Islamic place","lat":27.278912,"lng":61.454856,"addr":"","type":"place_of_worship"},{"id":"xx272817_614452","name":"Islamic place","lat":27.281742,"lng":61.445243,"addr":"","type":"place_of_worship"},{"id":"xx273779_623312","name":"Islamic place","lat":27.37794,"lng":62.331233,"addr":"","type":"place_of_worship"},{"id":"xx294923_608631","name":"مسجد حسینی","lat":29.492263,"lng":60.863097,"addr":"","type":"place_of_worship"},{"id":"xx251340_611926","name":"Islamic place","lat":25.13401,"lng":61.192579,"addr":"","type":"place_of_worship"},{"id":"xx250922_613528","name":"Islamic place","lat":25.092232,"lng":61.352758,"addr":"","type":"place_of_worship"},{"id":"xx252003_611171","name":"Islamic place","lat":25.200296,"lng":61.11706,"addr":"","type":"place_of_worship"},{"id":"xx252591_611277","name":"Islamic place","lat":25.259064,"lng":61.127674,"addr":"","type":"place_of_worship"},{"id":"xx252719_611403","name":"Islamic place","lat":25.271898,"lng":61.140328,"addr":"","type":"place_of_worship"},{"id":"xx252865_611182","name":"Islamic place","lat":25.286522,"lng":61.118174,"addr":"","type":"place_of_worship"},{"id":"xx252890_611151","name":"Islamic place","lat":25.289032,"lng":61.115138,"addr":"","type":"place_of_worship"},{"id":"xx253016_606294","name":"Islamic place","lat":25.301623,"lng":60.629374,"addr":"","type":"place_of_worship"},{"id":"xx274077_622991","name":"Islamic place","lat":27.407655,"lng":62.299067,"addr":"","type":"place_of_worship"},{"id":"xx274014_622964","name":"Islamic place","lat":27.401379,"lng":62.296388,"addr":"","type":"place_of_worship"},{"id":"xx273870_623064","name":"Islamic place","lat":27.386971,"lng":62.306373,"addr":"","type":"place_of_worship"},{"id":"xx273853_623074","name":"Islamic place","lat":27.385284,"lng":62.307367,"addr":"","type":"place_of_worship"},{"id":"xx273764_623239","name":"مسجد امام باقر رحمه‌الله","lat":27.376379,"lng":62.323923,"addr":"","type":"place_of_worship"},{"id":"xx254693_604931","name":"Islamic place","lat":25.469331,"lng":60.493064,"addr":"","type":"place_of_worship"},{"id":"xx254105_604177","name":"Islamic place","lat":25.410532,"lng":60.417657,"addr":"","type":"place_of_worship"},{"id":"xx273491_623314","name":"Islamic place","lat":27.349124,"lng":62.331448,"addr":"","type":"place_of_worship"},{"id":"xx273427_623322","name":"Islamic place","lat":27.34272,"lng":62.332154,"addr":"","type":"place_of_worship"},{"id":"xx273610_623362","name":"Islamic place","lat":27.360952,"lng":62.336225,"addr":"","type":"place_of_worship"},{"id":"xx271118_628010","name":"Islamic place","lat":27.111768,"lng":62.800956,"addr":"","type":"place_of_worship"},{"id":"xx271138_628367","name":"Islamic place","lat":27.113829,"lng":62.836697,"addr":"","type":"place_of_worship"},{"id":"xx271178_628440","name":"Islamic place","lat":27.117831,"lng":62.844039,"addr":"","type":"place_of_worship"},{"id":"xx271045_627976","name":"Islamic place","lat":27.104477,"lng":62.797559,"addr":"","type":"place_of_worship"},{"id":"xx271071_628013","name":"Islamic place","lat":27.10713,"lng":62.801335,"addr":"","type":"place_of_worship"},{"id":"xx270982_627912","name":"Islamic place","lat":27.098216,"lng":62.791156,"addr":"","type":"place_of_worship"},{"id":"xx271336_627781","name":"Islamic place","lat":27.133634,"lng":62.77806,"addr":"","type":"place_of_worship"},{"id":"xx271411_627400","name":"Islamic place","lat":27.141067,"lng":62.739999,"addr":"","type":"place_of_worship"},{"id":"xx270391_622259","name":"Islamic place","lat":27.039131,"lng":62.225915,"addr":"","type":"place_of_worship"},{"id":"xx270398_621606","name":"Islamic place","lat":27.039789,"lng":62.160607,"addr":"","type":"place_of_worship"},{"id":"xx268483_628252","name":"Islamic place","lat":26.848323,"lng":62.825161,"addr":"","type":"place_of_worship"},{"id":"xx267943_628408","name":"Islamic place","lat":26.794263,"lng":62.84077,"addr":"","type":"place_of_worship"},{"id":"xx268713_629065","name":"Islamic place","lat":26.871348,"lng":62.906532,"addr":"","type":"place_of_worship"},{"id":"xx268189_627720","name":"Islamic place","lat":26.818907,"lng":62.771976,"addr":"","type":"place_of_worship"},{"id":"xx268538_628910","name":"Islamic place","lat":26.853838,"lng":62.891,"addr":"","type":"place_of_worship"},{"id":"xx268856_623040","name":"Islamic place","lat":26.885639,"lng":62.303978,"addr":"","type":"place_of_worship"},{"id":"xx269559_623178","name":"Islamic place","lat":26.955945,"lng":62.317801,"addr":"","type":"place_of_worship"},{"id":"xx260959_618469","name":"Islamic place","lat":26.095908,"lng":61.846908,"addr":"","type":"place_of_worship"},{"id":"xx260962_618492","name":"Islamic place","lat":26.096232,"lng":61.849221,"addr":"","type":"place_of_worship"},{"id":"xx260959_618544","name":"Islamic place","lat":26.095875,"lng":61.854382,"addr":"","type":"place_of_worship"},{"id":"xx260981_618556","name":"Islamic place","lat":26.098125,"lng":61.855612,"addr":"","type":"place_of_worship"},{"id":"xx255548_612374","name":"Islamic place","lat":25.55477,"lng":61.23738,"addr":"","type":"place_of_worship"},{"id":"xx256286_612768","name":"Islamic place","lat":25.628585,"lng":61.276809,"addr":"","type":"place_of_worship"},{"id":"xx256389_612850","name":"Islamic place","lat":25.638878,"lng":61.284964,"addr":"","type":"place_of_worship"},{"id":"xx256619_613012","name":"Islamic place","lat":25.661914,"lng":61.301172,"addr":"","type":"place_of_worship"},{"id":"xx256655_613000","name":"Islamic place","lat":25.665499,"lng":61.300032,"addr":"","type":"place_of_worship"},{"id":"xx256886_613585","name":"Islamic place","lat":25.688637,"lng":61.358547,"addr":"","type":"place_of_worship"},{"id":"xx257027_613701","name":"Islamic place","lat":25.702723,"lng":61.370075,"addr":"","type":"place_of_worship"},{"id":"xx257011_613630","name":"Islamic place","lat":25.701064,"lng":61.363023,"addr":"","type":"place_of_worship"},{"id":"xx257031_613659","name":"Islamic place","lat":25.703129,"lng":61.365935,"addr":"","type":"place_of_worship"},{"id":"xx257061_613621","name":"Islamic place","lat":25.706117,"lng":61.362052,"addr":"","type":"place_of_worship"},{"id":"xx257138_613637","name":"Islamic place","lat":25.713823,"lng":61.363669,"addr":"","type":"place_of_worship"},{"id":"xx291533_607395","name":"Islamic place","lat":29.153267,"lng":60.739521,"addr":"","type":"place_of_worship"},{"id":"xx287614_607098","name":"Islamic place","lat":28.761369,"lng":60.709826,"addr":"","type":"place_of_worship"},{"id":"xx286506_607903","name":"مسجد امام حسین","lat":28.650616,"lng":60.790321,"addr":"","type":"place_of_worship"},{"id":"xx289277_607225","name":"Islamic place","lat":28.927743,"lng":60.722524,"addr":"","type":"place_of_worship"},{"id":"xx289247_607769","name":"Islamic place","lat":28.9247,"lng":60.776881,"addr":"","type":"place_of_worship"},{"id":"xx289155_608622","name":"Islamic place","lat":28.915509,"lng":60.862176,"addr":"","type":"place_of_worship"},{"id":"xx288708_608346","name":"Islamic place","lat":28.870754,"lng":60.834642,"addr":"","type":"place_of_worship"},{"id":"xx288611_607462","name":"Islamic place","lat":28.861059,"lng":60.746238,"addr":"","type":"place_of_worship"},{"id":"xx288036_607584","name":"Islamic place","lat":28.803621,"lng":60.758442,"addr":"","type":"place_of_worship"},{"id":"xx288058_606711","name":"Islamic place","lat":28.805837,"lng":60.671089,"addr":"","type":"place_of_worship"},{"id":"xx288033_607144","name":"Islamic place","lat":28.803278,"lng":60.714409,"addr":"","type":"place_of_worship"},{"id":"xx287604_607134","name":"Islamic place","lat":28.760432,"lng":60.713393,"addr":"","type":"place_of_worship"},{"id":"xx282094_612009","name":"Islamic place","lat":28.209437,"lng":61.200881,"addr":"","type":"place_of_worship"},{"id":"xx282078_612034","name":"Islamic place","lat":28.207845,"lng":61.203434,"addr":"","type":"place_of_worship"},{"id":"xx285479_606909","name":"Islamic place","lat":28.547889,"lng":60.690935,"addr":"","type":"place_of_worship"},{"id":"xx284965_606714","name":"Islamic place","lat":28.496495,"lng":60.671382,"addr":"","type":"place_of_worship"},{"id":"xx276114_615592","name":"Islamic place","lat":27.611406,"lng":61.559151,"addr":"","type":"place_of_worship"},{"id":"xx252987_606566","name":"Islamic place","lat":25.298653,"lng":60.656596,"addr":"","type":"place_of_worship"},{"id":"xx253021_606327","name":"Islamic place","lat":25.302115,"lng":60.632676,"addr":"","type":"place_of_worship"},{"id":"xx294890_608950","name":"Islamic place","lat":29.489024,"lng":60.894976,"addr":"","type":"place_of_worship"},{"id":"xx272272_601035","name":"Islamic place","lat":27.227175,"lng":60.103543,"addr":"","type":"place_of_worship"},{"id":"xx293424_607166","name":"Islamic place","lat":29.34235,"lng":60.716553,"addr":"","type":"place_of_worship"},{"id":"xx293341_607468","name":"Islamic place","lat":29.334086,"lng":60.746755,"addr":"","type":"place_of_worship"},{"id":"xx293286_607453","name":"Islamic place","lat":29.328557,"lng":60.745344,"addr":"","type":"place_of_worship"},{"id":"xx293219_607540","name":"Islamic place","lat":29.321939,"lng":60.753971,"addr":"","type":"place_of_worship"},{"id":"xx293128_607534","name":"Islamic place","lat":29.312799,"lng":60.753391,"addr":"","type":"place_of_worship"},{"id":"xx293119_607707","name":"Islamic place","lat":29.311918,"lng":60.770706,"addr":"","type":"place_of_worship"},{"id":"xx296348_606217","name":"Islamic place","lat":29.634845,"lng":60.621651,"addr":"","type":"place_of_worship"},{"id":"xx296152_605259","name":"Islamic place","lat":29.615217,"lng":60.525941,"addr":"","type":"place_of_worship"},{"id":"xx295962_606430","name":"Islamic place","lat":29.596239,"lng":60.642986,"addr":"","type":"place_of_worship"},{"id":"xx296287_605348","name":"Islamic place","lat":29.628735,"lng":60.534827,"addr":"","type":"place_of_worship"},{"id":"xx295958_606302","name":"Islamic place","lat":29.595827,"lng":60.630235,"addr":"","type":"place_of_worship"},{"id":"xx296131_605709","name":"Islamic place","lat":29.613075,"lng":60.570903,"addr":"","type":"place_of_worship"},{"id":"xx296163_605402","name":"Islamic place","lat":29.616255,"lng":60.540201,"addr":"","type":"place_of_worship"},{"id":"xx252977_606522","name":"Islamic place","lat":25.297726,"lng":60.652204,"addr":"","type":"place_of_worship"},{"id":"xx253556_606205","name":"Islamic place","lat":25.35558,"lng":60.620534,"addr":"","type":"place_of_worship"},{"id":"xx253624_606353","name":"Islamic place","lat":25.362427,"lng":60.635288,"addr":"","type":"place_of_worship"},{"id":"xx252823_606846","name":"مسجد حضرت رسول (ص)","lat":25.282297,"lng":60.684594,"addr":"","type":"place_of_worship"},{"id":"xx252849_606689","name":"مسجد محمدی کورسر","lat":25.284933,"lng":60.66887,"addr":"","type":"place_of_worship"},{"id":"xx252839_606762","name":"Islamic place","lat":25.283946,"lng":60.676232,"addr":"","type":"place_of_worship"},{"id":"xx263422_601738","name":"Islamic place","lat":26.342181,"lng":60.173758,"addr":"","type":"place_of_worship"},{"id":"xx278672_610583","name":"Islamic place","lat":27.867202,"lng":61.058261,"addr":"","type":"place_of_worship"},{"id":"xx278371_610170","name":"Islamic place","lat":27.837097,"lng":61.017004,"addr":"","type":"place_of_worship"},{"id":"xx283388_604513","name":"Islamic place","lat":28.338779,"lng":60.451251,"addr":"","type":"place_of_worship"},{"id":"xx283057_604867","name":"Islamic place","lat":28.305741,"lng":60.486664,"addr":"","type":"place_of_worship"},{"id":"xx283098_604928","name":"Islamic place","lat":28.309793,"lng":60.492779,"addr":"","type":"place_of_worship"},{"id":"xx283195_605045","name":"Islamic place","lat":28.31954,"lng":60.504454,"addr":"","type":"place_of_worship"},{"id":"xx291264_613105","name":"Islamic place","lat":29.12643,"lng":61.310546,"addr":"","type":"place_of_worship"},{"id":"xx278068_618247","name":"Islamic place","lat":27.806811,"lng":61.824673,"addr":"","type":"place_of_worship"},{"id":"xx273508_619648","name":"Islamic place","lat":27.350795,"lng":61.964817,"addr":"","type":"place_of_worship"},{"id":"xx273302_619574","name":"Islamic place","lat":27.330207,"lng":61.957439,"addr":"","type":"place_of_worship"},{"id":"xx273409_619387","name":"Islamic place","lat":27.340906,"lng":61.938664,"addr":"","type":"place_of_worship"},{"id":"xx273536_619284","name":"Islamic place","lat":27.353583,"lng":61.928378,"addr":"","type":"place_of_worship"},{"id":"xx273266_619560","name":"Islamic place","lat":27.32663,"lng":61.955992,"addr":"","type":"place_of_worship"},{"id":"xx273725_619394","name":"Islamic place","lat":27.372481,"lng":61.939376,"addr":"","type":"place_of_worship"},{"id":"xx273693_619598","name":"Islamic place","lat":27.369315,"lng":61.959767,"addr":"","type":"place_of_worship"},{"id":"xx273731_620954","name":"Islamic place","lat":27.373085,"lng":62.095381,"addr":"","type":"place_of_worship"},{"id":"xx273799_606134","name":"Islamic place","lat":27.379873,"lng":60.6134,"addr":"","type":"place_of_worship"},{"id":"xx282578_611965","name":"مسجد جامع حضرت بلال","lat":28.25783,"lng":61.196517,"addr":"","type":"place_of_worship"},{"id":"xx282544_611861","name":"Islamic place","lat":28.254384,"lng":61.186088,"addr":"","type":"place_of_worship"},