[{"id":"xx273522_953225","name":"Duliajan Mosque","lat":27.352222,"lng":95.3225,"addr":"","type":"place_of_worship"},{"id":"xx278249_952231","name":"Islamic place","lat":27.824866,"lng":95.223121,"addr":"","type":"grave_yard"},{"id":"xx274870_953608","name":"Badi Masjid","lat":27.487021,"lng":95.360848,"addr":"Tinsukia","type":"place_of_worship"},{"id":"xx250443_984936","name":"Islamic place","lat":25.044295,"lng":98.493558,"addr":"","type":"place_of_worship"},{"id":"xx251705_992237","name":"清真寺","lat":25.170497,"lng":99.223662,"addr":"","type":"place_of_worship"},{"id":"xx284902_989104","name":"德钦清真寺","lat":28.490196,"lng":98.910398,"addr":"","type":"place_of_worship"},{"id":"xx254435_995209","name":"山地清真寺","lat":25.443525,"lng":99.52088,"addr":"","type":"place_of_worship"},{"id":"xx253450_995635","name":"岔路清真寺","lat":25.345024,"lng":99.563545,"addr":"","type":"place_of_worship"},{"id":"xx253527_997704","name":"上村清真寺","lat":25.352669,"lng":99.770358,"addr":"","type":"place_of_worship"},{"id":"xx253501_997709","name":"丫口清真寺","lat":25.350065,"lng":99.770888,"addr":"","type":"place_of_worship"},{"id":"xx252836_997835","name":"杜家清真寺","lat":25.283578,"lng":99.783472,"addr":"","type":"place_of_worship"},{"id":"xx254013_994612","name":"白山冲清真寺","lat":25.401276,"lng":99.461223,"addr":"","type":"place_of_worship"},{"id":"xx254129_995325","name":"山脚清真寺","lat":25.412892,"lng":99.53247,"addr":"","type":"place_of_worship"},{"id":"xx255204_994906","name":"大麦地清真寺","lat":25.520428,"lng":99.490593,"addr":"","type":"place_of_worship"},{"id":"xx253399_997770","name":"龙街观音寺","lat":25.33987,"lng":99.777034,"addr":"","type":"place_of_worship"},{"id":"xx252762_997956","name":"大寨子清真寺","lat":25.276192,"lng":99.795606,"addr":"","type":"place_of_worship"},{"id":"xx255308_994880","name":"官庄清真寺","lat":25.530817,"lng":99.487984,"addr":"","type":"place_of_worship"},{"id":"xx253527_997743","name":"大田清真寺","lat":25.352675,"lng":99.774324,"addr":"","type":"place_of_worship"},{"id":"xx253547_997902","name":"山头清真寺","lat":25.354689,"lng":99.790179,"addr":"","type":"place_of_worship"},{"id":"xx252793_997869","name":"田心清真寺","lat":25.279308,"lng":99.786883,"addr":"","type":"place_of_worship"},{"id":"xx253995_994486","name":"茶麻寨清真寺","lat":25.399523,"lng":99.448587,"addr":"","type":"place_of_worship"},{"id":"xx254144_995230","name":"桃园清真寺","lat":25.414397,"lng":99.523045,"addr":"","type":"place_of_worship"},{"id":"xx251637_992477","name":"八大营清真寺","lat":25.163745,"lng":99.247741,"addr":"","type":"place_of_worship"},{"id":"xx250096_984584","name":"和顺清真寺","lat":25.009553,"lng":98.458401,"addr":"","type":"place_of_worship"},{"id":"xx254218_995281","name":"朝真殿","lat":25.421825,"lng":99.528108,"addr":"","type":"yes"},{"id":"xx256658_999642","name":"Islamic place","lat":25.665808,"lng":99.964232,"addr":"","type":"mosque"},{"id":"xx256658_999644","name":"下街清真寺","lat":25.665776,"lng":99.964352,"addr":"","type":"place_of_worship"},{"id":"xx251543_991772","name":"易寿清真寺","lat":25.154269,"lng":99.177186,"addr":"","type":"place_of_worship"},{"id":"xx254217_995278","name":"曲硐清真寺","lat":25.421682,"lng":99.527838,"addr":"","type":"place_of_worship"},{"id":"xx250243_985019","name":"清真东门寺","lat":25.024301,"lng":98.501883,"addr":"","type":"place_of_worship"},{"id":"xx256675_999524","name":"上街清真寺","lat":25.667522,"lng":99.952418,"addr":"","type":"place_of_worship"},{"id":"xx250242_985018","name":"清真东门寺","lat":25.024228,"lng":98.50183,"addr":"","type":"place_of_worship"}]