[{"id":"xx347054_112019","name":"جامع الرملة","lat":34.705354,"lng":11.201899,"addr":"","type":"place_of_worship"},{"id":"xx335749_110889","name":"جامع العويدات","lat":33.574864,"lng":11.088905,"addr":"جرجيس","type":"place_of_worship"},{"id":"xx336816_106802","name":"Islamic place","lat":33.681585,"lng":10.680194,"addr":"","type":"place_of_worship"},{"id":"xx347227_100583","name":"Mosquée Bilel Ibn Rabeh","lat":34.72267,"lng":10.058323,"addr":"","type":"mosque"},{"id":"xx347390_100887","name":"جامع الفتح","lat":34.739027,"lng":10.088664,"addr":"","type":"mosque"},{"id":"xx331396_112357","name":"Islamic place","lat":33.139639,"lng":11.235713,"addr":"","type":"place_of_worship"},{"id":"xx334453_106152","name":"Islamic place","lat":33.445318,"lng":10.615227,"addr":"","type":"place_of_worship"},{"id":"xx335390_106778","name":"Islamic place","lat":33.539045,"lng":10.677755,"addr":"بوغرارة","type":"place_of_worship"},{"id":"xx336380_107005","name":"Islamic place","lat":33.638008,"lng":10.70051,"addr":"","type":"place_of_worship"},{"id":"xx330639_103598","name":"Mosquée Cité Ennasr","lat":33.063859,"lng":10.359834,"addr":"","type":"place_of_worship"},{"id":"xx330607_103464","name":"جامع حي التحرير.","lat":33.060746,"lng":10.346442,"addr":"","type":"place_of_worship"},{"id":"xx330619_103496","name":"Islamic place","lat":33.06194,"lng":10.349552,"addr":"","type":"place_of_worship"},{"id":"xx330555_103373","name":"Islamic place","lat":33.055548,"lng":10.337328,"addr":"","type":"place_of_worship"},{"id":"xx330611_103372","name":"Islamic place","lat":33.061114,"lng":10.337238,"addr":"","type":"place_of_worship"},{"id":"xx329806_102672","name":"Islamic place","lat":32.980636,"lng":10.267178,"addr":"","type":"place_of_worship"},{"id":"xx330999_103130","name":"Islamic place","lat":33.099895,"lng":10.313035,"addr":"","type":"place_of_worship"},{"id":"xx330523_103211","name":"Islamic place","lat":33.052329,"lng":10.321144,"addr":"","type":"place_of_worship"},{"id":"xx330582_103282","name":"Islamic place","lat":33.058242,"lng":10.328221,"addr":"","type":"place_of_worship"},{"id":"xx338498_101142","name":"جامع الفردوس","lat":33.849753,"lng":10.114248,"addr":"نهج النعناع","type":"place_of_worship"},{"id":"xx347339_107624","name":"جامع السلامي","lat":34.733914,"lng":10.762363,"addr":"","type":"place_of_worship"},{"id":"xx333492_104924","name":"Islamic place","lat":33.349237,"lng":10.492386,"addr":"مدنين","type":"place_of_worship"},{"id":"xx335064_111092","name":"Islamic place","lat":33.506408,"lng":11.109175,"addr":"","type":"place_of_worship"},{"id":"xx339032_101025","name":"Mosquée","lat":33.903151,"lng":10.102546,"addr":"","type":"place_of_worship"},{"id":"xx333291_104863","name":"مسجد تقوى","lat":33.329056,"lng":10.486345,"addr":"مدنين","type":"place_of_worship"},{"id":"xx337248_107477","name":"جامع الجديد","lat":33.724758,"lng":10.747668,"addr":"","type":"place_of_worship"},{"id":"xx347126_111992","name":"جامع الرملة القديمة","lat":34.712589,"lng":11.199158,"addr":"","type":"place_of_worship"},{"id":"xx329176_104227","name":"Bayech","lat":32.917607,"lng":10.422716,"addr":"","type":"place_of_worship"},{"id":"xx329108_104282","name":"مسجد الرحمة","lat":32.91082,"lng":10.428246,"addr":"","type":"place_of_worship"},{"id":"xx329059_104239","name":"Islamic place","lat":32.905857,"lng":10.42389,"addr":"","type":"place_of_worship"},{"id":"xx329207_104591","name":"el hnayna","lat":32.920727,"lng":10.459089,"addr":"","type":"place_of_worship"},{"id":"xx329537_104644","name":"مسجد الريان","lat":32.953656,"lng":10.464429,"addr":"تطاوين","type":"place_of_worship"},{"id":"xx329203_104652","name":"mosquée cité ennour","lat":32.920263,"lng":10.465245,"addr":"","type":"place_of_worship"},{"id":"xx347205_107202","name":"جامع التقوى","lat":34.720464,"lng":10.720156,"addr":"","type":"place_of_worship"},{"id":"xx347366_107627","name":"جامع الدريبة","lat":34.736598,"lng":10.762692,"addr":"نهج الدريبة","type":"place_of_worship"},{"id":"xx346700_106988","name":"جامع الرحمان طينة","lat":34.669967,"lng":10.698836,"addr":"","type":"place_of_worship"},{"id":"xx349667_106948","name":"سيدي عيسى بن مسكين","lat":34.966743,"lng":10.694826,"addr":"النصر","type":"place_of_worship"},{"id":"xx349395_107840","name":"Islamic place","lat":34.939489,"lng":10.784042,"addr":"","type":"place_of_worship"},{"id":"xx343121_100215","name":"جامع السواني","lat":34.312053,"lng":10.021451,"addr":"","type":"place_of_worship"},{"id":"xx345569_103112","name":"جامع الشعال","lat":34.556873,"lng":10.311229,"addr":"","type":"place_of_worship"},{"id":"xx349740_108134","name":"جامع المهارة","lat":34.973967,"lng":10.813446,"addr":"","type":"place_of_worship"},{"id":"xx349806_109230","name":"جامع التوبة","lat":34.980561,"lng":10.923003,"addr":"","type":"place_of_worship"},{"id":"xx347406_105330","name":"مقام صيد عقارب","lat":34.740626,"lng":10.53298,"addr":"عقارب","type":"place_of_worship"},{"id":"xx347404_105295","name":"جامع التقوى","lat":34.740409,"lng":10.529547,"addr":"","type":"place_of_worship"},{"id":"xx347417_103716","name":"جامع بولذياب","lat":34.741651,"lng":10.371624,"addr":"","type":"place_of_worship"},{"id":"xx348960_106413","name":"جامع الفراتي","lat":34.895984,"lng":10.641294,"addr":"","type":"place_of_worship"},{"id":"xx348584_105515","name":"جامع بئر الملولي","lat":34.858449,"lng":10.551501,"addr":"","type":"place_of_worship"},{"id":"xx344213_101825","name":"جامع الحشيشينية","lat":34.421278,"lng":10.182535,"addr":"","type":"place_of_worship"},{"id":"xx345365_105814","name":"جامع الشفار","lat":34.536502,"lng":10.581388,"addr":"","type":"place_of_worship"},{"id":"xx345434_105424","name":"جامع الرحمة بالقطيفة","lat":34.543446,"lng":10.54244,"addr":"","type":"place_of_worship"},{"id":"xx348202_106827","name":"جامع غلام بوخذير","lat":34.820206,"lng":10.68274,"addr":"","type":"place_of_worship"},{"id":"xx349991_109506","name":"جامع بليانة 2","lat":34.999099,"lng":10.950596,"addr":"","type":"place_of_worship"},{"id":"xx347452_112960","name":"الجامع الكبير بالعطايا","lat":34.745218,"lng":11.29595,"addr":"العطايا","type":"place_of_worship"},{"id":"xx347446_112940","name":"جامع المسيد","lat":34.744627,"lng":11.293966,"addr":"العطايا","type":"place_of_worship"},{"id":"xx347410_112943","name":"جامع الصديق","lat":34.741013,"lng":11.294254,"addr":"العطايا","type":"place_of_worship"},{"id":"xx347090_112133","name":"جامع الكلابين","lat":34.708974,"lng":11.213285,"addr":"الكلابين","type":"place_of_worship"},{"id":"xx346155_105464","name":"Islamic place","lat":34.615459,"lng":10.546427,"addr":"","type":"place_of_worship"},{"id":"xx333282_106877","name":"جامع وادي السدر","lat":33.328233,"lng":10.687699,"addr":"","type":"place_of_worship"},{"id":"xx344436_100527","name":"جامع سيدي محمد نويقص","lat":34.443564,"lng":10.052704,"addr":"","type":"place_of_worship"},{"id":"xx347020_112068","name":"مقام الولي سيدي قعبن","lat":34.70202,"lng":11.206819,"addr":"شاطئ الرملة","type":"mosque"},{"id":"xx347626_106833","name":"Islamic place","lat":34.762594,"lng":10.683282,"addr":"","type":"place_of_worship"},{"id":"xx349897_108974","name":"جامع الغفران","lat":34.989713,"lng":10.897448,"addr":"","type":"place_of_worship"},{"id":"xx347219_107339","name":"جامع النور","lat":34.721886,"lng":10.733921,"addr":"","type":"place_of_worship"},{"id":"xx347340_107003","name":"جامع عمر ابن عبد العزيز","lat":34.734021,"lng":10.700282,"addr":"","type":"place_of_worship"},{"id":"xx347622_107481","name":"جامع الرحمان","lat":34.762213,"lng":10.748115,"addr":"","type":"place_of_worship"},{"id":"xx347588_107561","name":"جامع الباشا","lat":34.758807,"lng":10.75612,"addr":"","type":"place_of_worship"},{"id":"xx347965_108120","name":"جامع المعز","lat":34.796498,"lng":10.81197,"addr":"","type":"place_of_worship"},{"id":"xx348946_108251","name":"جامع العقاربة","lat":34.894605,"lng":10.825144,"addr":"","type":"place_of_worship"},{"id":"xx348170_108340","name":"جامع السعادي","lat":34.817048,"lng":10.834038,"addr":"","type":"place_of_worship"},{"id":"xx349946_105951","name":"Islamic place","lat":34.994584,"lng":10.595063,"addr":"","type":"place_of_worship"},{"id":"xx349427_105106","name":"جامع سيدي ليتيم","lat":34.942724,"lng":10.510648,"addr":"","type":"place_of_worship"},{"id":"xx347741_107683","name":"جامع المختار","lat":34.774118,"lng":10.768282,"addr":"","type":"place_of_worship"},{"id":"xx348633_106511","name":"Islamic place","lat":34.86326,"lng":10.65115,"addr":"","type":"place_of_worship"},{"id":"xx319724_106836","name":"Islamic place","lat":31.972401,"lng":10.683625,"addr":"","type":"place_of_worship"},{"id":"xx347313_106013","name":"جامع الفاروق","lat":34.731298,"lng":10.601272,"addr":"","type":"place_of_worship"},{"id":"xx347299_106074","name":"جامع الغفران","lat":34.729907,"lng":10.607358,"addr":"","type":"place_of_worship"},{"id":"xx347283_104910","name":"جامع الرحمة","lat":34.728304,"lng":10.491002,"addr":"","type":"place_of_worship"},{"id":"xx349494_107459","name":"Mosquée Ettawba","lat":34.949391,"lng":10.745877,"addr":"","type":"place_of_worship"},{"id":"xx349618_107412","name":"Mosquée Ennasr","lat":34.961763,"lng":10.741216,"addr":"","type":"place_of_worship"},{"id":"xx349914_107492","name":"Islamic place","lat":34.991351,"lng":10.749232,"addr":"","type":"place_of_worship"},{"id":"xx348837_107599","name":"Mosquée Sidi Salah","lat":34.883716,"lng":10.759888,"addr":"","type":"place_of_worship"},{"id":"xx348288_107842","name":"جامع عمر","lat":34.828771,"lng":10.784163,"addr":"","type":"place_of_worship"},{"id":"xx347910_107720","name":"جامع الحمد","lat":34.791035,"lng":10.771966,"addr":"","type":"place_of_worship"},{"id":"xx320584_108913","name":"مسجد عقبة بن نافع","lat":32.058433,"lng":10.891288,"addr":"","type":"place_of_worship"},{"id":"xx346293_105997","name":"Mosquée Gargour","lat":34.629346,"lng":10.599652,"addr":"","type":"place_of_worship"},{"id":"xx346231_105911","name":"Islamic place","lat":34.623059,"lng":10.591079,"addr":"","type":"place_of_worship"},{"id":"xx347726_100122","name":"جامع الغفران","lat":34.772585,"lng":10.012199,"addr":"","type":"place_of_worship"},{"id":"xx334855_100838","name":"Islamic place","lat":33.485497,"lng":10.083839,"addr":"","type":"place_of_worship"},{"id":"xx346885_107076","name":"جامع التوتة","lat":34.68852,"lng":10.707573,"addr":"طريق قابس","type":"place_of_worship"},{"id":"xx346045_106086","name":"جامع الفتح بقرقور","lat":34.604535,"lng":10.608608,"addr":"","type":"place_of_worship"},{"id":"xx331830_104354","name":"جامع التّقوى بالڨرار","lat":33.183048,"lng":10.435396,"addr":"","type":"place_of_worship"},{"id":"xx331787_104389","name":"مسجد الفتح","lat":33.178722,"lng":10.438878,"addr":"","type":"place_of_worship"},{"id":"xx331716_104375","name":"Mosquée El Faleh","lat":33.171639,"lng":10.437515,"addr":"","type":"place_of_worship"},{"id":"xx321889_104700","name":"Mosquée Nekrif","lat":32.188908,"lng":10.469968,"addr":"","type":"place_of_worship"},{"id":"xx320083_107004","name":"Mosquée Essalem","lat":32.008334,"lng":10.700435,"addr":"","type":"place_of_worship"},{"id":"xx328622_108169","name":"Mosquée Beni Mhira","lat":32.862177,"lng":10.816853,"addr":"","type":"place_of_worship"},{"id":"xx328692_108850","name":"مسجد قصر عون","lat":32.86921,"lng":10.885033,"addr":"","type":"place_of_worship"},{"id":"xx331216_104104","name":"مسجد قراقر","lat":33.121632,"lng":10.4104,"addr":"قراقر","type":"place_of_worship"},{"id":"xx332480_102067","name":"جامع النور بني خداش","lat":33.248033,"lng":10.206708,"addr":"","type":"place_of_worship"},{"id":"xx332394_101981","name":"جامع سيدي منصور","lat":33.239382,"lng":10.198139,"addr":"","type":"place_of_worship"},{"id":"xx332397_101882","name":"جامع التوبة","lat":33.239726,"lng":10.188216,"addr":"","type":"place_of_worship"},{"id":"xx331870_101342","name":"Mosquée Aziza","lat":33.186984,"lng":10.134153,"addr":"","type":"place_of_worship"},{"id":"xx332243_102033","name":"جامع الشعيبة","lat":33.224308,"lng":10.203299,"addr":"","type":"place_of_worship"},{"id":"xx330247_103708","name":"جامع حي السواني","lat":33.024711,"lng":10.3708,"addr":"","type":"place_of_worship"},{"id":"xx330274_103863","name":"جامع الرحمة","lat":33.027427,"lng":10.38627,"addr":"قصر المرابطين","type":"place_of_worship"},{"id":"xx331794_102554","name":"مسجد وادي الخيل","lat":33.179395,"lng":10.255377,"addr":"","type":"place_of_worship"},{"id":"xx329755_103492","name":"Mosquée El Ferch","lat":32.975512,"lng":10.34918,"addr":"","type":"place_of_worship"},{"id":"xx329844_103852","name":"جامع الرحمة","lat":32.984426,"lng":10.385203,"addr":"","type":"place_of_worship"},{"id":"xx333649_106475","name":"Mosquée Alamet","lat":33.36487,"lng":10.647513,"addr":"","type":"place_of_worship"},{"id":"xx347892_107797","name":"جامع النور","lat":34.789181,"lng":10.779693,"addr":"","type":"place_of_worship"},{"id":"xx346826_107013","name":"الإمام مالك","lat":34.682587,"lng":10.701324,"addr":"","type":"place_of_worship"},{"id":"xx339923_100018","name":"Mosquée El Aouinet","lat":33.992337,"lng":10.001832,"addr":"","type":"place_of_worship"},{"id":"xx332734_108033","name":"Mosquée Hassi Ennour","lat":33.273444,"lng":10.803338,"addr":"","type":"place_of_worship"},{"id":"xx332525_108376","name":"Mosquée Chehbania","lat":33.252496,"lng":10.837584,"addr":"","type":"place_of_worship"},{"id":"xx332010_109411","name":"Mosquée Oued Errabeyaa","lat":33.201038,"lng":10.941121,"addr":"","type":"place_of_worship"},{"id":"xx349961_108994","name":"Mosquée El Krayma","lat":34.99607,"lng":10.899446,"addr":"","type":"place_of_worship"},{"id":"xx347497_107713","name":"جامع القدس","lat":34.749666,"lng":10.771274,"addr":"","type":"place_of_worship"},{"id":"xx347753_108136","name":"جامع الفراتي","lat":34.775335,"lng":10.813558,"addr":"","type":"place_of_worship"},{"id":"xx347890_108347","name":"جامع الرياض","lat":34.789043,"lng":10.834747,"addr":"","type":"place_of_worship"},{"id":"xx347976_108649","name":"جامع سيدي منصور","lat":34.797604,"lng":10.864918,"addr":"","type":"place_of_worship"},{"id":"xx347711_106350","name":"Islamic place","lat":34.77107,"lng":10.635024,"addr":"","type":"place_of_worship"},{"id":"xx347465_107602","name":"جامع سيدي عبد القادر","lat":34.746507,"lng":10.760206,"addr":"","type":"place_of_worship"},{"id":"xx347770_107492","name":"جامع القدس","lat":34.777021,"lng":10.749161,"addr":"","type":"place_of_worship"},{"id":"xx347821_107472","name":"مسجد الحمد","lat":34.782055,"lng":10.747187,"addr":"","type":"place_of_worship"},{"id":"xx347925_107436","name":"جامع بوشعالة","lat":34.792537,"lng":10.743552,"addr":"","type":"place_of_worship"},{"id":"xx347923_107441","name":"الجامع الكبير بالشيحية","lat":34.792333,"lng":10.744141,"addr":"","type":"place_of_worship"},{"id":"xx348722_107116","name":"جامع بئر عباس","lat":34.872225,"lng":10.711576,"addr":"","type":"place_of_worship"},{"id":"xx338819_100880","name":"الجامع الكبير","lat":33.881911,"lng":10.088017,"addr":"","type":"place_of_worship"},{"id":"xx347447_107572","name":"Mosquée Sidi Bousaada","lat":34.744702,"lng":10.757183,"addr":"","type":"place_of_worship"},{"id":"xx346956_106678","name":"Islamic place","lat":34.695615,"lng":10.667842,"addr":"","type":"place_of_worship"},{"id":"xx346960_106840","name":"Mosquée El Ghofrane","lat":34.696019,"lng":10.684022,"addr":"","type":"place_of_worship"},{"id":"xx347353_107633","name":"Sidi Amor Kammoun Mosque","lat":34.735326,"lng":10.763253,"addr":"","type":"mosque"},{"id":"xx332810_112886","name":"جامع الجدارية - البيبان","lat":33.281021,"lng":11.288646,"addr":"","type":"place_of_worship"},{"id":"xx334717_102584","name":"Islamic place","lat":33.471738,"lng":10.25839,"addr":"","type":"place_of_worship"},{"id":"xx333880_105210","name":"Mosquée El Jarray","lat":33.387953,"lng":10.521009,"addr":"","type":"place_of_worship"},{"id":"xx333698_105110","name":"Mosquée Errahmen","lat":33.36978,"lng":10.510988,"addr":"","type":"place_of_worship"},{"id":"xx334022_105308","name":"Mosquée Omar Ibn El Khattab","lat":33.402172,"lng":10.530806,"addr":"","type":"place_of_worship"},{"id":"xx334305_105656","name":"جامع عمرة الجديدة","lat":33.430506,"lng":10.565631,"addr":"","type":"place_of_worship"},{"id":"xx334691_106145","name":"Moisquée Ennour","lat":33.469108,"lng":10.614508,"addr":"","type":"place_of_worship"},{"id":"xx333746_101742","name":"Mosquée Chwamakh","lat":33.37462,"lng":10.174183,"addr":"","type":"place_of_worship"},{"id":"xx347909_106476","name":"Mosquée Errahma","lat":34.790938,"lng":10.647642,"addr":"","type":"place_of_worship"},{"id":"xx347987_106447","name":"Mosquée El Baraka","lat":34.798749,"lng":10.644701,"addr":"","type":"place_of_worship"},{"id":"xx349823_106702","name":"جامع الإخلاص","lat":34.982255,"lng":10.670247,"addr":"","type":"place_of_worship"},{"id":"xx347283_106207","name":"Mosquée El Ihsen","lat":34.728346,"lng":10.620701,"addr":"","type":"place_of_worship"},{"id":"xx347068_100245","name":"Mosquée Bir Chouket","lat":34.706787,"lng":10.024484,"addr":"","type":"place_of_worship"},{"id":"xx348042_107863","name":"مسجد بو علي","lat":34.804169,"lng":10.786266,"addr":"","type":"place_of_worship"},{"id":"xx347954_108007","name":"جامع النور","lat":34.795379,"lng":10.800693,"addr":"","type":"place_of_worship"},{"id":"xx348074_107864","name":"جامع السلام","lat":34.807422,"lng":10.786443,"addr":"","type":"place_of_worship"},{"id":"xx348270_107931","name":"جامع اليسر","lat":34.826993,"lng":10.793072,"addr":"","type":"place_of_worship"},{"id":"xx347699_107747","name":"جامع كعنيش","lat":34.769893,"lng":10.77466,"addr":"","type":"place_of_worship"},{"id":"xx347632_107742","name":"جامع الغفران","lat":34.763246,"lng":10.774211,"addr":"","type":"place_of_worship"},{"id":"xx334570_104356","name":"Mosquée Ragouba","lat":33.456965,"lng":10.435589,"addr":"","type":"place_of_worship"},{"id":"xx337537_100883","name":"Mosquée Limawa","lat":33.753723,"lng":10.088292,"addr":"","type":"place_of_worship"},{"id":"xx334414_109233","name":"Mosquée Khalfallah","lat":33.441449,"lng":10.923284,"addr":"","type":"place_of_worship"},{"id":"xx333955_107937","name":"Mosquée Ghrabat","lat":33.395518,"lng":10.793745,"addr":"","type":"place_of_worship"},{"id":"xx333734_106924","name":"Mosquée Souitir","lat":33.373433,"lng":10.692358,"addr":"","type":"place_of_worship"},{"id":"xx332856_103006","name":"Mosquée Zitouna","lat":33.285567,"lng":10.300619,"addr":"","type":"place_of_worship"},{"id":"xx336575_100155","name":"Mosquée Essalem","lat":33.657524,"lng":10.015496,"addr":"","type":"place_of_worship"},{"id":"xx336673_100156","name":"مسجد الطوبة","lat":33.667341,"lng":10.015585,"addr":"228","type":"place_of_worship"},{"id":"xx336774_100166","name":"Mosquée El Ghofrane","lat":33.677405,"lng":10.016612,"addr":"","type":"place_of_worship"},{"id":"xx336197_109636","name":"Mosquée Alhidaya","lat":33.61975,"lng":10.963623,"addr":"","type":"place_of_worship"},{"id":"xx337360_107476","name":"Jamaa Ettouil","lat":33.735973,"lng":10.747592,"addr":"","type":"place_of_worship"},{"id":"xx328880_103878","name":"أبو بكر الصديق","lat":32.88805,"lng":10.387776,"addr":"","type":"place_of_worship"},{"id":"xx348185_107590","name":"جامع المصطفى","lat":34.818489,"lng":10.758961,"addr":"","type":"place_of_worship"},{"id":"xx348215_107630","name":"جامع النور","lat":34.821532,"lng":10.763012,"addr":"","type":"place_of_worship"},{"id":"xx348500_107620","name":"جامع التوبة","lat":34.850039,"lng":10.762032,"addr":"","type":"place_of_worship"},{"id":"xx331601_111658","name":"جامع الورسنية","lat":33.160074,"lng":11.165762,"addr":"","type":"place_of_worship"},{"id":"xx329914_105808","name":"مسجد غاندرية","lat":32.99139,"lng":10.580758,"addr":"","type":"place_of_worship"},{"id":"xx332387_108730","name":"جامع النفاتية","lat":33.238676,"lng":10.873037,"addr":"","type":"place_of_worship"},{"id":"xx336223_107175","name":"Mosquée El Imen","lat":33.622265,"lng":10.717505,"addr":"","type":"place_of_worship"},{"id":"xx336366_107203","name":"مسجد الطوايشة","lat":33.636558,"lng":10.720321,"addr":"","type":"place_of_worship"},{"id":"xx336770_107354","name":"Mosquée El Houda","lat":33.677049,"lng":10.735382,"addr":"","type":"place_of_worship"},{"id":"xx336965_107323","name":"Mosquée El Jorf","lat":33.696529,"lng":10.732344,"addr":"","type":"place_of_worship"},{"id":"xx336872_107028","name":"جامع تماسنت","lat":33.687207,"lng":10.702769,"addr":"","type":"place_of_worship"},{"id":"xx336560_106211","name":"Mosquée Maghraouia","lat":33.65596,"lng":10.621084,"addr":"","type":"place_of_worship"},{"id":"xx349696_109097","name":"Mosquée","lat":34.969589,"lng":10.909679,"addr":"","type":"place_of_worship"},{"id":"xx348389_108407","name":"جامع أولاد الحاج عمر","lat":34.838894,"lng":10.840653,"addr":"","type":"place_of_worship"},{"id":"xx348011_106727","name":"جامع عين الشرفي","lat":34.801073,"lng":10.672656,"addr":"","type":"place_of_worship"},{"id":"xx348858_100804","name":"جامع سيدي الظاهر","lat":34.885759,"lng":10.080377,"addr":"","type":"place_of_worship"},{"id":"xx348982_100770","name":"جامع سيدي الظاهر 2","lat":34.898157,"lng":10.077012,"addr":"","type":"place_of_worship"},{"id":"xx349272_100744","name":"Mosquée Sidi Dhaher","lat":34.927226,"lng":10.074355,"addr":"","type":"place_of_worship"},{"id":"xx347757_107966","name":"جامع الفتاح","lat":34.775685,"lng":10.796584,"addr":"","type":"place_of_worship"},{"id":"xx347709_108017","name":"جامع الخليج","lat":34.770872,"lng":10.801664,"addr":"","type":"place_of_worship"},{"id":"xx327683_102569","name":"Islamic place","lat":32.768343,"lng":10.256903,"addr":"","type":"place_of_worship"},{"id":"xx348454_107917","name":"جامع الهيثم","lat":34.845377,"lng":10.791725,"addr":"","type":"place_of_worship"},{"id":"xx349805_104767","name":"جامع الزعيبات","lat":34.980503,"lng":10.476712,"addr":"","type":"place_of_worship"},{"id":"xx346917_100662","name":"Mosquée Bir El Krayma","lat":34.691701,"lng":10.066248,"addr":"","type":"place_of_worship"},{"id":"xx346719_100483","name":"Mosquée El Hommer","lat":34.67187,"lng":10.048313,"addr":"","type":"place_of_worship"},{"id":"xx345212_102845","name":"Mosquée El Ghofrane","lat":34.521167,"lng":10.284474,"addr":"","type":"place_of_worship"},{"id":"xx347800_107782","name":"جامع السعادة","lat":34.779967,"lng":10.778223,"addr":"","type":"place_of_worship"},{"id":"xx347817_107957","name":"جامع النصر","lat":34.7817,"lng":10.795656,"addr":"","type":"place_of_worship"},{"id":"xx348080_107508","name":"جامع البر","lat":34.80805,"lng":10.750768,"addr":"","type":"place_of_worship"},{"id":"xx348131_107478","name":"جامع الرحمة","lat":34.813082,"lng":10.747785,"addr":"","type":"place_of_worship"},{"id":"xx347905_107798","name":"الجامع الكبير بساقية الدائر","lat":34.790548,"lng":10.779831,"addr":"","type":"place_of_worship"},{"id":"xx334878_110648","name":"Islamic place","lat":33.487764,"lng":11.064775,"addr":"","type":"place_of_worship"},{"id":"xx348048_107971","name":"جامع الحبيب","lat":34.804779,"lng":10.797145,"addr":"","type":"place_of_worship"},{"id":"xx349382_108651","name":"جامع الكتاتنة","lat":34.93818,"lng":10.865074,"addr":"","type":"place_of_worship"},{"id":"xx347557_107693","name":"جامع البستان","lat":34.755654,"lng":10.769318,"addr":"","type":"place_of_worship"},{"id":"xx348137_107618","name":"جامع السدرة","lat":34.813697,"lng":10.761789,"addr":"","type":"place_of_worship"},{"id":"xx347598_107631","name":"جامع تقتق","lat":34.759833,"lng":10.763089,"addr":"","type":"place_of_worship"},{"id":"xx347655_107618","name":"جامع مركز قدور","lat":34.765518,"lng":10.761817,"addr":"","type":"place_of_worship"},{"id":"xx347732_107616","name":"جامع مركز بوعصيدة","lat":34.773202,"lng":10.761639,"addr":"","type":"place_of_worship"},{"id":"xx346753_106936","name":"جامع السعادة","lat":34.675275,"lng":10.693571,"addr":"","type":"place_of_worship"},{"id":"xx347293_107122","name":"جامع الهدى","lat":34.729268,"lng":10.712202,"addr":"","type":"place_of_worship"},{"id":"xx347315_106700","name":"جامع اللطف","lat":34.731544,"lng":10.669951,"addr":"","type":"place_of_worship"},{"id":"xx347691_106845","name":"جامع الرضوان","lat":34.769083,"lng":10.684523,"addr":"","type":"place_of_worship"},{"id":"xx348448_108518","name":"جامع الغفران حقونة","lat":34.844758,"lng":10.851847,"addr":"","type":"place_of_worship"},{"id":"xx347590_107743","name":"جامع الحياة","lat":34.75896,"lng":10.774267,"addr":"","type":"place_of_worship"},{"id":"xx347572_107853","name":"جامع الحق","lat":34.757239,"lng":10.785339,"addr":"","type":"place_of_worship"},{"id":"xx347834_107621","name":"جامع السيدة عائشة","lat":34.783432,"lng":10.762106,"addr":"","type":"place_of_worship"},{"id":"xx347876_107600","name":"جامع الخراج","lat":34.787618,"lng":10.759994,"addr":"","type":"place_of_worship"},{"id":"xx348021_107619","name":"مسجد طارق بن زياد","lat":34.802125,"lng":10.76193,"addr":"","type":"place_of_worship"},{"id":"xx347294_107310","name":"جامع الحسنات سكرة","lat":34.72937,"lng":10.730967,"addr":"Route de Soukra","type":"place_of_worship"},{"id":"xx347216_107136","name":"جامع السلام","lat":34.721593,"lng":10.713554,"addr":"","type":"place_of_worship"},{"id":"xx348116_107828","name":"جامع النور","lat":34.811644,"lng":10.782843,"addr":"","type":"place_of_worship"},{"id":"xx338022_108835","name":"Jamaa Ami Turkiya","lat":33.802228,"lng":10.883508,"addr":"El May","type":"place_of_worship"},{"id":"xx347979_107851","name":"جامع المحمود","lat":34.797889,"lng":10.785146,"addr":"","type":"place_of_worship"},{"id":"xx336964_109027","name":"Islamic place","lat":33.69642,"lng":10.902699,"addr":"","type":"mosque"},{"id":"xx338960_108270","name":"Sidi Salem","lat":33.896023,"lng":10.82696,"addr":"","type":"place_of_worship"},{"id":"xx337288_108831","name":"Jamaa Ben Yahyaten","lat":33.728798,"lng":10.883083,"addr":"","type":"place_of_worship"},{"id":"xx348296_100453","name":"جامع بئر أولاد محمود","lat":34.829564,"lng":10.04528,"addr":"","type":"place_of_worship"},{"id":"xx348592_100232","name":"جامع أولاد علي","lat":34.859212,"lng":10.023192,"addr":"","type":"place_of_worship"},{"id":"xx347298_106087","name":"مسجد الصغار","lat":34.729799,"lng":10.60866,"addr":"الصغار","type":"place_of_worship"},{"id":"xx327659_102766","name":"جامع الدغارية","lat":32.765866,"lng":10.27657,"addr":"","type":"place_of_worship"},{"id":"xx335214_100786","name":"Islamic place","lat":33.521377,"lng":10.07856,"addr":"","type":"place_of_worship"},{"id":"xx328129_104583","name":"Bouziri mosquèe","lat":32.812878,"lng":10.458258,"addr":"","type":"place_of_worship"},{"id":"xx332967_101885","name":"Islamic place","lat":33.29675,"lng":10.188486,"addr":"","type":"place_of_worship"},{"id":"xx335848_100755","name":"Islamic place","lat":33.584778,"lng":10.075485,"addr":"","type":"mosque"},{"id":"xx335422_101002","name":"Islamic place","lat":33.542218,"lng":10.100159,"addr":"","type":"mosque"},{"id":"xx332827_101944","name":"Sidi el Hadj Mabrouk","lat":33.282701,"lng":10.19435,"addr":"","type":"mosque"},{"id":"xx347899_108238","name":"Mosquée Ettakwa","lat":34.789869,"lng":10.823786,"addr":"","type":"place_of_worship"},{"id":"xx327320_104789","name":"Islamic place","lat":32.732004,"lng":10.478948,"addr":"","type":"mosque"},{"id":"xx347905_107914","name":"جامع الهداية","lat":34.790457,"lng":10.791445,"addr":"","type":"place_of_worship"},{"id":"xx328009_106763","name":"Islamic place","lat":32.800878,"lng":10.676272,"addr":"","type":"mosque"},{"id":"xx331469_102254","name":"Islamic place","lat":33.146921,"lng":10.22543,"addr":"","type":"place_of_worship"},{"id":"xx338235_109366","name":"جامع بوليمان","lat":33.823484,"lng":10.936589,"addr":"","type":"place_of_worship"},{"id":"xx337224_108876","name":"El Mouhechi","lat":33.722444,"lng":10.887625,"addr":"","type":"mosque"},{"id":"xx347651_107834","name":"جامع المنار 2","lat":34.765136,"lng":10.783393,"addr":"","type":"place_of_worship"},{"id":"xx338282_109779","name":"Islamic place","lat":33.828193,"lng":10.977856,"addr":"","type":"place_of_worship"},{"id":"xx347705_107408","name":"جامع علي ابن أبي طالب","lat":34.770483,"lng":10.740824,"addr":"","type":"place_of_worship"},{"id":"xx337371_109371","name":"Mosquée Sidi Satouri","lat":33.73711,"lng":10.937068,"addr":"","type":"place_of_worship"},{"id":"xx348080_107688","name":"جامع الفوز","lat":34.808011,"lng":10.768832,"addr":"","type":"place_of_worship"},{"id":"xx348265_107590","name":"جامع التوفيق","lat":34.82653,"lng":10.758999,"addr":"","type":"place_of_worship"},{"id":"xx348485_106903","name":"Islamic place","lat":34.848539,"lng":10.690286,"addr":"","type":"place_of_worship"},{"id":"xx348457_106168","name":"Islamic place","lat":34.845727,"lng":10.616753,"addr":"","type":"place_of_worship"},{"id":"xx348258_107723","name":"Mosquée","lat":34.825828,"lng":10.772321,"addr":"","type":"place_of_worship"},{"id":"xx347678_107350","name":"مسجد طريفة","lat":34.767845,"lng":10.734955,"addr":"","type":"place_of_worship"},{"id":"xx349044_103742","name":"Mosquée Bechka","lat":34.904364,"lng":10.374178,"addr":"","type":"place_of_worship"},{"id":"xx337936_110215","name":"جامع سيدي عبد القادر","lat":33.793618,"lng":11.021518,"addr":"","type":"place_of_worship"},{"id":"xx337630_109688","name":"جامع ودران","lat":33.763016,"lng":10.968785,"addr":"","type":"place_of_worship"},{"id":"xx349827_108962","name":"الجامع الكبير بالعامرة","lat":34.982725,"lng":10.896164,"addr":"العامرة","type":"place_of_worship"},{"id":"xx348172_108061","name":"جامع الحكمة","lat":34.817215,"lng":10.806141,"addr":"","type":"place_of_worship"},{"id":"xx348739_108245","name":"Islamic place","lat":34.873853,"lng":10.824507,"addr":"","type":"place_of_worship"},{"id":"xx348686_108395","name":"Mosquée Bderna","lat":34.868573,"lng":10.839534,"addr":"","type":"place_of_worship"},{"id":"xx348729_108402","name":"جامع البدارنة","lat":34.872905,"lng":10.840185,"addr":"","type":"place_of_worship"},{"id":"xx347681_107480","name":"جامع الحكيم","lat":34.768111,"lng":10.747959,"addr":"حزام بورقيبة","type":"place_of_worship"},{"id":"xx347698_107197","name":"جامع السلام","lat":34.769768,"lng":10.719671,"addr":"","type":"place_of_worship"},{"id":"xx347939_106968","name":"جامع الفوز","lat":34.79388,"lng":10.696784,"addr":"","type":"place_of_worship"},{"id":"xx336617_103262","name":"Islamic place","lat":33.661653,"lng":10.326206,"addr":"","type":"place_of_worship"},{"id":"xx338024_110055","name":"Ben Achour Mosquée","lat":33.802365,"lng":11.005487,"addr":"Temlel","type":"place_of_worship"},{"id":"xx338055_110134","name":"جامع بوزيري","lat":33.805462,"lng":11.013358,"addr":"تملال","type":"place_of_worship"},{"id":"xx338024_110170","name":"Moulay Taieb El Ouzani Mosquée","lat":33.802444,"lng":11.016985,"addr":"","type":"place_of_worship"},{"id":"xx338223_109944","name":"Sidi Sofiane Mosque","lat":33.822263,"lng":10.994386,"addr":"","type":"place_of_worship"},{"id":"xx338167_110032","name":"مسجد المقارسة","lat":33.816721,"lng":11.003207,"addr":"","type":"place_of_worship"},{"id":"xx337879_110335","name":"جامع سيدي وحلان","lat":33.787889,"lng":11.0335,"addr":"الحدادة","type":"place_of_worship"},{"id":"xx338545_109025","name":"جامع مزلين","lat":33.854533,"lng":10.902458,"addr":"","type":"place_of_worship"},{"id":"xx338243_109460","name":"Islamic place","lat":33.824306,"lng":10.946023,"addr":"","type":"mosque"},{"id":"xx337963_110455","name":"جامع سيدي صباح","lat":33.796259,"lng":11.045495,"addr":"","type":"place_of_worship"},{"id":"xx337845_110455","name":"Mosquée Firdaous","lat":33.784525,"lng":11.045485,"addr":"","type":"place_of_worship"},{"id":"xx337846_108679","name":"سيدي غريب","lat":33.784612,"lng":10.867925,"addr":"وادي أمغار","type":"place_of_worship"},{"id":"xx337945_109024","name":"El Mahri Mosquee","lat":33.794456,"lng":10.902394,"addr":"","type":"place_of_worship"},{"id":"xx338430_108436","name":"Jamaa Sidi Mbarek","lat":33.843019,"lng":10.843615,"addr":"","type":"place_of_worship"},{"id":"xx338487_109195","name":"Islamic place","lat":33.848708,"lng":10.919511,"addr":"","type":"grave_yard"},{"id":"xx338489_109195","name":"Jamaa El Ababssa - El Jedid","lat":33.848895,"lng":10.919453,"addr":"Zian","type":"place_of_worship"},{"id":"xx337847_109998","name":"Sidi Azmouni Mosquée","lat":33.784658,"lng":10.999804,"addr":"Arkou - Essaigh","type":"place_of_worship"},{"id":"xx338140_109234","name":"Jamma Said Ben Salah","lat":33.814037,"lng":10.923427,"addr":"","type":"place_of_worship"},{"id":"xx337335_107594","name":"جامع ليمس","lat":33.733459,"lng":10.759434,"addr":"أجيم","type":"place_of_worship"},{"id":"xx337359_107461","name":"El Faqia Amor","lat":33.735897,"lng":10.746128,"addr":"Ajim","type":"place_of_worship"},{"id":"xx337576_108259","name":"جامع تيواجن","lat":33.757592,"lng":10.825908,"addr":"","type":"place_of_worship"},{"id":"xx337478_107839","name":"جامع الهداية","lat":33.747841,"lng":10.783852,"addr":"","type":"place_of_worship"},{"id":"xx337289_107591","name":"مسجد بن ويران","lat":33.728867,"lng":10.759064,"addr":"Ajim","type":"place_of_worship"},{"id":"xx338185_110359","name":"جامع ابن العباس","lat":33.818494,"lng":11.035909,"addr":"تاقرماس","type":"place_of_worship"},{"id":"xx337361_108440","name":"مسجد المجلس","lat":33.736059,"lng":10.843983,"addr":"","type":"place_of_worship"},{"id":"xx337143_108617","name":"Tadbousit Fadma","lat":33.714309,"lng":10.861719,"addr":"Guellala","type":"place_of_worship"},{"id":"xx348084_107165","name":"جامع الحكمة","lat":34.808436,"lng":10.716493,"addr":"","type":"place_of_worship"},{"id":"xx337153_107600","name":"Jamaa Bou Barnous","lat":33.715276,"lng":10.76003,"addr":"Ajim","type":"place_of_worship"},{"id":"xx337494_108394","name":"Iminej","lat":33.749364,"lng":10.839443,"addr":"Tlet","type":"grave_yard"},{"id":"xx337736_108179","name":"Ben Moumen mosquée","lat":33.773629,"lng":10.81792,"addr":"Esrandi","type":"place_of_worship"},{"id":"xx347160_107272","name":"جامع الهدى شارع البيئة","lat":34.716003,"lng":10.727207,"addr":"شارع البيئة","type":"mosque"},{"id":"xx337951_109682","name":"Islamic place","lat":33.795135,"lng":10.968249,"addr":"","type":"grave_yard"},{"id":"xx337954_109777","name":"Islamic place","lat":33.795399,"lng":10.977693,"addr":"","type":"place_of_worship"},{"id":"xx338213_108377","name":"Jamaa Majjin","lat":33.821293,"lng":10.837663,"addr":"","type":"place_of_worship"},{"id":"xx337565_107539","name":"جامع النور","lat":33.756499,"lng":10.753918,"addr":"بوسمايل","type":"place_of_worship"},{"id":"xx333690_104366","name":"Jamaa Ahmed Lahajel","lat":33.369039,"lng":10.43661,"addr":"أم التمر","type":"place_of_worship"},{"id":"xx337986_108930","name":"جامع التقوى","lat":33.798625,"lng":10.892967,"addr":"","type":"place_of_worship"},{"id":"xx338079_108902","name":"Mosquee Ouchachna","lat":33.80789,"lng":10.890237,"addr":"","type":"place_of_worship"},{"id":"xx337640_109598","name":"Toghrouit mosquée","lat":33.763987,"lng":10.959834,"addr":"","type":"place_of_worship"},{"id":"xx337166_109362","name":"جامع الفتح","lat":33.716619,"lng":10.936162,"addr":"غرداية","type":"place_of_worship"},{"id":"xx337691_108922","name":"جامع التوبة","lat":33.769081,"lng":10.892174,"addr":"ربانة","type":"place_of_worship"},{"id":"xx337580_107912","name":"Fakia Belkassem mosquée","lat":33.758013,"lng":10.791177,"addr":"Khnensa","type":"place_of_worship"},{"id":"xx338125_108456","name":"Sidi Khalifa Ezzenkri","lat":33.812523,"lng":10.845588,"addr":"","type":"place_of_worship"},{"id":"xx338304_108708","name":"جامع الجديد","lat":33.830374,"lng":10.870772,"addr":"","type":"place_of_worship"},{"id":"xx338343_108269","name":"جامع التقوى","lat":33.83429,"lng":10.826942,"addr":"","type":"place_of_worship"},{"id":"xx337814_107665","name":"Islamic place","lat":33.781396,"lng":10.766488,"addr":"","type":"grave_yard"},{"id":"xx337806_108840","name":"Islamic place","lat":33.780615,"lng":10.884043,"addr":"","type":"mosque"},{"id":"xx338246_109216","name":"Islamic place","lat":33.824561,"lng":10.92163,"addr":"Sedghiene","type":"construction=mosque"},{"id":"xx337998_108860","name":"Islamic place","lat":33.799785,"lng":10.885962,"addr":"","type":"mosque"},{"id":"xx348351_108113","name":"Islamic place","lat":34.835072,"lng":10.811294,"addr":"","type":"place_of_worship"},{"id":"xx337425_109130","name":"Boussetta El Chargui mosquée","lat":33.742534,"lng":10.912969,"addr":"","type":"place_of_worship"},{"id":"xx337408_109110","name":"Islamic place","lat":33.74082,"lng":10.910959,"addr":"","type":"mosque"},{"id":"xx348124_107959","name":"Mosquée Al Waheb","lat":34.812398,"lng":10.795891,"addr":"","type":"place_of_worship"},{"id":"xx348375_107731","name":"Mosquée Al Hideya","lat":34.837455,"lng":10.773098,"addr":"","type":"place_of_worship"},{"id":"xx347937_107292","name":"جامع الرحيم","lat":34.793717,"lng":10.729241,"addr":"","type":"place_of_worship"},{"id":"xx347957_107246","name":"جامع الإمام سحنون","lat":34.795684,"lng":10.724556,"addr":"","type":"place_of_worship"},{"id":"xx348119_107051","name":"جامع المعز","lat":34.811917,"lng":10.705073,"addr":"","type":"place_of_worship"},{"id":"xx347788_107689","name":"جامع الهداية","lat":34.778823,"lng":10.768925,"addr":"","type":"place_of_worship"},{"id":"xx347839_107727","name":"جامع الرحيم","lat":34.78389,"lng":10.772728,"addr":"","type":"place_of_worship"},{"id":"xx348178_107759","name":"جامع الإستقامة","lat":34.817828,"lng":10.775887,"addr":"","type":"place_of_worship"},{"id":"xx347186_106481","name":"جامع التوبة الحاجب","lat":34.718592,"lng":10.648083,"addr":"","type":"yes"},{"id":"xx347822_107275","name":"جامع الهداية","lat":34.782227,"lng":10.727507,"addr":"","type":"yes"},{"id":"xx347789_107257","name":"جامع مركز السلامي","lat":34.778929,"lng":10.725715,"addr":"","type":"mosque"},{"id":"xx347766_107276","name":"جامع الهدى","lat":34.776634,"lng":10.727636,"addr":"","type":"yes"},{"id":"xx347359_107608","name":"الجامع الكبير","lat":34.735917,"lng":10.760846,"addr":"صفاقس","type":"mosque"},{"id":"xx347517_106930","name":"جامع الأمان","lat":34.751724,"lng":10.692975,"addr":"","type":"place_of_worship"},{"id":"xx347784_106995","name":"جامع السماوي","lat":34.778399,"lng":10.69946,"addr":"","type":"place_of_worship"},{"id":"xx347405_107389","name":"جامع مركز شاكر","lat":34.74053,"lng":10.738924,"addr":"","type":"mosque"},{"id":"xx347693_107071","name":"الجامع الكبير بالعين مركز بن حليمة","lat":34.769343,"lng":10.707076,"addr":"","type":"place_of_worship"},{"id":"xx347281_107034","name":"3 جامع حي البحري","lat":34.728075,"lng":10.703361,"addr":"","type":"place_of_worship"},{"id":"xx347476_107056","name":"جامع الفلاح","lat":34.747565,"lng":10.70562,"addr":"","type":"place_of_worship"},{"id":"xx347505_107168","name":"جامع مركز دمق","lat":34.750477,"lng":10.716808,"addr":"","type":"place_of_worship"},{"id":"xx347614_106937","name":"جامع الحمد","lat":34.761354,"lng":10.693657,"addr":"","type":"place_of_worship"},{"id":"xx346945_107133","name":"مقبرة البدراني","lat":34.694537,"lng":10.713292,"addr":"","type":"mosque"},{"id":"xx347586_106848","name":"مقبرة سيدي خليفة الطياري","lat":34.758645,"lng":10.684814,"addr":"","type":"mosque"},{"id":"xx338722_108548","name":"Islamic place","lat":33.872193,"lng":10.854794,"addr":"","type":"mosque"},{"id":"xx338684_101127","name":"مسجد الغفران","lat":33.868405,"lng":10.112739,"addr":"قابس","type":"yes"},{"id":"xx338600_101125","name":"مسجد حي بن خلدوم","lat":33.860015,"lng":10.112451,"addr":"","type":"place_of_worship"},{"id":"xx338678_101258","name":"مسجد الهدى","lat":33.867829,"lng":10.125788,"addr":"","type":"place_of_worship"},{"id":"xx338483_101077","name":"مسجد المنارة","lat":33.848343,"lng":10.107672,"addr":"","type":"place_of_worship"},{"id":"xx338877_100905","name":"Islamic place","lat":33.887664,"lng":10.090497,"addr":"","type":"yes"},{"id":"xx338849_100891","name":"Islamic place","lat":33.884906,"lng":10.089114,"addr":"","type":"yes"},{"id":"xx338595_101164","name":"Islamic place","lat":33.859523,"lng":10.116376,"addr":"","type":"place_of_worship"},{"id":"xx338847_101064","name":"Islamic place","lat":33.884682,"lng":10.106409,"addr":"","type":"yes"},{"id":"xx338630_101064","name":"Islamic place","lat":33.862962,"lng":10.106393,"addr":"","type":"place_of_worship"},{"id":"xx338577_101018","name":"مسجد زريق","lat":33.857673,"lng":10.101842,"addr":"قابس","type":"yes"},{"id":"xx338315_107481","name":"جامع سيدي جمور","lat":33.831459,"lng":10.748067,"addr":"","type":"yes"},{"id":"xx337224_108443","name":"مسجد قلالة","lat":33.722373,"lng":10.844333,"addr":"","type":"mosque"},{"id":"xx348003_107681","name":"جامع المغفرة","lat":34.800291,"lng":10.76807,"addr":"","type":"yes"},{"id":"xx336603_100150","name":"مقبرة مطماطة الجديدة","lat":33.660337,"lng":10.014978,"addr":"","type":"mosque"},{"id":"xx329099_102750","name":"مسجد الرقود السبعة","lat":32.909863,"lng":10.274972,"addr":"شنني","type":"yes"},{"id":"xx329857_102513","name":"Islamic place","lat":32.985682,"lng":10.251318,"addr":"","type":"yes"},{"id":"xx328669_102886","name":"Islamic place","lat":32.866948,"lng":10.28863,"addr":"","type":"mosque"},{"id":"xx347357_100887","name":"Islamic place","lat":34.735676,"lng":10.088701,"addr":"","type":"mosque"},{"id":"xx337461_109204","name":"Islamic place","lat":33.746099,"lng":10.920425,"addr":"","type":"mosque"},{"id":"xx337963_109643","name":"مسجد الكاتب","lat":33.796319,"lng":10.964334,"addr":"محبوبين","type":"place_of_worship"},{"id":"xx338242_109591","name":"Islamic place","lat":33.824238,"lng":10.959059,"addr":"","type":"grave_yard"},{"id":"xx329331_104519","name":"الجامع الكبير","lat":32.933134,"lng":10.45188,"addr":"تطاوين","type":"mosque"},{"id":"xx329534_104618","name":"Islamic place","lat":32.953356,"lng":10.461837,"addr":"تطاوين","type":"mosque"},{"id":"xx329283_104337","name":"Islamic place","lat":32.928303,"lng":10.433709,"addr":"","type":"mosque"},{"id":"xx329188_104330","name":"hy l ber","lat":32.918809,"lng":10.433026,"addr":"","type":"place_of_worship"},{"id":"xx329242_104579","name":"ELHNYNA","lat":32.924155,"lng":10.45793,"addr":"","type":"mosque"},{"id":"xx329124_104645","name":"Islamic place","lat":32.912376,"lng":10.464521,"addr":"","type":"mosque"},{"id":"xx329221_105318","name":"Islamic place","lat":32.922137,"lng":10.531843,"addr":"","type":"place_of_worship"},{"id":"xx329039_105244","name":"مسجد قصر أولاد عبد الواحد","lat":32.903949,"lng":10.524412,"addr":"قطوفة","type":"mosque"},{"id":"xx335309_111099","name":"Islamic place","lat":33.530938,"lng":11.10986,"addr":"","type":"yes"},{"id":"xx338766_108609","name":"مسجد الغربة","lat":33.876643,"lng":10.860862,"addr":"حومة السوق","type":"yes"},{"id":"xx338776_108569","name":"مسجد الشيخ","lat":33.877624,"lng":10.856884,"addr":"حومة السوق","type":"yes"},{"id":"xx337069_108617","name":"مسجد سيدي يأتي","lat":33.70686,"lng":10.861679,"addr":"قلالة","type":"yes"},{"id":"xx338508_109676","name":"جامع الهواري","lat":33.850816,"lng":10.967638,"addr":"","type":"yes"},{"id":"xx347095_112109","name":"مقبرة الكلابين","lat":34.709465,"lng":11.210851,"addr":"الكلابين","type":"mosque"},{"id":"xx347540_112495","name":"Islamic place","lat":34.754,"lng":11.249478,"addr":"","type":"grave_yard"},{"id":"xx347760_112505","name":"مقبرة النجاة","lat":34.775983,"lng":11.250504,"addr":"النجاة","type":"mosque"},{"id":"xx347006_111898","name":"جامع أولاد بوعلي","lat":34.700614,"lng":11.189821,"addr":"","type":"mosque"},{"id":"xx347202_112407","name":"جامع العباسية","lat":34.72019,"lng":11.240703,"addr":"","type":"mosque"},{"id":"xx347206_112384","name":"Cimetière Abbassia","lat":34.720619,"lng":11.238441,"addr":"","type":"grave_yard"},{"id":"xx346551_109719","name":"سيدي يوسف","lat":34.655101,"lng":10.971929,"addr":"سيدي يوسف","type":"mosque"},{"id":"xx323180_104031","name":"Cimetière Remada","lat":32.318016,"lng":10.403104,"addr":"","type":"mosque"},{"id":"xx332918_101549","name":"Islamic place","lat":33.291807,"lng":10.154879,"addr":"","type":"mosque"},{"id":"xx333445_105086","name":"مسجد الرحمة","lat":33.344478,"lng":10.508587,"addr":"مدنين","type":"yes"},{"id":"xx336662_103488","name":"Mosque Essalam - Zarat","lat":33.666229,"lng":10.348831,"addr":"","type":"mosque"},{"id":"xx336763_103537","name":"Cimetière Ezzarat","lat":33.676326,"lng":10.353669,"addr":"","type":"mosque"},{"id":"xx336833_106854","name":"Islamic place","lat":33.683333,"lng":10.68537,"addr":"","type":"mosque"},{"id":"xx336454_103503","name":"Islamic place","lat":33.645424,"lng":10.350346,"addr":"","type":"mosque"},{"id":"xx335119_111157","name":"Kbir","lat":33.511948,"lng":11.115702,"addr":"","type":"yes"},{"id":"xx335390_106777","name":"Islamic place","lat":33.539004,"lng":10.677748,"addr":"بوغرارة","type":"yes"},{"id":"xx333360_104724","name":"جامع مسجد العصر","lat":33.336006,"lng":10.472394,"addr":"Medenine","type":"yes"},{"id":"xx333382_104808","name":"مقبرة الزوايدية","lat":33.338207,"lng":10.480815,"addr":"","type":"grave_yard"},{"id":"xx333476_104905","name":"جامع سيدي علي بن عبيد","lat":33.347635,"lng":10.490526,"addr":"مدنين","type":"mosque"},{"id":"xx333443_104933","name":"الجامع الكبير","lat":33.344332,"lng":10.493294,"addr":"مدنين","type":"place_of_worship"},{"id":"xx333010_102943","name":"جامع القصر الجديد","lat":33.30103,"lng":10.294293,"addr":"Ksar Jedid","type":"yes"},{"id":"xx333039_102945","name":"مقبرة","lat":33.303858,"lng":10.294506,"addr":"","type":"mosque"},{"id":"xx335485_104935","name":"Islamic place","lat":33.548525,"lng":10.49351,"addr":"","type":"yes"},{"id":"xx333117_105241","name":"جامع اللّبة","lat":33.311695,"lng":10.524094,"addr":"Medenine","type":"yes"},{"id":"xx333446_104877","name":"Islamic place","lat":33.344555,"lng":10.48765,"addr":"","type":"grave_yard"},{"id":"xx333533_104950","name":"Islamic place","lat":33.353303,"lng":10.495031,"addr":"مدنين","type":"yes"},{"id":"xx333538_104951","name":"Islamic place","lat":33.353799,"lng":10.495109,"addr":"","type":"mosque"},{"id":"xx336356_103413","name":"Islamic place","lat":33.635562,"lng":10.341282,"addr":"","type":"mosque"},{"id":"xx336158_105155","name":"مسجد القرين","lat":33.615821,"lng":10.515517,"addr":"القرين","type":"yes"},{"id":"xx338845_100608","name":"cimetiere Nahal","lat":33.884459,"lng":10.06084,"addr":"","type":"mosque"},{"id":"xx338695_100675","name":"Islamic place","lat":33.86945,"lng":10.067496,"addr":"","type":"mosque"},{"id":"xx338673_100609","name":"Islamic place","lat":33.867259,"lng":10.060867,"addr":"","type":"mosque"},{"id":"xx338442_101155","name":"Islamic place","lat":33.844209,"lng":10.115507,"addr":"","type":"mosque"},{"id":"xx338599_101155","name":"Islamic place","lat":33.859861,"lng":10.115537,"addr":"","type":"mosque"},{"id":"xx338051_100680","name":"Cimetière El Medou","lat":33.805093,"lng":10.068006,"addr":"","type":"mosque"},{"id":"xx338032_100326","name":"Islamic place","lat":33.803246,"lng":10.032639,"addr":"","type":"yes"},{"id":"xx337661_101938","name":"Islamic place","lat":33.766076,"lng":10.193838,"addr":"","type":"mosque"},{"id":"xx336751_102231","name":"Islamic place","lat":33.6751,"lng":10.22308,"addr":"","type":"mosque"},{"id":"xx337092_102674","name":"Islamic place","lat":33.709229,"lng":10.267414,"addr":"","type":"mosque"},{"id":"xx336590_102306","name":"Islamic place","lat":33.658994,"lng":10.230581,"addr":"","type":"mosque"},{"id":"xx335371_106777","name":"Islamic place","lat":33.537142,"lng":10.677745,"addr":"","type":"mosque"},{"id":"xx335870_103205","name":"Islamic place","lat":33.586986,"lng":10.320499,"addr":"","type":"mosque"},{"id":"xx336416_103910","name":"Islamic place","lat":33.64165,"lng":10.391045,"addr":"","type":"mosque"},{"id":"xx334453_106159","name":"Islamic place","lat":33.445333,"lng":10.615937,"addr":"","type":"mosque"},{"id":"xx328729_108248","name":"Islamic place","lat":32.872852,"lng":10.824788,"addr":"بني مهيرة الشرقية","type":"yes"},{"id":"xx328728_108217","name":"Cimetière Beni Mhira","lat":32.872791,"lng":10.821738,"addr":"","type":"mosque"},{"id":"xx329917_108273","name":"مقبرة الصمار","lat":32.991682,"lng":10.827254,"addr":"","type":"mosque"},{"id":"xx329114_104417","name":"Islamic place","lat":32.911425,"lng":10.441712,"addr":"","type":"mosque"},{"id":"xx329073_104201","name":"Islamic place","lat":32.907322,"lng":10.420084,"addr":"","type":"mosque"},{"id":"xx330684_103590","name":"مقبرة بني غدير","lat":33.068402,"lng":10.358961,"addr":"","type":"mosque"},{"id":"xx329835_103851","name":"Islamic place","lat":32.983524,"lng":10.385131,"addr":"","type":"mosque"},{"id":"xx338207_109540","name":"Islamic place","lat":33.820659,"lng":10.953974,"addr":"","type":"mosque"},{"id":"xx329117_102638","name":"جامع الفراجين","lat":32.911748,"lng":10.263757,"addr":"شنني","type":"yes"},{"id":"xx328678_102871","name":"مسجد النخيل","lat":32.867846,"lng":10.287096,"addr":"دويرات","type":"yes"},{"id":"xx330609_103978","name":"Islamic place","lat":33.060862,"lng":10.397799,"addr":"","type":"mosque"},{"id":"xx337217_109119","name":"Jamaa Okra (Louta Sedouikech)","lat":33.721685,"lng":10.911927,"addr":"","type":"mosque"},{"id":"xx338744_108665","name":"Islamic place","lat":33.874379,"lng":10.866542,"addr":"","type":"mosque"},{"id":"xx338752_108658","name":"Islamic place","lat":33.875155,"lng":10.865797,"addr":"","type":"mosque"},{"id":"xx338742_108667","name":"Islamic place","lat":33.874231,"lng":10.866692,"addr":"","type":"mosque"},{"id":"xx338166_108581","name":"Islamic place","lat":33.816625,"lng":10.858103,"addr":"","type":"yes"},{"id":"xx338652_108607","name":"Islamic place","lat":33.865229,"lng":10.860665,"addr":"","type":"grave_yard"},{"id":"xx338279_108521","name":"جامع العاقل","lat":33.827876,"lng":10.852051,"addr":"","type":"yes"},{"id":"xx338277_108522","name":"Islamic place","lat":33.827715,"lng":10.852192,"addr":"","type":"grave_yard"},{"id":"xx338279_109094","name":"مسجد الرحمن","lat":33.827855,"lng":10.909423,"addr":"قشعين","type":"mosque"},{"id":"xx338203_108997","name":"جامع سيدي ناصير","lat":33.820293,"lng":10.899737,"addr":"","type":"mosque"},{"id":"xx338334_109059","name":"اليونسي","lat":33.833369,"lng":10.905944,"addr":"","type":"yes"},{"id":"xx338389_109059","name":"El Guechai","lat":33.838941,"lng":10.905945,"addr":"","type":"yes"},{"id":"xx338881_101048","name":"Islamic place","lat":33.888087,"lng":10.104759,"addr":"","type":"yes"},{"id":"xx338781_108628","name":"Islamic place","lat":33.878137,"lng":10.86282,"addr":"حومة السوق","type":"yes"},{"id":"xx338064_109914","name":"جامع ميدون","lat":33.806418,"lng":10.991365,"addr":"ميدون","type":"yes"},{"id":"xx338627_100958","name":"Islamic place","lat":33.862692,"lng":10.095783,"addr":"","type":"place_of_worship"},{"id":"xx338655_100793","name":"Islamic place","lat":33.865473,"lng":10.0793,"addr":"","type":"place_of_worship"},{"id":"xx338798_100920","name":"Islamic place","lat":33.879826,"lng":10.09198,"addr":"","type":"yes"},{"id":"xx337441_109197","name":"جامع بن عمران","lat":33.744115,"lng":10.919749,"addr":"","type":"yes"},{"id":"xx338108_109910","name":"جامع الرحمان","lat":33.81079,"lng":10.990961,"addr":"ميدون","type":"yes"},{"id":"xx337821_110103","name":"Islamic place","lat":33.782058,"lng":11.010295,"addr":"","type":"mosque"},{"id":"xx337819_110102","name":"Islamic place","lat":33.781931,"lng":11.010166,"addr":"","type":"mosque"},{"id":"xx337818_110102","name":"Islamic place","lat":33.781849,"lng":11.010185,"addr":"","type":"mosque"},{"id":"xx337819_110104","name":"Islamic place","lat":33.781859,"lng":11.010385,"addr":"","type":"mosque"},{"id":"xx337635_110177","name":"Islamic place","lat":33.763456,"lng":11.017725,"addr":"","type":"yes"},{"id":"xx337817_110107","name":"Islamic place","lat":33.781711,"lng":11.010742,"addr":"","type":"mosque"},{"id":"xx336062_100647","name":"Mosquée Laffam","lat":33.606154,"lng":10.064728,"addr":"","type":"yes"},{"id":"xx334782_102463","name":"Islamic place","lat":33.478249,"lng":10.246273,"addr":"","type":"mosque"},{"id":"xx335106_101431","name":"Islamic place","lat":33.510615,"lng":10.143086,"addr":"","type":"yes"},{"id":"xx334964_102205","name":"Islamic place","lat":33.496432,"lng":10.220517,"addr":"","type":"mosque"},{"id":"xx333701_104381","name":"مقبرة أم التمر","lat":33.370118,"lng":10.438092,"addr":"","type":"mosque"},{"id":"xx332699_101282","name":"جامع المظهار","lat":33.269938,"lng":10.128166,"addr":"","type":"yes"},{"id":"xx334043_101930","name":"Islamic place","lat":33.404255,"lng":10.193026,"addr":"","type":"yes"},{"id":"xx334122_102849","name":"جامع الصايخة","lat":33.412171,"lng":10.2849,"addr":"","type":"yes"},{"id":"xx332639_103226","name":"Islamic place","lat":33.26391,"lng":10.32259,"addr":"","type":"yes"},{"id":"xx332634_103221","name":"Islamic place","lat":33.263374,"lng":10.322098,"addr":"","type":"mosque"},{"id":"xx334770_100001","name":"Islamic place","lat":33.476978,"lng":10.000081,"addr":"تشين","type":"yes"},{"id":"xx334770_100002","name":"مسجد تشين","lat":33.477022,"lng":10.000198,"addr":"تشين","type":"yes"},{"id":"xx334772_100002","name":"مقبرة تشين","lat":33.477235,"lng":10.0002,"addr":"تشين","type":"mosque"},{"id":"xx328643_104723","name":"Islamic place","lat":32.864302,"lng":10.472333,"addr":"","type":"mosque"},{"id":"xx328530_104752","name":"Islamic place","lat":32.852984,"lng":10.475188,"addr":"","type":"yes"},{"id":"xx329599_106451","name":"Islamic place","lat":32.959875,"lng":10.645098,"addr":"","type":"yes"},{"id":"xx329912_105807","name":"Islamic place","lat":32.99119,"lng":10.580741,"addr":"","type":"mosque"},{"id":"xx329915_105808","name":"Islamic place","lat":32.991469,"lng":10.580825,"addr":"","type":"mosque"},{"id":"xx329912_105805","name":"Islamic place","lat":32.991204,"lng":10.580521,"addr":"","type":"mosque"},{"id":"xx329913_105807","name":"Islamic place","lat":32.991279,"lng":10.580703,"addr":"","type":"mosque"},{"id":"xx329704_106619","name":"Islamic place","lat":32.970395,"lng":10.661876,"addr":"","type":"yes"},{"id":"xx329616_106413","name":"Islamic place","lat":32.961572,"lng":10.64127,"addr":"","type":"mosque"},{"id":"xx329961_105816","name":"غاندرية","lat":32.996145,"lng":10.581616,"addr":"","type":"mosque"},{"id":"xx331485_104485","name":"جامع قصر أولاد بوبكر","lat":33.148504,"lng":10.448498,"addr":"Ksar Ouled Boubaker","type":"yes"},{"id":"xx333179_101085","name":"Islamic place","lat":33.317918,"lng":10.108486,"addr":"","type":"yes"},{"id":"xx338679_109637","name":"جامع سيدي محرز","lat":33.867936,"lng":10.963741,"addr":"","type":"yes"},{"id":"xx338582_109326","name":"جامع تلاكين","lat":33.858196,"lng":10.932573,"addr":"غيزن","type":"mosque"},{"id":"xx338583_109322","name":"جامع تلاكين","lat":33.858292,"lng":10.932202,"addr":"غيزن","type":"mosque"},{"id":"xx338203_110298","name":"جامع سيدي روبيل","lat":33.820263,"lng":11.029776,"addr":"تاقرماس","type":"yes"},{"id":"xx337791_110354","name":"Islamic place","lat":33.779146,"lng":11.035427,"addr":"","type":"mosque"},{"id":"xx337879_110334","name":"جامع سيدي وحلان","lat":33.787948,"lng":11.033366,"addr":"الحدادة","type":"mosque"},{"id":"xx338620_108065","name":"Islamic place","lat":33.861954,"lng":10.806477,"addr":"","type":"yes"},{"id":"xx338604_108516","name":"Islamic place","lat":33.860413,"lng":10.851605,"addr":"","type":"yes"},{"id":"xx338605_108517","name":"Islamic place","lat":33.860533,"lng":10.851716,"addr":"","type":"mosque"},{"id":"xx338449_109698","name":"Jamaa Sellaouti","lat":33.844877,"lng":10.969774,"addr":"","type":"mosque"},{"id":"xx338203_109458","name":"جامع القايد","lat":33.820278,"lng":10.945771,"addr":"","type":"yes"},{"id":"xx337412_109167","name":"Islamic place","lat":33.741241,"lng":10.916669,"addr":"","type":"mosque"},{"id":"xx337282_108572","name":"Islamic place","lat":33.728245,"lng":10.85715,"addr":"","type":"yes"},{"id":"xx337098_108634","name":"Islamic place","lat":33.709806,"lng":10.863387,"addr":"","type":"mosque"},{"id":"xx337100_108633","name":"Jamaa Boumesour (qadima)","lat":33.710048,"lng":10.863336,"addr":"","type":"mosque"},{"id":"xx337103_108635","name":"Jamaa Boumasour (jedida)","lat":33.710316,"lng":10.863546,"addr":"","type":"yes"},{"id":"xx337575_108258","name":"جامع تيواجن","lat":33.757509,"lng":10.825804,"addr":"","type":"mosque"},{"id":"xx338818_100880","name":"Islamic place","lat":33.881826,"lng":10.088013,"addr":"","type":"yes"},{"id":"xx337445_109199","name":"Islamic place","lat":33.744531,"lng":10.919864,"addr":"","type":"yes"},{"id":"xx337448_109199","name":"Islamic place","lat":33.744803,"lng":10.919927,"addr":"","type":"yes"},{"id":"xx337386_109347","name":"Islamic place","lat":33.738619,"lng":10.934667,"addr":"","type":"mosque"},{"id":"xx337399_109261","name":"Islamic place","lat":33.73985,"lng":10.926094,"addr":"","type":"mosque"},{"id":"xx337473_109125","name":"Islamic place","lat":33.747271,"lng":10.912502,"addr":"","type":"mosque"},{"id":"xx337225_108872","name":"El Mouhechi Mosquée","lat":33.722465,"lng":10.887236,"addr":"","type":"mosque"},{"id":"xx336962_109032","name":"Jamaa el Hâra","lat":33.696221,"lng":10.903164,"addr":"","type":"yes"},{"id":"xx337129_109250","name":"Islamic place","lat":33.712901,"lng":10.925034,"addr":"","type":"yes"},{"id":"xx338726_109091","name":"Islamic place","lat":33.872577,"lng":10.909144,"addr":"","type":"yes"},{"id":"xx338735_109090","name":"Mosquée Sidi Smain","lat":33.873489,"lng":10.908954,"addr":"","type":"mosque"},{"id":"xx338694_108938","name":"Jamaa Ben Younes","lat":33.869362,"lng":10.893777,"addr":"","type":"yes"},{"id":"xx338695_108935","name":"Islamic place","lat":33.869545,"lng":10.893545,"addr":"","type":"mosque"},{"id":"xx337845_110456","name":"Mosquée Firdaous","lat":33.78446,"lng":11.0456,"addr":"","type":"mosque"},{"id":"xx338095_110226","name":"El Troguetiya mosquée","lat":33.80946,"lng":11.022647,"addr":"","type":"yes"},{"id":"xx338169_110167","name":"Sidi Yati Mosquée","lat":33.816907,"lng":11.016721,"addr":"","type":"mosque"},{"id":"xx338168_110169","name":"Islamic place","lat":33.816764,"lng":11.016883,"addr":"","type":"mosque"},{"id":"xx338168_110167","name":"Islamic place","lat":33.816761,"lng":11.016705,"addr":"","type":"mosque"},{"id":"xx338170_110167","name":"Islamic place","lat":33.817008,"lng":11.016744,"addr":"","type":"mosque"},{"id":"xx338059_100699","name":"مسجد المدو","lat":33.805944,"lng":10.0699,"addr":"المدو","type":"yes"},{"id":"xx338859_101019","name":"Islamic place","lat":33.885857,"lng":10.10194,"addr":"","type":"yes"},{"id":"xx338427_101189","name":"الجامع الكبير تبلبو","lat":33.842656,"lng":10.118855,"addr":"","type":"yes"},{"id":"xx338976_100818","name":"Islamic place","lat":33.897562,"lng":10.081838,"addr":"","type":"yes"},{"id":"xx339050_100617","name":"Islamic place","lat":33.904968,"lng":10.061712,"addr":"","type":"yes"},{"id":"xx339037_100584","name":"مقبرة بوشمة","lat":33.903722,"lng":10.058393,"addr":"","type":"mosque"},{"id":"xx332232_101581","name":"Islamic place","lat":33.22324,"lng":10.158094,"addr":"","type":"yes"},{"id":"xx332484_101949","name":"Islamic place","lat":33.248363,"lng":10.194942,"addr":"","type":"mosque"},{"id":"xx332628_101864","name":"مسجد زمور","lat":33.262842,"lng":10.18643,"addr":"زمور","type":"mosque"},{"id":"xx333746_105448","name":"Islamic place","lat":33.374629,"lng":10.544821,"addr":"","type":"yes"},{"id":"xx338156_109770","name":"Ouled Helal","lat":33.81559,"lng":10.97701,"addr":"Rue Khazroun","type":"yes"},{"id":"xx338160_109764","name":"Islamic place","lat":33.815968,"lng":10.976445,"addr":"","type":"mosque"},{"id":"xx338170_109699","name":"Islamic place","lat":33.817026,"lng":10.969864,"addr":"","type":"mosque"},{"id":"xx338234_109365","name":"جامع بوليمان","lat":33.823391,"lng":10.936471,"addr":"","type":"mosque"},{"id":"xx338240_109361","name":"Islamic place","lat":33.823976,"lng":10.936074,"addr":"","type":"mosque"},{"id":"xx338230_109364","name":"Islamic place","lat":33.823032,"lng":10.93641,"addr":"","type":"mosque"},{"id":"xx338225_108670","name":"جامع المدينة","lat":33.822524,"lng":10.866975,"addr":"الرياض","type":"yes"},{"id":"xx338207_109538","name":"جامع الجديد","lat":33.820746,"lng":10.95379,"addr":"","type":"yes"},{"id":"xx338247_109594","name":"Mosquée Fadhloun","lat":33.824734,"lng":10.959354,"addr":"","type":"yes"},{"id":"xx338283_109106","name":"Islamic place","lat":33.828263,"lng":10.910616,"addr":"","type":"mosque"},{"id":"xx338400_109056","name":"Islamic place","lat":33.839997,"lng":10.905606,"addr":"","type":"mosque"},{"id":"xx338268_108820","name":"جامع الملاق","lat":33.826771,"lng":10.881954,"addr":"والغ","type":"yes"},{"id":"xx338263_108820","name":"Islamic place","lat":33.826296,"lng":10.882037,"addr":"","type":"mosque"},{"id":"xx338346_108906","name":"Jamaa Bou Mokhil","lat":33.834647,"lng":10.890607,"addr":"","type":"yes"},{"id":"xx338346_108910","name":"Islamic place","lat":33.834577,"lng":10.891036,"addr":"","type":"grave_yard"},{"id":"xx338345_108901","name":"Islamic place","lat":33.83451,"lng":10.890119,"addr":"","type":"mosque"},{"id":"xx338465_108943","name":"جامع الشيخ","lat":33.846543,"lng":10.894295,"addr":"","type":"yes"},{"id":"xx338433_108882","name":"جامع الباسي","lat":33.843292,"lng":10.88825,"addr":"","type":"yes"},{"id":"xx338097_108711","name":"Jamaa Goujel","lat":33.809745,"lng":10.871113,"addr":"","type":"yes"},{"id":"xx338111_109363","name":"Jaber Ben Zayed","lat":33.811064,"lng":10.936263,"addr":"","type":"yes"},{"id":"xx337918_109512","name":"جامع برا","lat":33.791778,"lng":10.951152,"addr":"","type":"yes"},{"id":"xx338212_108557","name":"جامع الرياض","lat":33.821231,"lng":10.855684,"addr":"الرياض","type":"yes"},{"id":"xx338232_108549","name":"Islamic place","lat":33.823177,"lng":10.854872,"addr":"","type":"mosque"},{"id":"xx338220_108553","name":"Islamic place","lat":33.821971,"lng":10.855349,"addr":"","type":"mosque"},{"id":"xx338023_110054","name":"Ben Achour Mosquée","lat":33.802289,"lng":11.005435,"addr":"Temlel","type":"yes"},{"id":"xx338169_110034","name":"Islamic place","lat":33.816864,"lng":11.00341,"addr":"","type":"mosque"},{"id":"xx338168_110035","name":"Islamic place","lat":33.8168,"lng":11.003453,"addr":"","type":"mosque"},{"id":"xx338167_110034","name":"Islamic place","lat":33.816722,"lng":11.003403,"addr":"","type":"mosque"},{"id":"xx338168_110032","name":"مسجد المقارسة","lat":33.81675,"lng":11.003239,"addr":"","type":"mosque"},{"id":"xx338135_110060","name":"Islamic place","lat":33.813535,"lng":11.005957,"addr":"","type":"mosque"},{"id":"xx331748_101920","name":"Islamic place","lat":33.174782,"lng":10.191982,"addr":"","type":"yes"},{"id":"xx335768_102721","name":"Islamic place","lat":33.576801,"lng":10.272116,"addr":"","type":"yes"},{"id":"xx335765_102719","name":"Islamic place","lat":33.576508,"lng":10.271863,"addr":"","type":"mosque"},{"id":"xx331656_102152","name":"Islamic place","lat":33.165616,"lng":10.215224,"addr":"","type":"yes"},{"id":"xx332421_103343","name":"Islamic place","lat":33.242145,"lng":10.334346,"addr":"","type":"mosque"},{"id":"xx332388_102410","name":"Islamic place","lat":33.238844,"lng":10.241022,"addr":"","type":"yes"},{"id":"xx332637_102166","name":"جامعة الرايح","lat":33.263738,"lng":10.216575,"addr":"","type":"yes"},{"id":"xx332434_101954","name":"Islamic place","lat":33.243358,"lng":10.195388,"addr":"","type":"mosque"},{"id":"xx334797_103545","name":"Islamic place","lat":33.479685,"lng":10.354479,"addr":"","type":"yes"},{"id":"xx347010_111888","name":"مقبرة سيدي صالح","lat":34.700954,"lng":11.188762,"addr":"","type":"mosque"},{"id":"xx334243_101835","name":"Islamic place","lat":33.424273,"lng":10.183458,"addr":"","type":"yes"},{"id":"xx331469_102255","name":"Islamic place","lat":33.146891,"lng":10.225519,"addr":"","type":"mosque"},{"id":"xx331560_102343","name":"Islamic place","lat":33.156043,"lng":10.234337,"addr":"","type":"mosque"},{"id":"xx333679_103295","name":"Islamic place","lat":33.367917,"lng":10.329491,"addr":"","type":"yes"},{"id":"xx334718_102581","name":"Islamic place","lat":33.471773,"lng":10.25812,"addr":"","type":"mosque"},{"id":"xx334716_102583","name":"Islamic place","lat":33.471599,"lng":10.258314,"addr":"","type":"yes"},{"id":"xx334533_102714","name":"Islamic place","lat":33.453349,"lng":10.271402,"addr":"","type":"yes"},{"id":"xx333013_102947","name":"Islamic place","lat":33.301337,"lng":10.294663,"addr":"","type":"yes"},{"id":"xx333032_103386","name":"Islamic place","lat":33.303205,"lng":10.338563,"addr":"","type":"yes"},{"id":"xx333530_102109","name":"Islamic place","lat":33.353047,"lng":10.210876,"addr":"","type":"yes"},{"id":"xx333013_102601","name":"Islamic place","lat":33.301292,"lng":10.260128,"addr":"","type":"yes"},{"id":"xx333322_103064","name":"Islamic place","lat":33.332245,"lng":10.306394,"addr":"","type":"yes"},{"id":"xx333173_102615","name":"Islamic place","lat":33.31731,"lng":10.261483,"addr":"","type":"yes"},{"id":"xx332778_102449","name":"Islamic place","lat":33.277802,"lng":10.244872,"addr":"","type":"yes"},{"id":"xx332776_102454","name":"Islamic place","lat":33.27763,"lng":10.245377,"addr":"","type":"mosque"},{"id":"xx332120_101877","name":"Islamic place","lat":33.212005,"lng":10.187668,"addr":"","type":"yes"},{"id":"xx332138_101876","name":"Islamic place","lat":33.213818,"lng":10.187641,"addr":"","type":"mosque"},{"id":"xx332545_102537","name":"Islamic place","lat":33.2545,"lng":10.253675,"addr":"","type":"yes"},{"id":"xx328647_104747","name":"Islamic place","lat":32.864739,"lng":10.474652,"addr":"","type":"yes"},{"id":"xx328589_104748","name":"Islamic place","lat":32.858858,"lng":10.474819,"addr":"","type":"yes"},{"id":"xx328740_104886","name":"Islamic place","lat":32.873993,"lng":10.488631,"addr":"","type":"mosque"},{"id":"xx328982_105257","name":"Islamic place","lat":32.89817,"lng":10.525699,"addr":"","type":"yes"},{"id":"xx330324_103776","name":"Islamic place","lat":33.032405,"lng":10.377633,"addr":"","type":"mosque"},{"id":"xx330063_103421","name":"Islamic place","lat":33.006347,"lng":10.342079,"addr":"","type":"yes"},{"id":"xx330055_103414","name":"Islamic place","lat":33.005534,"lng":10.341416,"addr":"","type":"mosque"},{"id":"xx329843_102619","name":"Islamic place","lat":32.984267,"lng":10.261927,"addr":"","type":"yes"},{"id":"xx329851_102573","name":"مقبرة غرماسة","lat":32.985086,"lng":10.257287,"addr":"","type":"mosque"},{"id":"xx332491_102085","name":"Islamic place","lat":33.249103,"lng":10.208467,"addr":"","type":"mosque"},{"id":"xx329145_102786","name":"جامع شنني الجديدة","lat":32.914471,"lng":10.278589,"addr":"Route Chenini Aljadida","type":"yes"},{"id":"xx329944_104610","name":"جامع الهداية","lat":32.994393,"lng":10.460999,"addr":"تطاوين","type":"yes"},{"id":"xx331332_112110","name":"مقبرة سيدي خليف","lat":33.133234,"lng":11.210997,"addr":"شارع البيئة","type":"mosque"},{"id":"xx334353_102030","name":"Islamic place","lat":33.435345,"lng":10.203022,"addr":"","type":"yes"},{"id":"xx332636_101655","name":"Islamic place","lat":33.2636,"lng":10.16553,"addr":"","type":"yes"},{"id":"xx333185_102242","name":"Islamic place","lat":33.318539,"lng":10.224183,"addr":"","type":"yes"},{"id":"xx333165_102232","name":"Islamic place","lat":33.316548,"lng":10.223187,"addr":"","type":"mosque"},{"id":"xx327922_104707","name":"Islamic place","lat":32.792169,"lng":10.470748,"addr":"","type":"yes"},{"id":"xx328526_105324","name":"Islamic place","lat":32.852637,"lng":10.532408,"addr":"","type":"yes"},{"id":"xx329867_105494","name":"Islamic place","lat":32.986673,"lng":10.549418,"addr":"وادي الغار","type":"mosque"},{"id":"xx329867_105505","name":"Islamic place","lat":32.986667,"lng":10.550524,"addr":"وادي الغار","type":"yes"},{"id":"xx329868_105494","name":"Islamic place","lat":32.986847,"lng":10.549369,"addr":"وادي الغار","type":"mosque"},{"id":"xx329866_105495","name":"Islamic place","lat":32.986576,"lng":10.549483,"addr":"وادي الغار","type":"mosque"},{"id":"xx329868_105495","name":"مسجد وادي الغار","lat":32.986755,"lng":10.549536,"addr":"وادي الغار","type":"mosque"},{"id":"xx329866_105505","name":"مقبرة وادي الغار","lat":32.986646,"lng":10.550489,"addr":"وادي الغار","type":"mosque"},{"id":"xx333522_101824","name":"Islamic place","lat":33.352226,"lng":10.182383,"addr":"","type":"mosque"},{"id":"xx337594_109525","name":"Islamic place","lat":33.759415,"lng":10.952516,"addr":"","type":"yes"},{"id":"xx337602_109561","name":"Islamic place","lat":33.760223,"lng":10.956121,"addr":"","type":"mosque"},{"id":"xx337581_109524","name":"Islamic place","lat":33.75808,"lng":10.9524,"addr":"","type":"mosque"},{"id":"xx337851_109685","name":"Mosque el Ghofrane","lat":33.785087,"lng":10.968511,"addr":"","type":"yes"},{"id":"xx337945_109676","name":"Islamic place","lat":33.794549,"lng":10.967639,"addr":"","type":"mosque"},{"id":"xx338621_108117","name":"Islamic place","lat":33.862053,"lng":10.81171,"addr":"","type":"mosque"},{"id":"xx338708_108804","name":"Islamic place","lat":33.870798,"lng":10.880433,"addr":"","type":"mosque"},{"id":"xx338705_108832","name":"Jamaa Ben Salah","lat":33.87048,"lng":10.883241,"addr":"","type":"yes"},{"id":"xx338782_108801","name":"جامع سيدي زايد","lat":33.878202,"lng":10.88013,"addr":"","type":"yes"},{"id":"xx338695_108752","name":"Islamic place","lat":33.869454,"lng":10.87524,"addr":"","type":"mosque"},{"id":"xx338696_108754","name":"جامع بوشذاخ","lat":33.869604,"lng":10.875423,"addr":"","type":"yes"},{"id":"xx338171_108590","name":"Islamic place","lat":33.817123,"lng":10.858971,"addr":"","type":"mosque"},{"id":"xx338354_108643","name":"Jamaa Bou Kthir","lat":33.835356,"lng":10.864273,"addr":"","type":"yes"},{"id":"xx338364_108523","name":"سيدي نور","lat":33.836417,"lng":10.852332,"addr":"","type":"yes"},{"id":"xx338399_108776","name":"Jamaa El Guallal","lat":33.839889,"lng":10.87764,"addr":"","type":"yes"},{"id":"xx338394_108775","name":"Islamic place","lat":33.839369,"lng":10.877532,"addr":"","type":"grave_yard"},{"id":"xx338364_108519","name":"Islamic place","lat":33.836411,"lng":10.851908,"addr":"","type":"mosque"},{"id":"xx338005_109008","name":"Sidi Abdelssalam","lat":33.800455,"lng":10.900788,"addr":"El Fouganyin","type":"yes"},{"id":"xx338007_109007","name":"Islamic place","lat":33.800696,"lng":10.900736,"addr":"","type":"mosque"},{"id":"xx337992_109146","name":"جامع الجافلين","lat":33.799219,"lng":10.914613,"addr":"تيانست","type":"mosque"},{"id":"xx337914_109237","name":"جامع الحزم","lat":33.791435,"lng":10.923685,"addr":"","type":"yes"},{"id":"xx337963_109421","name":"Jamaa El Mahrab","lat":33.796307,"lng":10.942117,"addr":"","type":"yes"},{"id":"xx337962_109417","name":"Islamic place","lat":33.796175,"lng":10.941748,"addr":"","type":"mosque"},{"id":"xx337868_109240","name":"Islamic place","lat":33.786769,"lng":10.924046,"addr":"","type":"mosque"},{"id":"xx338150_109648","name":"Islamic place","lat":33.814987,"lng":10.964778,"addr":"","type":"yes"},{"id":"xx338143_109652","name":"Islamic place","lat":33.814348,"lng":10.965206,"addr":"","type":"mosque"},{"id":"xx338633_108910","name":"Islamic place","lat":33.863323,"lng":10.890995,"addr":"","type":"mosque"},{"id":"xx338759_108488","name":"Islamic place","lat":33.87594,"lng":10.848773,"addr":"","type":"yes"},{"id":"xx338758_108484","name":"Islamic place","lat":33.875808,"lng":10.848417,"addr":"","type":"mosque"},{"id":"xx338753_108492","name":"Islamic place","lat":33.875346,"lng":10.849221,"addr":"","type":"mosque"},{"id":"xx338730_108453","name":"Islamic place","lat":33.873049,"lng":10.845327,"addr":"","type":"yes"},{"id":"xx338731_108452","name":"Islamic place","lat":33.873114,"lng":10.845152,"addr":"","type":"mosque"},{"id":"xx338797_108406","name":"Islamic place","lat":33.879699,"lng":10.840558,"addr":"","type":"yes"},{"id":"xx338798_108409","name":"Islamic place","lat":33.879789,"lng":10.840936,"addr":"","type":"mosque"},{"id":"xx338810_108539","name":"Islamic place","lat":33.880957,"lng":10.85389,"addr":"","type":"mosque"},{"id":"xx338804_108542","name":"Islamic place","lat":33.880414,"lng":10.854204,"addr":"","type":"mosque"},{"id":"xx338808_108544","name":"Islamic place","lat":33.880825,"lng":10.854443,"addr":"","type":"mosque"},{"id":"xx338810_108541","name":"جامع سىدى البحرى","lat":33.881042,"lng":10.854088,"addr":"","type":"yes"},{"id":"xx338815_108472","name":"Islamic place","lat":33.881463,"lng":10.847223,"addr":"","type":"yes"},{"id":"xx338817_108473","name":"Islamic place","lat":33.881686,"lng":10.84727,"addr":"","type":"mosque"},{"id":"xx338647_109171","name":"Islamic place","lat":33.864712,"lng":10.917093,"addr":"","type":"yes"},{"id":"xx338651_109172","name":"Islamic place","lat":33.865125,"lng":10.91723,"addr":"","type":"mosque"},{"id":"xx337836_110291","name":"Jamaa El Ouchnia","lat":33.783586,"lng":11.029091,"addr":"","type":"yes"},{"id":"xx337839_110295","name":"Islamic place","lat":33.783904,"lng":11.0295,"addr":"","type":"mosque"},{"id":"xx337833_110293","name":"Islamic place","lat":33.783311,"lng":11.029346,"addr":"","type":"mosque"},{"id":"xx337944_109950","name":"جامع بن عمارة","lat":33.794426,"lng":10.995036,"addr":"","type":"yes"},{"id":"xx337948_109952","name":"جبنة جامع بن عمارة","lat":33.794757,"lng":10.995203,"addr":"","type":"mosque"},{"id":"xx338653_108656","name":"Islamic place","lat":33.865306,"lng":10.865597,"addr":"","type":"yes"},{"id":"xx338725_108570","name":"جامع بوعكازين","lat":33.872491,"lng":10.857039,"addr":"","type":"yes"},{"id":"xx338727_108566","name":"Islamic place","lat":33.872661,"lng":10.856602,"addr":"","type":"mosque"},{"id":"xx338725_108574","name":"Islamic place","lat":33.872466,"lng":10.857438,"addr":"حومة السوق","type":"mosque"},{"id":"xx338499_108249","name":"Islamic place","lat":33.8499,"lng":10.824919,"addr":"","type":"yes"},{"id":"xx338499_108233","name":"Islamic place","lat":33.84989,"lng":10.8233,"addr":"","type":"mosque"},{"id":"xx338625_108448","name":"Islamic place","lat":33.862487,"lng":10.844771,"addr":"","type":"yes"},{"id":"xx338628_108451","name":"Islamic place","lat":33.862753,"lng":10.845074,"addr":"","type":"mosque"},{"id":"xx338491_108550","name":"Islamic place","lat":33.849075,"lng":10.854965,"addr":"","type":"yes"},{"id":"xx338493_108546","name":"Islamic place","lat":33.849255,"lng":10.854588,"addr":"","type":"mosque"},{"id":"xx338672_108908","name":"Islamic place","lat":33.867188,"lng":10.89081,"addr":"","type":"mosque"},{"id":"xx338703_109291","name":"جامع المستيري","lat":33.87027,"lng":10.929124,"addr":"غيزن","type":"yes"},{"id":"xx338699_109295","name":"Islamic place","lat":33.869912,"lng":10.929541,"addr":"","type":"mosque"},{"id":"xx337815_108897","name":"جامع الشهود","lat":33.78155,"lng":10.889701,"addr":"الشهود","type":"yes"},{"id":"xx337818_108895","name":"Islamic place","lat":33.781755,"lng":10.889474,"addr":"","type":"grave_yard"},{"id":"xx338771_108603","name":"Islamic place","lat":33.877057,"lng":10.860251,"addr":"","type":"mosque"},{"id":"xx338781_108592","name":"جامع الترك","lat":33.87815,"lng":10.859207,"addr":"حومة السوق","type":"yes"},{"id":"xx336164_110106","name":"مسجد التوفيق","lat":33.616427,"lng":11.010595,"addr":"","type":"yes"},{"id":"xx336146_110375","name":"Islamic place","lat":33.61456,"lng":11.03751,"addr":"","type":"yes"},{"id":"xx336154_110242","name":"Islamic place","lat":33.615376,"lng":11.024201,"addr":"","type":"yes"},{"id":"xx335878_110219","name":"جامع شماخ","lat":33.587769,"lng":11.021933,"addr":"","type":"yes"},{"id":"xx336162_110255","name":"Islamic place","lat":33.616151,"lng":11.025544,"addr":"","type":"mosque"},{"id":"xx335879_110213","name":"Islamic place","lat":33.587874,"lng":11.021325,"addr":"","type":"mosque"},{"id":"xx338707_101003","name":"Islamic place","lat":33.870684,"lng":10.100317,"addr":"","type":"yes"},{"id":"xx338645_100760","name":"Islamic place","lat":33.864512,"lng":10.076019,"addr":"","type":"yes"},{"id":"xx335130_104041","name":"Islamic place","lat":33.513027,"lng":10.404069,"addr":"","type":"yes"},{"id":"xx338527_108825","name":"Islamic place","lat":33.852653,"lng":10.882493,"addr":"","type":"grave_yard"},{"id":"xx332968_101885","name":"Islamic place","lat":33.296767,"lng":10.188516,"addr":"","type":"mosque"},{"id":"xx335471_100940","name":"Islamic place","lat":33.5471,"lng":10.094043,"addr":"بني زلطن","type":"yes"},{"id":"xx335469_100940","name":"مسجد بني زلطن","lat":33.546946,"lng":10.094044,"addr":"بني زلطن","type":"yes"},{"id":"xx335470_100940","name":"Islamic place","lat":33.54701,"lng":10.094005,"addr":"","type":"yes"},{"id":"xx335470_100942","name":"Islamic place","lat":33.546988,"lng":10.094221,"addr":"بني زلطن","type":"yes"},{"id":"xx335707_101788","name":"Islamic place","lat":33.570671,"lng":10.178821,"addr":"","type":"yes"},{"id":"xx335136_102197","name":"Islamic place","lat":33.513625,"lng":10.219699,"addr":"","type":"yes"},{"id":"xx335387_102665","name":"Islamic place","lat":33.538691,"lng":10.266454,"addr":"","type":"yes"},{"id":"xx335383_102668","name":"Islamic place","lat":33.538313,"lng":10.266779,"addr":"","type":"mosque"},{"id":"xx335601_102612","name":"Islamic place","lat":33.560125,"lng":10.261189,"addr":"","type":"yes"},{"id":"xx334916_103160","name":"Islamic place","lat":33.491564,"lng":10.316006,"addr":"","type":"yes"},{"id":"xx335375_101972","name":"Islamic place","lat":33.537497,"lng":10.197184,"addr":"","type":"mosque"},{"id":"xx336705_102284","name":"Islamic place","lat":33.670502,"lng":10.228435,"addr":"","type":"yes"},{"id":"xx334174_101310","name":"مسجد برقوق السابق","lat":33.417449,"lng":10.131048,"addr":"","type":"mosque"},{"id":"xx338351_109799","name":"جامع مصلح","lat":33.835057,"lng":10.979915,"addr":"أولاد عمر","type":"yes"},{"id":"xx337527_107503","name":"Islamic place","lat":33.75269,"lng":10.750337,"addr":"","type":"mosque"},{"id":"xx337243_107484","name":"Islamic place","lat":33.72431,"lng":10.748449,"addr":"أجيم","type":"yes"},{"id":"xx337638_108795","name":"Islamic place","lat":33.763783,"lng":10.87949,"addr":"","type":"mosque"},{"id":"xx337652_108804","name":"مسجد حومة الكراشوة","lat":33.765184,"lng":10.880444,"addr":"حومة الكراشوة","type":"yes"},{"id":"xx337318_107530","name":"Islamic place","lat":33.731791,"lng":10.753033,"addr":"","type":"mosque"},{"id":"xx337157_107602","name":"Islamic place","lat":33.715728,"lng":10.7602,"addr":"","type":"grave_yard"},{"id":"xx337534_109121","name":"Islamic place","lat":33.75337,"lng":10.912108,"addr":"","type":"mosque"},{"id":"xx337916_108246","name":"جامع الطويل","lat":33.791604,"lng":10.824568,"addr":"وادي الزبيب","type":"yes"},{"id":"xx337917_108252","name":"Islamic place","lat":33.791683,"lng":10.825243,"addr":"","type":"grave_yard"},{"id":"xx337849_108349","name":"Moslah mosquée","lat":33.784866,"lng":10.834931,"addr":"","type":"yes"},{"id":"xx338065_108484","name":"Islamic place","lat":33.806502,"lng":10.848416,"addr":"","type":"yes"},{"id":"xx338049_108512","name":"Islamic place","lat":33.804886,"lng":10.851163,"addr":"","type":"mosque"},{"id":"xx337221_108595","name":"جامع القبليين","lat":33.722136,"lng":10.859522,"addr":"قلالة","type":"yes"},{"id":"xx337841_108430","name":"Islamic place","lat":33.784137,"lng":10.843031,"addr":"","type":"yes"},{"id":"xx337957_108709","name":"جامع عمر ابن الخطاب","lat":33.795708,"lng":10.870943,"addr":"","type":"yes"},{"id":"xx347492_107576","name":"جامع التونسي","lat":34.749175,"lng":10.757634,"addr":"","type":"yes"},{"id":"xx337233_108860","name":"Attouchi Mosquée","lat":33.723299,"lng":10.885957,"addr":"","type":"mosque"},{"id":"xx347361_106893","name":"جامع الخليل","lat":34.736141,"lng":10.689321,"addr":"","type":"yes"},{"id":"xx348168_112561","name":"جامع القراطن","lat":34.816832,"lng":11.256114,"addr":"القراطن","type":"mosque"},{"id":"xx337813_108742","name":"Sidi Amhammed Ben Aissa","lat":33.781339,"lng":10.874227,"addr":"","type":"mosque"},{"id":"xx337536_108458","name":"Sidi Daoud mosquée","lat":33.753619,"lng":10.845801,"addr":"Tlet","type":"yes"},{"id":"xx335028_111016","name":"Islamic place","lat":33.502817,"lng":11.101601,"addr":"","type":"mosque"},{"id":"xx335048_110985","name":"Islamic place","lat":33.504765,"lng":11.098465,"addr":"","type":"mosque"},{"id":"xx335034_110996","name":"Islamic place","lat":33.503415,"lng":11.099603,"addr":"","type":"mosque"},{"id":"xx347352_107589","name":"جامع سيدي علي الكراي","lat":34.735173,"lng":10.758897,"addr":"","type":"yes"},{"id":"xx337930_109544","name":"Islamic place","lat":33.792961,"lng":10.954358,"addr":"","type":"mosque"},{"id":"xx338111_109485","name":"Ben Arous","lat":33.811095,"lng":10.948536,"addr":"","type":"yes"},{"id":"xx337692_109006","name":"جامع البلبالي","lat":33.769218,"lng":10.900644,"addr":"ربانة","type":"mosque"},{"id":"xx338734_108790","name":"Islamic place","lat":33.8734,"lng":10.879021,"addr":"","type":"mosque"},{"id":"xx338597_108966","name":"Tejdit","lat":33.859677,"lng":10.896582,"addr":"Fatou","type":"yes"},{"id":"xx338613_108973","name":"Islamic place","lat":33.861283,"lng":10.897251,"addr":"","type":"mosque"},{"id":"xx338509_109457","name":"جامع آمي زايد","lat":33.850873,"lng":10.945735,"addr":"مزراية","type":"mosque"},{"id":"xx338578_109385","name":"El Haj Amor","lat":33.857805,"lng":10.938501,"addr":"","type":"mosque"},{"id":"xx337406_101622","name":"Islamic place","lat":33.740558,"lng":10.162167,"addr":"","type":"yes"},{"id":"xx333683_104356","name":"Islamic place","lat":33.368254,"lng":10.435569,"addr":"","type":"mosque"},{"id":"xx335046_104798","name":"Islamic place","lat":33.504567,"lng":10.47976,"addr":"","type":"mosque"},{"id":"xx334811_103851","name":"Islamic place","lat":33.481108,"lng":10.385081,"addr":"","type":"yes"},{"id":"xx336718_103542","name":"Islamic place","lat":33.671844,"lng":10.354182,"addr":"","type":"mosque"},{"id":"xx338486_100938","name":"Islamic place","lat":33.848554,"lng":10.093797,"addr":"","type":"yes"},{"id":"xx323157_103974","name":"Islamic place","lat":32.315725,"lng":10.397388,"addr":"","type":"yes"},{"id":"xx322971_103072","name":"Islamic place","lat":32.297128,"lng":10.30721,"addr":"","type":"mosque"},{"id":"xx322972_103072","name":"مسجد","lat":32.297162,"lng":10.307192,"addr":"كمبوت","type":"yes"},{"id":"xx323007_103242","name":"Islamic place","lat":32.300707,"lng":10.324248,"addr":"","type":"mosque"},{"id":"xx345273_103963","name":"Islamic place","lat":34.52734,"lng":10.396327,"addr":"","type":"mosque"},{"id":"xx344211_101052","name":"Islamic place","lat":34.421075,"lng":10.105222,"addr":"","type":"mosque"},{"id":"xx345371_104848","name":"مقبرة المحرس","lat":34.537091,"lng":10.484785,"addr":"المحرس","type":"mosque"},{"id":"xx349588_103633","name":"مقبرة منزل شاكر","lat":34.958776,"lng":10.363309,"addr":"","type":"mosque"},{"id":"xx331904_104377","name":"Islamic place","lat":33.190362,"lng":10.437675,"addr":"","type":"mosque"},{"id":"xx332092_103620","name":"Islamic place","lat":33.209231,"lng":10.362027,"addr":"","type":"mosque"},{"id":"xx331791_104436","name":"Islamic place","lat":33.179087,"lng":10.443616,"addr":"","type":"yes"},{"id":"xx332709_104409","name":"Islamic place","lat":33.270937,"lng":10.440886,"addr":"","type":"yes"},{"id":"xx329267_104498","name":"المسجد العتيق","lat":32.926702,"lng":10.449755,"addr":"شارع الشهداء","type":"place_of_worship"},{"id":"xx329056_104239","name":"Mosquée abou baqara","lat":32.905635,"lng":10.423868,"addr":"","type":"yes"},{"id":"xx338877_100722","name":"Mosquée Al baraka","lat":33.88769,"lng":10.072218,"addr":"nahal","type":"yes"},{"id":"xx329200_104655","name":"mosquée cité ennour","lat":32.920014,"lng":10.46554,"addr":"","type":"place_of_worship"},{"id":"xx338832_100797","name":"sidi bouabdellah","lat":33.883159,"lng":10.079689,"addr":"","type":"mosque"},{"id":"xx338885_100735","name":"sidi-omrane","lat":33.88853,"lng":10.073467,"addr":"","type":"mosque"},{"id":"xx338622_108212","name":"جامع الكبير","lat":33.862199,"lng":10.821223,"addr":"","type":"yes"},{"id":"xx331385_112182","name":"الجامع الكبير بنقردان","lat":33.138506,"lng":11.218224,"addr":"بنقردان","type":"yes"},{"id":"xx329408_104541","name":"جامع بلال","lat":32.940759,"lng":10.45413,"addr":"تطاوين","type":"place_of_worship"},{"id":"xx335112_105172","name":"مسجد الهداية أولاد موسى","lat":33.511174,"lng":10.517184,"addr":"أولاد موسى","type":"yes"},{"id":"xx347728_107367","name":"جامع المنذر","lat":34.772845,"lng":10.73671,"addr":"","type":"yes"},{"id":"xx348038_107396","name":"جامع مركز عمار","lat":34.80381,"lng":10.739632,"addr":"","type":"yes"},{"id":"xx347649_107374","name":"جامع الرحمة سيدي عباس","lat":34.764889,"lng":10.737427,"addr":"","type":"yes"},{"id":"xx347684_107309","name":"جامع بلال","lat":34.768361,"lng":10.730888,"addr":"","type":"yes"},{"id":"xx347937_107152","name":"جامع مركز سحنون","lat":34.79373,"lng":10.7152,"addr":"","type":"yes"},{"id":"xx347745_107475","name":"جامع الحسنى","lat":34.774504,"lng":10.747545,"addr":"","type":"yes"},{"id":"xx348012_107620","name":"الجامع الكبير بساقية الزيت","lat":34.80116,"lng":10.761998,"addr":"","type":"yes"},{"id":"xx348075_107864","name":"Islamic place","lat":34.80746,"lng":10.786387,"addr":"","type":"mosque"},{"id":"xx335028_110539","name":"Mosqué Kharouba","lat":33.502848,"lng":11.053879,"addr":"","type":"mosque"},{"id":"xx348337_108463","name":"مقبرة السعادي","lat":34.833722,"lng":10.846262,"addr":"","type":"mosque"},{"id":"xx347526_107303","name":"المدرسة الابتدائية محمد الجمل","lat":34.75258,"lng":10.730291,"addr":"حزام بورقيبة","type":"school"},{"id":"xx347491_107331","name":"مقبرة العالية","lat":34.7491,"lng":10.733071,"addr":"","type":"mosque"},{"id":"xx347849_106933","name":"جامع الفردوس مركز علولو","lat":34.784856,"lng":10.693312,"addr":"El Ain","type":"yes"},{"id":"xx338252_108042","name":"جامع بازيم","lat":33.82525,"lng":10.80425,"addr":"بازيم","type":"mosque"},{"id":"xx348270_107930","name":"Islamic place","lat":34.826986,"lng":10.793022,"addr":"","type":"mosque"},{"id":"xx347534_107560","name":"جامع العذار 1","lat":34.753383,"lng":10.756016,"addr":"","type":"yes"},{"id":"xx347472_107522","name":"جامع التقوى","lat":34.747234,"lng":10.752203,"addr":"","type":"yes"},{"id":"xx347374_107544","name":"جامع محمد الكراي","lat":34.73736,"lng":10.754416,"addr":"","type":"yes"},{"id":"xx347321_107553","name":"جامع المنار","lat":34.732083,"lng":10.755348,"addr":"","type":"yes"},{"id":"xx347403_107459","name":"جامع العذار 2","lat":34.740341,"lng":10.745927,"addr":"","type":"yes"},{"id":"xx347547_107255","name":"جامع الصالحين","lat":34.75473,"lng":10.725487,"addr":"","type":"yes"},{"id":"xx347541_107096","name":"جامع القصاص","lat":34.754067,"lng":10.709588,"addr":"","type":"yes"},{"id":"xx348147_107151","name":"جامع العرفات","lat":34.814668,"lng":10.715115,"addr":"","type":"yes"},{"id":"xx347998_107089","name":"جامع النصر","lat":34.799773,"lng":10.708863,"addr":"","type":"yes"},{"id":"xx348147_107391","name":"جامع الرحمان","lat":34.814709,"lng":10.739061,"addr":"","type":"yes"},{"id":"xx347924_107441","name":"الجامع الكبير بالشيحية","lat":34.792364,"lng":10.744102,"addr":"","type":"yes"},{"id":"xx347777_107446","name":"جامع السيدة عائشة","lat":34.777712,"lng":10.744614,"addr":"","type":"yes"},{"id":"xx347876_107374","name":"جامع العيادي","lat":34.787562,"lng":10.737422,"addr":"","type":"yes"},{"id":"xx347834_107445","name":"جامع الفاروق","lat":34.783419,"lng":10.74451,"addr":"","type":"yes"},{"id":"xx347788_108130","name":"جامع الجراية","lat":34.778797,"lng":10.812975,"addr":"","type":"yes"},{"id":"xx347549_107464","name":"جامع شيخ روحه","lat":34.75492,"lng":10.746353,"addr":"","type":"yes"},{"id":"xx347594_107424","name":"جامع السلام بوشعالة","lat":34.759389,"lng":10.742432,"addr":"","type":"yes"},{"id":"xx347486_107642","name":"جامع الخليل","lat":34.74856,"lng":10.764182,"addr":"","type":"yes"},{"id":"xx347863_107198","name":"جامع الفردوس","lat":34.786302,"lng":10.719824,"addr":"طريق قرمدة مركز كمون","type":"yes"},{"id":"xx347842_107052","name":"جامع التقوى","lat":34.784159,"lng":10.705244,"addr":"","type":"yes"},{"id":"xx347774_107157","name":"جامع عمر","lat":34.777362,"lng":10.715696,"addr":"","type":"yes"},{"id":"xx347574_107344","name":"جامع السلامي","lat":34.757418,"lng":10.734386,"addr":"","type":"yes"},{"id":"xx347486_107460","name":"جامع الرحمة","lat":34.748577,"lng":10.74596,"addr":"","type":"yes"},{"id":"xx347481_107404","name":"جامع البدر","lat":34.748137,"lng":10.740381,"addr":"","type":"yes"},{"id":"xx347537_107272","name":"مسجد المغفرة","lat":34.753741,"lng":10.727219,"addr":"","type":"yes"},{"id":"xx347629_107110","name":"جامع النور","lat":34.762899,"lng":10.71095,"addr":"","type":"yes"},{"id":"xx347609_107050","name":"جامع الحق","lat":34.760913,"lng":10.705036,"addr":"","type":"yes"},{"id":"xx347543_107157","name":"جامع الحمد","lat":34.754278,"lng":10.715717,"addr":"","type":"yes"},{"id":"xx347638_106983","name":"جامع حمزة","lat":34.763846,"lng":10.698269,"addr":"","type":"yes"},{"id":"xx347909_106868","name":"جامع الرحمة","lat":34.790928,"lng":10.686756,"addr":"","type":"yes"},{"id":"xx347892_106911","name":"جامع الريان","lat":34.789194,"lng":10.691147,"addr":"","type":"yes"},{"id":"xx347832_106988","name":"جامع السعيد","lat":34.783186,"lng":10.698758,"addr":"","type":"yes"},{"id":"xx347373_107114","name":"جامع الهدى","lat":34.737269,"lng":10.71141,"addr":"","type":"yes"},{"id":"xx347312_107077","name":"جامع التوبة","lat":34.731175,"lng":10.707678,"addr":"","type":"yes"},{"id":"xx347315_107224","name":"جامع الرحمة","lat":34.731456,"lng":10.722435,"addr":"","type":"yes"},{"id":"xx347204_107202","name":"جامع التقوى","lat":34.720426,"lng":10.720204,"addr":"","type":"yes"},{"id":"xx347152_107227","name":"جامع حي الحبيب 2","lat":34.715199,"lng":10.722743,"addr":"","type":"yes"},{"id":"xx347618_107915","name":"جامع مركز الحديجي","lat":34.761833,"lng":10.791522,"addr":"","type":"yes"},{"id":"xx348072_107290","name":"جامع المنارة","lat":34.807227,"lng":10.728963,"addr":"","type":"yes"},{"id":"xx348269_106733","name":"جامع التوفيق","lat":34.826902,"lng":10.673323,"addr":"","type":"yes"},{"id":"xx347457_107498","name":"جامع الصافي","lat":34.745717,"lng":10.749754,"addr":"","type":"yes"},{"id":"xx347346_107285","name":"جامع الصديق","lat":34.734586,"lng":10.728453,"addr":"","type":"yes"},{"id":"xx347341_107237","name":"Islamic place","lat":34.734105,"lng":10.723737,"addr":"","type":"mosque"},{"id":"xx347118_107065","name":"جامع البركة","lat":34.711848,"lng":10.706463,"addr":"","type":"yes"},{"id":"xx347698_107847","name":"جامع التوبة","lat":34.769842,"lng":10.784674,"addr":"","type":"yes"},{"id":"xx338617_109557","name":"Islamic place","lat":33.861742,"lng":10.955704,"addr":"","type":"mosque"},{"id":"xx348178_108068","name":"مقبرة يعيش","lat":34.81777,"lng":10.806786,"addr":"","type":"mosque"},{"id":"xx347940_107840","name":"مقبرة التريكي","lat":34.794022,"lng":10.783956,"addr":"","type":"mosque"},{"id":"xx348867_108466","name":"جامع السعادي","lat":34.88672,"lng":10.846559,"addr":"","type":"yes"},{"id":"xx347614_107653","name":"جامع البركة","lat":34.761385,"lng":10.765285,"addr":"","type":"yes"},{"id":"xx346967_107147","name":"مقبرة البدراني","lat":34.696652,"lng":10.714662,"addr":"","type":"mosque"},{"id":"xx346810_104340","name":"جامع بن سهلون","lat":34.681027,"lng":10.434034,"addr":"","type":"yes"},{"id":"xx344469_102918","name":"جامع السمارة","lat":34.446861,"lng":10.291763,"addr":"","type":"yes"},{"id":"xx338170_108987","name":"Islamic place","lat":33.817026,"lng":10.898728,"addr":"","type":"mosque"},{"id":"xx338337_109050","name":"Islamic place","lat":33.833682,"lng":10.904988,"addr":"","type":"grave_yard"},{"id":"xx338388_108939","name":"Islamic place","lat":33.838753,"lng":10.893864,"addr":"","type":"grave_yard"},{"id":"xx338319_109112","name":"Islamic place","lat":33.831892,"lng":10.911245,"addr":"","type":"mosque"},{"id":"xx338220_109362","name":"Islamic place","lat":33.82195,"lng":10.93623,"addr":"","type":"mosque"},{"id":"xx337952_109290","name":"Islamic place","lat":33.795175,"lng":10.929035,"addr":"","type":"mosque"},{"id":"xx338113_109202","name":"Islamic place","lat":33.811259,"lng":10.920175,"addr":"","type":"mosque"},{"id":"xx338666_109395","name":"Islamic place","lat":33.866621,"lng":10.939503,"addr":"","type":"mosque"},{"id":"xx338666_109396","name":"جامع عمي عمور","lat":33.86665,"lng":10.939617,"addr":"","type":"yes"},{"id":"xx338596_109395","name":"Islamic place","lat":33.859648,"lng":10.939461,"addr":"","type":"mosque"},{"id":"xx338624_109403","name":"Islamic place","lat":33.862356,"lng":10.94031,"addr":"","type":"mosque"},{"id":"xx348137_107590","name":"مقبرة عمار","lat":34.813749,"lng":10.75901,"addr":"","type":"mosque"},{"id":"xx338724_108889","name":"Islamic place","lat":33.872395,"lng":10.888852,"addr":"","type":"mosque"},{"id":"xx338705_108836","name":"Islamic place","lat":33.870488,"lng":10.883638,"addr":"","type":"mosque"},{"id":"xx338524_109574","name":"Islamic place","lat":33.852438,"lng":10.957428,"addr":"","type":"mosque"},{"id":"xx338564_109452","name":"Islamic place","lat":33.85643,"lng":10.945191,"addr":"","type":"mosque"},{"id":"xx338488_109702","name":"Islamic place","lat":33.848816,"lng":10.970157,"addr":"","type":"mosque"},{"id":"xx338512_109681","name":"Islamic place","lat":33.851207,"lng":10.968065,"addr":"","type":"mosque"},{"id":"xx345027_102005","name":"جامع أولاد الكيلاني","lat":34.502714,"lng":10.20047,"addr":"","type":"yes"},{"id":"xx347411_107007","name":"جامع الغفران","lat":34.741111,"lng":10.700687,"addr":"","type":"yes"},{"id":"xx347549_101838","name":"جامع اللطايفة","lat":34.754906,"lng":10.183782,"addr":"","type":"yes"},{"id":"xx346830_111617","name":"مقبرة أولاد قاسم","lat":34.682999,"lng":11.161685,"addr":"","type":"mosque"},{"id":"xx346718_107145","name":"جامع الحكمة","lat":34.671838,"lng":10.714494,"addr":"","type":"yes"},{"id":"xx346635_107026","name":"جامع الرضوان","lat":34.663485,"lng":10.7026,"addr":"","type":"yes"},{"id":"xx348331_106642","name":"جامع اليسر","lat":34.833126,"lng":10.664167,"addr":"العوابد","type":"yes"},{"id":"xx347466_105205","name":"مسجد الهداية","lat":34.746591,"lng":10.520548,"addr":"عقارب","type":"yes"},{"id":"xx339411_100715","name":"Islamic place","lat":33.94111,"lng":10.071546,"addr":"","type":"yes"},{"id":"xx338679_100912","name":"Dar al-quran Gabes","lat":33.867856,"lng":10.091217,"addr":"","type":"yes"},{"id":"xx338681_100908","name":"Islamic place","lat":33.868051,"lng":10.090787,"addr":"","type":"yes"},{"id":"xx329457_104653","name":"مسجد الأنصار","lat":32.945749,"lng":10.465289,"addr":"تطاوين","type":"place_of_worship"},{"id":"xx347932_107682","name":"مقبرة","lat":34.793167,"lng":10.768224,"addr":"","type":"mosque"},{"id":"xx345850_105856","name":"زاوية سيدي فريح","lat":34.585049,"lng":10.585622,"addr":"نقطة","type":"yes"},{"id":"xx331402_112068","name":"Islamic place","lat":33.140197,"lng":11.206804,"addr":"","type":"mosque"},{"id":"xx347756_107965","name":"Islamic place","lat":34.775631,"lng":10.796517,"addr":"","type":"mosque"},{"id":"xx348161_106941","name":"مقبرة قرمدة","lat":34.816148,"lng":10.694059,"addr":"","type":"mosque"},{"id":"xx337222_108868","name":"Islamic place","lat":33.722241,"lng":10.886845,"addr":"","type":"mosque"},{"id":"xx338160_108592","name":"Islamic place","lat":33.816037,"lng":10.859213,"addr":"","type":"mosque"},{"id":"xx337941_108830","name":"Islamic place","lat":33.794112,"lng":10.883004,"addr":"","type":"mosque"},{"id":"xx337896_108692","name":"سالم بن دحسن","lat":33.789569,"lng":10.869245,"addr":"","type":"mosque"},{"id":"xx349707_103706","name":"Islamic place","lat":34.970681,"lng":10.370567,"addr":"","type":"yes"},{"id":"xx346858_111663","name":"جامع سيدي محمد","lat":34.685756,"lng":11.166319,"addr":"أولاد قاسم","type":"mosque"},{"id":"xx346858_111664","name":"Islamic place","lat":34.685833,"lng":11.166384,"addr":"أولاد قاسم","type":"mosque"},{"id":"xx338258_109418","name":"Islamic place","lat":33.825807,"lng":10.941782,"addr":"","type":"mosque"},{"id":"xx338160_107914","name":"Islamic place","lat":33.816019,"lng":10.791447,"addr":"","type":"mosque"},{"id":"xx348409_108035","name":"مقبرة برك الله","lat":34.840925,"lng":10.803509,"addr":"","type":"mosque"},{"id":"xx348182_107588","name":"Islamic place","lat":34.818155,"lng":10.758845,"addr":"","type":"mosque"},{"id":"xx347449_107279","name":"جامع الجموسي","lat":34.744906,"lng":10.727877,"addr":"","type":"yes"},{"id":"xx349665_109069","name":"Islamic place","lat":34.966517,"lng":10.906875,"addr":"","type":"mosque"},{"id":"xx348810_107464","name":"مقبرة سيدي صالح","lat":34.880963,"lng":10.746362,"addr":"","type":"mosque"},{"id":"xx347856_106384","name":"Cimetière Bou Morra","lat":34.785618,"lng":10.638403,"addr":"","type":"mosque"},{"id":"xx347847_106392","name":"Cimetière Bou Morra","lat":34.784728,"lng":10.639247,"addr":"","type":"mosque"},{"id":"xx347856_106365","name":"Cimetière Bou Morra","lat":34.785616,"lng":10.63653,"addr":"","type":"mosque"},{"id":"xx349489_105141","name":"Islamic place","lat":34.948912,"lng":10.514114,"addr":"","type":"mosque"},{"id":"xx349725_108500","name":"Islamic place","lat":34.972499,"lng":10.850033,"addr":"","type":"mosque"},{"id":"xx330522_103214","name":"Mozlaf Mosque","lat":33.052226,"lng":10.321351,"addr":"","type":"mosque"},{"id":"xx346994_106939","name":"Islamic place","lat":34.699418,"lng":10.693932,"addr":"","type":"mosque"},{"id":"xx345876_105606","name":"Islamic place","lat":34.587588,"lng":10.56061,"addr":"","type":"mosque"},{"id":"xx331642_112323","name":"مقبرة سيذي الصياح","lat":33.164235,"lng":11.232344,"addr":"","type":"mosque"},{"id":"xx331328_112093","name":"مقبرة سيدي خليف","lat":33.132797,"lng":11.209294,"addr":"","type":"mosque"},{"id":"xx331291_112125","name":"Islamic place","lat":33.129145,"lng":11.212511,"addr":"","type":"yes"},{"id":"xx335047_104818","name":"Islamic place","lat":33.504667,"lng":10.481843,"addr":"","type":"yes"},{"id":"xx347200_112390","name":"مقبرة العباسية","lat":34.719975,"lng":11.23898,"addr":"","type":"mosque"},{"id":"xx338630_107980","name":"Islamic place","lat":33.862996,"lng":10.798021,"addr":"","type":"mosque"},{"id":"xx338249_108038","name":"Islamic place","lat":33.8249,"lng":10.803778,"addr":"","type":"mosque"},{"id":"xx338500_108246","name":"Islamic place","lat":33.850023,"lng":10.824553,"addr":"","type":"mosque"},{"id":"xx337861_107732","name":"Islamic place","lat":33.786059,"lng":10.773241,"addr":"","type":"mosque"},{"id":"xx335889_107011","name":"مسجد الفتح","lat":33.588866,"lng":10.701059,"addr":"","type":"yes"},{"id":"xx349959_109000","name":"Islamic place","lat":34.995936,"lng":10.899962,"addr":"","type":"mosque"},{"id":"xx348565_107500","name":"Cimtière Municipale de Sakiet Ezzit","lat":34.856464,"lng":10.749992,"addr":"","type":"mosque"},{"id":"xx338036_109758","name":"Al Hidaya","lat":33.803627,"lng":10.975792,"addr":"","type":"mosque"},{"id":"xx337360_108439","name":"مسجد المجلس","lat":33.736002,"lng":10.84391,"addr":"","type":"mosque"},{"id":"xx337719_108838","name":"Jamaa Jeddi Issa","lat":33.771929,"lng":10.883799,"addr":"","type":"mosque"},{"id":"xx337888_107759","name":"جامع التقوى","lat":33.788801,"lng":10.77586,"addr":"القرع","type":"yes"},{"id":"xx338101_109951","name":"El Taieb (El Jeridi)","lat":33.810146,"lng":10.995058,"addr":"Midoun","type":"mosque"},{"id":"xx337691_108921","name":"Islamic place","lat":33.769146,"lng":10.89214,"addr":"","type":"mosque"},{"id":"xx337665_109846","name":"Jamaa El Chbebia","lat":33.766513,"lng":10.98455,"addr":"","type":"mosque"},{"id":"xx338298_108535","name":"جامع تغديمس","lat":33.829812,"lng":10.853465,"addr":"","type":"mosque"},{"id":"xx337821_109352","name":"جامع بدوين","lat":33.782106,"lng":10.935249,"addr":"","type":"yes"},{"id":"xx338244_107755","name":"Alamat mosquée","lat":33.824384,"lng":10.77549,"addr":"El Groa","type":"yes"},{"id":"xx337937_110215","name":"جامع سيدي عبد القادر","lat":33.793675,"lng":11.021485,"addr":"","type":"mosque"},{"id":"xx337736_108180","name":"Ben Moumen mosquée","lat":33.773552,"lng":10.817981,"addr":"","type":"mosque"},{"id":"xx338184_110359","name":"جامع ابن العباس","lat":33.81837,"lng":11.035906,"addr":"تاقرماس","type":"mosque"},{"id":"xx338139_109153","name":"Jamaa el Hallem","lat":33.813946,"lng":10.915345,"addr":"","type":"yes"},{"id":"xx338118_108565","name":"Sidi Salama El Jenaouni","lat":33.811808,"lng":10.85649,"addr":"","type":"mosque"},{"id":"xx338545_109023","name":"جامع مزلين","lat":33.854519,"lng":10.902309,"addr":"","type":"mosque"},{"id":"xx337254_107515","name":"Mosquée El Fguira","lat":33.725422,"lng":10.751525,"addr":"","type":"mosque"},