[{"id":"xx320167_1208625","name":"清真寺","lat":32.016677,"lng":120.862535,"addr":"","type":"place_of_worship"},{"id":"xx307094_1213350","name":"金山清真寺","lat":30.709362,"lng":121.334971,"addr":"","type":"place_of_worship"},{"id":"xx312445_1214298","name":"沪西清真寺","lat":31.244495,"lng":121.429793,"addr":"","type":"place_of_worship"},{"id":"xx312379_1215287","name":"上海浦东清真寺","lat":31.237873,"lng":121.528719,"addr":"","type":"place_of_worship"},{"id":"xx313114_1215112","name":"江湾清真寺","lat":31.311406,"lng":121.511167,"addr":"","type":"place_of_worship"},{"id":"xx310080_1212227","name":"松江清真寺","lat":31.007989,"lng":121.222746,"addr":"","type":"place_of_worship"},{"id":"xx312379_1215288","name":"浦东清真寺","lat":31.237903,"lng":121.528845,"addr":"源深路","type":"yes"},{"id":"xx315715_1202914","name":"Islamic place","lat":31.571536,"lng":120.291436,"addr":"","type":"mosque"},{"id":"xx315714_1202914","name":"无锡清真寺","lat":31.571438,"lng":120.291402,"addr":"","type":"place_of_worship"},{"id":"xx315713_1202915","name":"Islamic place","lat":31.571326,"lng":120.291456,"addr":"","type":"mosque"},{"id":"xx313136_1205989","name":"清真寺","lat":31.313614,"lng":120.598875,"addr":"","type":"mosque"},{"id":"xx312378_1215285","name":"上海浦东清真寺","lat":31.237793,"lng":121.528502,"addr":"","type":"place_of_worship"},{"id":"xx312445_1214300","name":"沪西清真寺","lat":31.244494,"lng":121.430027,"addr":"常德路","type":"yes"},{"id":"xx312227_1214850","name":"小桃园清真寺","lat":31.22265,"lng":121.484967,"addr":"小桃园街","type":"yes"},{"id":"xx302479_1201655","name":"凤凰寺","lat":30.2479,"lng":120.165535,"addr":"中山中路","type":"yes"},{"id":"xx312445_1214299","name":"沪西清真寺","lat":31.244457,"lng":121.42993,"addr":"常德路","type":"yes"},{"id":"xx312227_1214849","name":"小桃园清真寺","lat":31.222674,"lng":121.484928,"addr":"小桃园街","type":"yes"},{"id":"xx302516_1201704","name":"杭州市回族穆兴小学","lat":30.25165,"lng":120.170357,"addr":"","type":"school"},{"id":"xx302766_1202157","name":"杭州清真寺","lat":30.276648,"lng":120.215689,"addr":"","type":"yes"},{"id":"xx311311_1211558","name":"回民公墓","lat":31.131077,"lng":121.155843,"addr":"","type":"grave_yard"},{"id":"xx315192_1200383","name":"Islamic place","lat":31.519163,"lng":120.038258,"addr":"","type":"mosque"},{"id":"xx302766_1202156","name":"杭州清真寺","lat":30.27658,"lng":120.215585,"addr":"","type":"yes"},{"id":"xx311312_1211558","name":"回民公墓","lat":31.131199,"lng":121.155815,"addr":"","type":"grave_yard"},{"id":"xx314613_1210892","name":"Islamic place","lat":31.461321,"lng":121.089214,"addr":"","type":"mosque"},{"id":"xx310078_1212227","name":"松江清真寺","lat":31.007811,"lng":121.222681,"addr":"","type":"mosque"},{"id":"xx312298_1214842","name":"福佑路清真寺","lat":31.229782,"lng":121.484158,"addr":"","type":"yes"},{"id":"xx307093_1213351","name":"金山清真寺","lat":30.709348,"lng":121.335067,"addr":"","type":"mosque"},{"id":"xx307093_1213350","name":"金山清真寺","lat":30.709312,"lng":121.335049,"addr":"","type":"mosque"}]