[{"id":"xx321847_1156818","name":"东关清真寺","lat":32.184683,"lng":115.68181,"addr":"","type":"place_of_worship"},{"id":"xx320726_1157926","name":"石佛清真寺","lat":32.072598,"lng":115.792647,"addr":"","type":"place_of_worship"},{"id":"xx331676_1156175","name":"清真南寺","lat":33.167595,"lng":115.617534,"addr":"","type":"yes"},{"id":"xx329448_1173551","name":"清真寺","lat":32.944788,"lng":117.35513,"addr":"","type":"place_of_worship"},{"id":"xx336231_1170203","name":"宿州清真寺","lat":33.623101,"lng":117.020294,"addr":"","type":"place_of_worship"},{"id":"xx320259_1187781","name":"净觉寺南门","lat":32.025879,"lng":118.778081,"addr":"","type":"mosque"},{"id":"xx322128_1194321","name":"山巷清真寺","lat":32.212784,"lng":119.432112,"addr":"","type":"place_of_worship"},{"id":"xx347938_1160680","name":"清真寺","lat":34.793758,"lng":116.06795,"addr":"","type":"place_of_worship"},{"id":"xx325232_1176740","name":"定城清真寺","lat":32.523185,"lng":117.673958,"addr":"","type":"place_of_worship"},{"id":"xx342626_1171961","name":"徐州市伊斯兰教协会","lat":34.262611,"lng":117.196141,"addr":"","type":"place_of_worship"},{"id":"xx337812_1183834","name":"清真古寺","lat":33.781238,"lng":118.383407,"addr":"","type":"place_of_worship"},{"id":"xx339527_1182916","name":"宿迁市伊斯兰教协会","lat":33.952693,"lng":118.291648,"addr":"","type":"place_of_worship"},{"id":"xx337351_1186764","name":"泗阳清真寺","lat":33.735145,"lng":118.676391,"addr":"","type":"place_of_worship"},{"id":"xx322129_1194324","name":"镇江市伊斯兰教协会","lat":32.212928,"lng":119.432351,"addr":"","type":"place_of_worship"},{"id":"xx323972_1194494","name":"扬州市伊斯兰教协会","lat":32.397248,"lng":119.449359,"addr":"","type":"mosque"},{"id":"xx307096_1173016","name":"宝莲庵","lat":30.709551,"lng":117.30157,"addr":"","type":"place_of_worship"},{"id":"xx323966_1194492","name":"普哈丁园","lat":32.396566,"lng":119.449169,"addr":"","type":"yes"},{"id":"xx329038_1158139","name":"阜阳东关清真寺","lat":32.903843,"lng":115.813944,"addr":"","type":"place_of_worship"},{"id":"xx318038_1168798","name":"Islamic place","lat":31.803789,"lng":116.879813,"addr":"","type":"yes"},{"id":"xx317778_1199513","name":"常州清真寺","lat":31.777829,"lng":119.951254,"addr":"","type":"yes"},{"id":"xx348758_1173582","name":"清真寺","lat":34.875757,"lng":117.358186,"addr":"","type":"place_of_worship"},{"id":"xx320263_1187775","name":"净觉寺","lat":32.026268,"lng":118.77754,"addr":"","type":"mosque"},{"id":"xx320261_1187780","name":"Islamic place","lat":32.026077,"lng":118.778039,"addr":"","type":"mosque"},{"id":"xx320261_1187778","name":"Islamic place","lat":32.0261,"lng":118.777784,"addr":"","type":"mosque"},{"id":"xx320262_1187779","name":"Islamic place","lat":32.026249,"lng":118.777852,"addr":"","type":"mosque"},{"id":"xx320315_1187728","name":"草桥清真寺","lat":32.031545,"lng":118.772776,"addr":"甘雨巷","type":"yes"},{"id":"xx323965_1194490","name":"普哈丁园","lat":32.396502,"lng":119.449005,"addr":"","type":"yes"},{"id":"xx318038_1168797","name":"Islamic place","lat":31.803789,"lng":116.879748,"addr":"","type":"yes"},{"id":"xx317778_1199512","name":"常州清真寺","lat":31.777834,"lng":119.951235,"addr":"","type":"yes"},{"id":"xx320262_1187778","name":"Islamic place","lat":32.026237,"lng":118.777846,"addr":"","type":"mosque"},{"id":"xx317390_1195543","name":"清真寺","lat":31.739036,"lng":119.554254,"addr":"","type":"place_of_worship"},{"id":"xx325749_1167756","name":"寿县清真寺","lat":32.574865,"lng":116.775647,"addr":"","type":"yes"},{"id":"xx348683_1175700","name":"枣庄清真寺","lat":34.868255,"lng":117.57,"addr":"","type":"yes"},{"id":"xx342626_1171960","name":"清真寺","lat":34.262639,"lng":117.19598,"addr":"","type":"yes"},{"id":"xx331210_1178612","name":"Islamic place","lat":33.12103,"lng":117.861173,"addr":"","type":"place_of_worship"},{"id":"xx318672_1172917","name":"合肥清真寺","lat":31.867198,"lng":117.29167,"addr":"","type":"yes"},{"id":"xx317390_1195542","name":"清真寺","lat":31.739011,"lng":119.55421,"addr":"","type":"place_of_worship"},{"id":"xx348683_1175698","name":"枣庄清真寺","lat":34.868268,"lng":117.569819,"addr":"","type":"yes"},{"id":"xx331209_1178610","name":"Islamic place","lat":33.120928,"lng":117.861026,"addr":"","type":"place_of_worship"},{"id":"xx344473_1153234","name":"宁陵清真寺","lat":34.447272,"lng":115.323351,"addr":"","type":"yes"},{"id":"xx348150_1171301","name":"Islamic place","lat":34.815023,"lng":117.130126,"addr":"","type":"yes"},{"id":"xx305040_1170359","name":"南关清真寺","lat":30.504018,"lng":117.035882,"addr":"大南门街","type":"place_of_worship"},{"id":"xx344551_1156457","name":"商丘西清真寺","lat":34.45511,"lng":115.645688,"addr":"","type":"place_of_worship"},{"id":"xx343874_1156022","name":"西关清真寺","lat":34.387399,"lng":115.60225,"addr":"","type":"place_of_worship"},{"id":"xx337353_1186760","name":"泗阳清真寺","lat":33.735295,"lng":118.676039,"addr":"","type":"mosque"},{"id":"xx344472_1153233","name":"宁陵清真寺","lat":34.447198,"lng":115.323346,"addr":"","type":"yes"},{"id":"xx344550_1156457","name":"商丘西清真寺","lat":34.45504,"lng":115.645683,"addr":"","type":"place_of_worship"},{"id":"xx343873_1156022","name":"西关清真寺","lat":34.387299,"lng":115.602236,"addr":"","type":"place_of_worship"},{"id":"xx337351_1186760","name":"泗阳清真寺","lat":33.735138,"lng":118.676001,"addr":"","type":"mosque"},{"id":"xx335957_1190311","name":"清江古清真寺","lat":33.595717,"lng":119.031127,"addr":"","type":"yes"},{"id":"xx343891_1156170","name":"北关清真寺","lat":34.389122,"lng":115.616961,"addr":"","type":"place_of_worship"},{"id":"xx345609_1177430","name":"清真北寺","lat":34.560937,"lng":117.742992,"addr":"","type":"yes"},{"id":"xx326857_1192295","name":"菱塘清真寺","lat":32.685704,"lng":119.229474,"addr":"中大路","type":"mosque"},{"id":"xx323567_1181561","name":"Islamic place","lat":32.356665,"lng":118.156052,"addr":"","type":"mosque"},{"id":"xx323920_1194281","name":"仙鹤寺","lat":32.391965,"lng":119.428086,"addr":"","type":"yes"},{"id":"xx320541_1187800","name":"吉兆营清真寺","lat":32.054135,"lng":118.780015,"addr":"","type":"yes"},{"id":"xx345054_1157065","name":"Islamic place","lat":34.505398,"lng":115.70652,"addr":"","type":"grave_yard"},{"id":"xx347852_1153060","name":"潘庄清真寺","lat":34.785179,"lng":115.305997,"addr":"","type":"yes"},{"id":"xx347903_1152833","name":"北关清真寺","lat":34.79026,"lng":115.283347,"addr":"","type":"yes"},{"id":"xx316482_1190153","name":"Islamic place","lat":31.648236,"lng":119.015303,"addr":"","type":"mosque"},{"id":"xx323919_1194281","name":"仙鹤寺","lat":32.391864,"lng":119.428077,"addr":"","type":"yes"},{"id":"xx347851_1153060","name":"潘庄清真寺","lat":34.785133,"lng":115.305997,"addr":"","type":"yes"},{"id":"xx347902_1152833","name":"北关清真寺","lat":34.790202,"lng":115.283332,"addr":"","type":"yes"},{"id":"xx337098_1186690","name":"泗阳清真寺","lat":33.709792,"lng":118.669048,"addr":"","type":"mosque"},{"id":"xx337814_1183831","name":"清真古寺","lat":33.781366,"lng":118.38311,"addr":"","type":"mosque"}]