[{"id":"xx334953_362341","name":"جامع المحمدي","lat":33.495325,"lng":36.234079,"addr":"","type":"place_of_worship"},{"id":"xx334920_362418","name":"جامع الأكرم","lat":33.491972,"lng":36.241779,"addr":"","type":"place_of_worship"},{"id":"xx334981_362815","name":"جامع الشيخ علي الدقر","lat":33.498111,"lng":36.281529,"addr":"","type":"place_of_worship"},{"id":"xx334849_363774","name":"مسجد قيس","lat":33.484897,"lng":36.377419,"addr":"","type":"place_of_worship"},{"id":"xx334832_362997","name":"الماجد","lat":33.483222,"lng":36.299746,"addr":"","type":"place_of_worship"},{"id":"xx334916_362997","name":"جامع زين العابدين","lat":33.491565,"lng":36.299741,"addr":"الميدان","type":"place_of_worship"},{"id":"xx334817_364007","name":"Islamic place","lat":33.481682,"lng":36.40073,"addr":"","type":"place_of_worship"},{"id":"xx334728_363032","name":"جامع الوسيم","lat":33.472804,"lng":36.303215,"addr":"","type":"place_of_worship"},{"id":"xx334727_363065","name":"جامع  عبد القادر الحسيني","lat":33.472668,"lng":36.30645,"addr":"","type":"place_of_worship"},{"id":"xx335647_362271","name":"سعد بن معاذ","lat":33.564718,"lng":36.227095,"addr":"","type":"place_of_worship"},{"id":"xx325215_364830","name":"مسجد عمر","lat":32.521491,"lng":36.482974,"addr":"","type":"place_of_worship"},{"id":"xx325209_364845","name":"مسجد فاطمة","lat":32.520869,"lng":36.48445,"addr":"","type":"place_of_worship"},{"id":"xx335075_364869","name":"Islamic place","lat":33.50749,"lng":36.486948,"addr":"","type":"place_of_worship"},{"id":"xx334643_363186","name":"مسجد الإمام الشافعي","lat":33.464328,"lng":36.31862,"addr":"","type":"place_of_worship"},{"id":"xx334431_363344","name":"جامع سيدي مدرك الفزاري Sidi Madrak Al-Fazari Mosque","lat":33.443131,"lng":36.334413,"addr":"السيدة زينب","type":"place_of_worship"},{"id":"xx334408_363329","name":"Islamic place","lat":33.440832,"lng":36.332877,"addr":"السيدة زينب","type":"place_of_worship"},{"id":"xx335188_363125","name":"جامع الفردوس","lat":33.518837,"lng":36.312496,"addr":"","type":"place_of_worship"},{"id":"xx335145_362891","name":"مسجد ومقام فروخ شاه","lat":33.514541,"lng":36.289085,"addr":"","type":"place_of_worship"},{"id":"xx335100_362592","name":"جامع المزة الكبير","lat":33.51003,"lng":36.259213,"addr":"","type":"place_of_worship"},{"id":"xx335122_362914","name":"جامع التقية","lat":33.512157,"lng":36.291435,"addr":"دمشق","type":"place_of_worship"},{"id":"xx335833_364167","name":"قبة عامري","lat":33.583333,"lng":36.416667,"addr":"","type":"place_of_worship"},{"id":"xx346500_364000","name":"الشيخ علي","lat":34.65,"lng":36.4,"addr":"","type":"place_of_worship"},{"id":"xx346857_366895","name":"مسجد عمر بن الخطاب","lat":34.685726,"lng":36.689526,"addr":"","type":"place_of_worship"},{"id":"xx335120_363499","name":"جامع طلحة والزبير","lat":33.512033,"lng":36.349899,"addr":"","type":"place_of_worship"},{"id":"xx345361_364757","name":"سيدي النبي صالح","lat":34.536085,"lng":36.475655,"addr":"","type":"place_of_worship"},{"id":"xx335261_362246","name":"دمر مسجد العادل","lat":33.526082,"lng":36.224578,"addr":"","type":"place_of_worship"},{"id":"xx335169_362725","name":"جامع سعد بن معاذ","lat":33.516886,"lng":36.272526,"addr":"","type":"place_of_worship"},{"id":"xx335222_362736","name":"مسجد المرابط Al ‎Morabet Mosque","lat":33.522217,"lng":36.273572,"addr":"","type":"place_of_worship"},{"id":"xx336903_381131","name":"Islamic place","lat":33.690284,"lng":38.113139,"addr":"","type":"place_of_worship"},{"id":"xx337719_370530","name":"Islamic place","lat":33.771856,"lng":37.052961,"addr":"","type":"place_of_worship"},{"id":"xx334951_362954","name":"الغواص","lat":33.495052,"lng":36.295378,"addr":"","type":"place_of_worship"},{"id":"xx334389_362866","name":"مسجد أحد","lat":33.438907,"lng":36.286633,"addr":"","type":"place_of_worship"},{"id":"xx334354_362874","name":"جامع الأورفلي","lat":33.435371,"lng":36.287395,"addr":"","type":"place_of_worship"},{"id":"xx334876_363024","name":"الأشمر","lat":33.487611,"lng":36.302385,"addr":"","type":"place_of_worship"},{"id":"xx334328_362530","name":"سعيد بن عامر الجمحي","lat":33.4328,"lng":36.253019,"addr":"","type":"place_of_worship"},{"id":"xx334862_362908","name":"جامع الثريا","lat":33.486235,"lng":36.290823,"addr":"","type":"place_of_worship"},{"id":"xx334948_363078","name":"جامع الرضا","lat":33.494768,"lng":36.307806,"addr":"","type":"place_of_worship"},{"id":"xx335179_363222","name":"Islamic place","lat":33.517936,"lng":36.322192,"addr":"","type":"place_of_worship"},{"id":"xx340239_367278","name":"مسجد الغفري","lat":34.023922,"lng":36.727828,"addr":"","type":"place_of_worship"},{"id":"xx335648_363920","name":"مسجد التوحيد","lat":33.56479,"lng":36.39195,"addr":"","type":"place_of_worship"},{"id":"xx340303_367237","name":"مسجد الفردوس","lat":34.030272,"lng":36.723706,"addr":"","type":"place_of_worship"},{"id":"xx340250_367181","name":"مسجد عمار بن ياسر","lat":34.025019,"lng":36.718063,"addr":"","type":"place_of_worship"},{"id":"xx340352_367277","name":"مسجد طيبة","lat":34.03516,"lng":36.727739,"addr":"","type":"place_of_worship"},{"id":"xx340449_367574","name":"جامع عمر بن عبد العزيز","lat":34.044873,"lng":36.757352,"addr":"","type":"place_of_worship"},{"id":"xx336592_360773","name":"جامع الاحسان","lat":33.659246,"lng":36.077267,"addr":"","type":"place_of_worship"},{"id":"xx326365_361068","name":"مسجد الصحابي الجليل موسى ابن نصير","lat":32.636452,"lng":36.106811,"addr":"","type":"place_of_worship"},{"id":"xx326220_361055","name":"مسجد الشيخ عبد العزيز با زيد","lat":32.622005,"lng":36.105521,"addr":"","type":"place_of_worship"},{"id":"xx326123_361009","name":"الجامع العمري","lat":32.61234,"lng":36.10093,"addr":"","type":"place_of_worship"},{"id":"xx327598_361292","name":"Islamic place","lat":32.759833,"lng":36.129205,"addr":"","type":"place_of_worship"},{"id":"xx327518_361269","name":"Islamic place","lat":32.751847,"lng":36.126947,"addr":"","type":"place_of_worship"},{"id":"xx328255_361483","name":"Islamic place","lat":32.825523,"lng":36.148291,"addr":"","type":"place_of_worship"},{"id":"xx328263_361614","name":"Islamic place","lat":32.826262,"lng":36.161392,"addr":"","type":"place_of_worship"},{"id":"xx335237_362808","name":"جامع الأفرم","lat":33.523732,"lng":36.280814,"addr":"","type":"place_of_worship"},{"id":"xx335196_362764","name":"مسجد أنس بن مالك","lat":33.519579,"lng":36.276395,"addr":"","type":"place_of_worship"},{"id":"xx335257_362813","name":"جامع الدر المحمدي","lat":33.525703,"lng":36.281292,"addr":"","type":"place_of_worship"},{"id":"xx330179_361182","name":"جامع سعد","lat":33.017899,"lng":36.118238,"addr":"","type":"place_of_worship"},{"id":"xx335249_362878","name":"جامع الجسر الأبيض","lat":33.524854,"lng":36.28784,"addr":"","type":"place_of_worship"},{"id":"xx325177_364857","name":"جامع أبو الفدى","lat":32.517719,"lng":36.485719,"addr":"","type":"place_of_worship"},{"id":"xx335135_363066","name":"مسجد العمري","lat":33.513473,"lng":36.306612,"addr":"","type":"place_of_worship"},{"id":"xx338079_367359","name":"Islamic place","lat":33.807895,"lng":36.735917,"addr":"","type":"place_of_worship"},{"id":"xx337400_367015","name":"جامع النور","lat":33.739954,"lng":36.701525,"addr":"","type":"place_of_worship"},{"id":"xx335238_363137","name":"مسجد الحسين","lat":33.523774,"lng":36.31371,"addr":"","type":"place_of_worship"},{"id":"xx335158_362976","name":"جامع الورد الكبير","lat":33.515797,"lng":36.297631,"addr":"","type":"place_of_worship"},{"id":"xx335223_362692","name":"جامع الخير‎","lat":33.522319,"lng":36.269196,"addr":"","type":"place_of_worship"},{"id":"xx326749_362536","name":"مسجد جنوبي البلد","lat":32.674905,"lng":36.253588,"addr":"","type":"place_of_worship"},{"id":"xx328473_363423","name":"Islamic place","lat":32.847344,"lng":36.342343,"addr":"","type":"place_of_worship"},{"id":"xx328430_363419","name":"جامع الخضر","lat":32.842989,"lng":36.341921,"addr":"","type":"place_of_worship"},{"id":"xx335279_363127","name":"جامع القصور","lat":33.527935,"lng":36.312701,"addr":"","type":"place_of_worship"},{"id":"xx335221_363221","name":"سعد بن معاذ","lat":33.522059,"lng":36.322145,"addr":"","type":"place_of_worship"},{"id":"xx339725_366554","name":"جامع العجمي","lat":33.972547,"lng":36.655449,"addr":"","type":"place_of_worship"},{"id":"xx335375_360588","name":"جامع بلال","lat":33.537529,"lng":36.058819,"addr":"","type":"place_of_worship"},{"id":"xx334653_362320","name":"مسجد الحسن والحسين","lat":33.465343,"lng":36.231974,"addr":"","type":"place_of_worship"},{"id":"xx334637_362277","name":"جامع الرضا","lat":33.463731,"lng":36.227655,"addr":"","type":"place_of_worship"},{"id":"xx334642_362143","name":"مسجد الصحابة","lat":33.464228,"lng":36.214294,"addr":"","type":"place_of_worship"},{"id":"xx334360_361640","name":"جامع أبو ذر الغفاري","lat":33.435975,"lng":36.164042,"addr":"","type":"place_of_worship"},{"id":"xx335301_362907","name":"جامع الدكتور راتب النابلسي","lat":33.530067,"lng":36.290718,"addr":"","type":"place_of_worship"},{"id":"xx326584_364409","name":"Islamic place","lat":32.658358,"lng":36.440878,"addr":"","type":"place_of_worship"},{"id":"xx337596_363936","name":"Islamic place","lat":33.759561,"lng":36.393638,"addr":"","type":"place_of_worship"},{"id":"xx347438_367209","name":"Islamic place","lat":34.743765,"lng":36.720945,"addr":"","type":"place_of_worship"},{"id":"xx347409_367083","name":"Islamic place","lat":34.740854,"lng":36.708255,"addr":"","type":"place_of_worship"},{"id":"xx347362_367018","name":"مسجد الفاروق","lat":34.736172,"lng":36.701804,"addr":"","type":"place_of_worship"},{"id":"xx347307_367056","name":"جامع علاء الدين الحسامي","lat":34.730746,"lng":36.705641,"addr":"","type":"place_of_worship"},{"id":"xx347094_367128","name":"جامع أسامة بن زيد","lat":34.709377,"lng":36.71279,"addr":"طريق الشام","type":"place_of_worship"},{"id":"xx335120_363001","name":"Islamic place","lat":33.512003,"lng":36.300053,"addr":"","type":"place_of_worship"},{"id":"xx334839_363046","name":"جامع العزيز","lat":33.483856,"lng":36.304622,"addr":"‫ابن بطوطة‬‎","type":"place_of_worship"},{"id":"xx335314_362893","name":"جامع الحنابلة","lat":33.531426,"lng":36.289298,"addr":"","type":"place_of_worship"},{"id":"xx335101_362940","name":"جامع الحلبوني","lat":33.510113,"lng":36.293996,"addr":"","type":"place_of_worship"},{"id":"xx334994_363109","name":"جامع المصطفى","lat":33.499427,"lng":36.310865,"addr":"دمشق","type":"place_of_worship"},{"id":"xx334955_362833","name":"Islamic place","lat":33.495524,"lng":36.283285,"addr":"","type":"place_of_worship"},{"id":"xx334758_363172","name":"علي بن أبي طالب","lat":33.475799,"lng":36.317201,"addr":"","type":"place_of_worship"},{"id":"xx334700_363094","name":"Islamic place","lat":33.469968,"lng":36.30938,"addr":"","type":"place_of_worship"},{"id":"xx334848_363152","name":"مسجد الحسين ابن علي رضي الله عنها","lat":33.484832,"lng":36.315243,"addr":"","type":"place_of_worship"},{"id":"xx334847_363073","name":"جامع سيدنا زكريا عليه السلام","lat":33.484698,"lng":36.307275,"addr":"","type":"mosque"},{"id":"xx334879_362848","name":"جامع علي بن ابي طالب","lat":33.487948,"lng":36.284789,"addr":"","type":"place_of_worship"},{"id":"xx334828_362834","name":"جامع مالك بن انس","lat":33.482803,"lng":36.283373,"addr":"","type":"place_of_worship"},{"id":"xx335149_363214","name":"Islamic place","lat":33.514892,"lng":36.321425,"addr":"","type":"place_of_worship"},{"id":"xx334696_363010","name":"جامع القدس","lat":33.469586,"lng":36.301013,"addr":"","type":"place_of_worship"},{"id":"xx334408_363455","name":"Islamic place","lat":33.440761,"lng":36.345489,"addr":"السيدة زينب","type":"place_of_worship"},{"id":"xx334494_365591","name":"Islamic place","lat":33.449408,"lng":36.559088,"addr":"","type":"place_of_worship"},{"id":"xx334800_363518","name":"مسجد علي بن أبي طالب","lat":33.479962,"lng":36.351776,"addr":"","type":"place_of_worship"},{"id":"xx335277_363777","name":"Islamic place","lat":33.527668,"lng":36.37766,"addr":"","type":"place_of_worship"},{"id":"xx334723_363517","name":"Islamic place","lat":33.472292,"lng":36.351738,"addr":"","type":"place_of_worship"},{"id":"xx335606_363609","name":"جامع الرحمن","lat":33.560551,"lng":36.360949,"addr":"","type":"place_of_worship"},{"id":"xx337359_366995","name":"جامع سيدنا ايوب","lat":33.735945,"lng":36.699531,"addr":"","type":"place_of_worship"},{"id":"xx337435_367041","name":"جامع زيد بن ثابت","lat":33.743537,"lng":36.704128,"addr":"","type":"place_of_worship"},{"id":"xx335006_363010","name":"جامع باب مصلى الكبير","lat":33.500583,"lng":36.301046,"addr":"","type":"place_of_worship"},{"id":"xx335010_363047","name":"جامع سعد بني أبي وقاص","lat":33.500967,"lng":36.30469,"addr":"دمشق","type":"place_of_worship"},{"id":"xx333589_362433","name":"مسجد الحمزة والعباس","lat":33.358896,"lng":36.243254,"addr":"","type":"place_of_worship"},{"id":"xx333559_362453","name":"الجامع الكبير","lat":33.355914,"lng":36.245333,"addr":"","type":"place_of_worship"},{"id":"xx333562_362372","name":"مسجد أبو بكر الصديق","lat":33.356214,"lng":36.237182,"addr":"","type":"place_of_worship"},{"id":"xx347237_367177","name":"جامع الزعفران","lat":34.723745,"lng":36.71771,"addr":"","type":"place_of_worship"},{"id":"xx347221_367176","name":"جامع عبد الرحمن بن عوف","lat":34.722087,"lng":36.717641,"addr":"","type":"place_of_worship"},{"id":"xx334779_362832","name":"مسجد السيدة خديجة","lat":33.477948,"lng":36.283161,"addr":"","type":"place_of_worship"},{"id":"xx334690_363239","name":"جامع الصالحين","lat":33.469008,"lng":36.323888,"addr":"","type":"place_of_worship"},{"id":"xx334372_361596","name":"جامع الاحمد","lat":33.437197,"lng":36.159555,"addr":"","type":"place_of_worship"},{"id":"xx334429_361604","name":"جامع جديدة الفضل","lat":33.442916,"lng":36.160376,"addr":"","type":"place_of_worship"},{"id":"xx334233_361493","name":"جامع عرطوز","lat":33.423316,"lng":36.149285,"addr":"","type":"place_of_worship"},{"id":"xx331085_362677","name":"جباب","lat":33.10849,"lng":36.267668,"addr":"","type":"place_of_worship"},{"id":"xx331941_362261","name":"Islamic place","lat":33.194098,"lng":36.226108,"addr":"","type":"place_of_worship"},{"id":"xx333329_362332","name":"خان دنون","lat":33.332856,"lng":36.233183,"addr":"","type":"place_of_worship"},{"id":"xx333021_362277","name":"Islamic place","lat":33.302123,"lng":36.227717,"addr":"","type":"place_of_worship"},{"id":"xx335830_363617","name":"جامع حمزة","lat":33.583009,"lng":36.361709,"addr":"","type":"place_of_worship"},{"id":"xx336213_361061","name":"التكية السليمانية","lat":33.621262,"lng":36.106099,"addr":"","type":"place_of_worship"},{"id":"xx335181_363111","name":"جامع الأقصاب","lat":33.518054,"lng":36.311071,"addr":"","type":"place_of_worship"},{"id":"xx335095_363004","name":"جامع درويش باشا","lat":33.509456,"lng":36.300352,"addr":"","type":"place_of_worship"},{"id":"xx326307_361550","name":"Islamic place","lat":32.63068,"lng":36.154998,"addr":"نعيمة","type":"place_of_worship"},{"id":"xx326258_361120","name":"Islamic place","lat":32.625846,"lng":36.111975,"addr":"","type":"place_of_worship"},{"id":"xx326659_360603","name":"Islamic place","lat":32.665918,"lng":36.060254,"addr":"","type":"place_of_worship"},{"id":"xx326414_360784","name":"جامع الضاحية","lat":32.641401,"lng":36.078386,"addr":"","type":"place_of_worship"},{"id":"xx347279_367098","name":"Islamic place","lat":34.727928,"lng":36.709818,"addr":"","type":"place_of_worship"},{"id":"xx347297_367150","name":"جامع القاسمي","lat":34.729689,"lng":36.714993,"addr":"","type":"place_of_worship"},{"id":"xx347452_366915","name":"Islamic place","lat":34.745212,"lng":36.691494,"addr":"","type":"place_of_worship"},{"id":"xx335080_362617","name":"مسجد أسامة بن زيد","lat":33.508035,"lng":36.261665,"addr":"","type":"place_of_worship"},{"id":"xx335836_363674","name":"مسجد وثانوية حمزة بن عبد المطلب","lat":33.583638,"lng":36.367449,"addr":"","type":"yes"},{"id":"xx338383_365480","name":"Islamic place","lat":33.838326,"lng":36.548026,"addr":"","type":"place_of_worship"},{"id":"xx338144_365577","name":"Islamic place","lat":33.814392,"lng":36.557698,"addr":"","type":"mosque"},{"id":"xx338195_365595","name":"Islamic place","lat":33.81951,"lng":36.559528,"addr":"","type":"mosque"},{"id":"xx336391_365119","name":"مسجد الأنصار","lat":33.639075,"lng":36.511896,"addr":"","type":"place_of_worship"},{"id":"xx335114_363833","name":"مسجد الحسن","lat":33.511447,"lng":36.383261,"addr":"","type":"place_of_worship"},{"id":"xx335126_363790","name":"مسجد خالد بن الوليد","lat":33.512592,"lng":36.379015,"addr":"","type":"place_of_worship"},{"id":"xx335119_363885","name":"جامع جسرين الكبير","lat":33.511889,"lng":36.388474,"addr":"","type":"place_of_worship"},{"id":"xx334958_363806","name":"Islamic place","lat":33.495846,"lng":36.380633,"addr":"","type":"place_of_worship"},{"id":"xx335604_363230","name":"مسجد جعفر الطيار","lat":33.560431,"lng":36.323035,"addr":"","type":"place_of_worship"},{"id":"xx336488_363016","name":"جامع الحسنين","lat":33.648828,"lng":36.301635,"addr":"","type":"place_of_worship"},{"id":"xx336383_362967","name":"جامع علي بن ابي طالب","lat":33.638255,"lng":36.296678,"addr":"","type":"place_of_worship"},{"id":"xx336454_363063","name":"جامع الرضوان","lat":33.645394,"lng":36.306344,"addr":"","type":"place_of_worship"},{"id":"xx336837_364369","name":"Islamic place","lat":33.683747,"lng":36.436876,"addr":"","type":"place_of_worship"},{"id":"xx336882_364315","name":"Islamic place","lat":33.68821,"lng":36.431451,"addr":"","type":"place_of_worship"},{"id":"xx336836_364299","name":"Islamic place","lat":33.683565,"lng":36.429877,"addr":"","type":"place_of_worship"},{"id":"xx336866_364257","name":"Islamic place","lat":33.686623,"lng":36.425731,"addr":"","type":"place_of_worship"},{"id":"xx336858_364294","name":"Islamic place","lat":33.685809,"lng":36.42939,"addr":"","type":"place_of_worship"},{"id":"xx336911_364277","name":"Islamic place","lat":33.691106,"lng":36.427712,"addr":"","type":"place_of_worship"},{"id":"xx335720_364058","name":"مسجد حوى","lat":33.571964,"lng":36.405817,"addr":"","type":"place_of_worship"},{"id":"xx349926_371704","name":"Islamic place","lat":34.992578,"lng":37.170429,"addr":"","type":"place_of_worship"},{"id":"xx348882_388681","name":"Islamic place","lat":34.888243,"lng":38.86815,"addr":"","type":"place_of_worship"},{"id":"xx348836_388773","name":"Islamic place","lat":34.883585,"lng":38.877254,"addr":"","type":"place_of_worship"},{"id":"xx348866_388729","name":"Islamic place","lat":34.886555,"lng":38.872853,"addr":"","type":"place_of_worship"},{"id":"xx348851_388813","name":"Islamic place","lat":34.885095,"lng":38.881335,"addr":"","type":"place_of_worship"},{"id":"xx340103_367673","name":"Islamic place","lat":34.010288,"lng":36.76726,"addr":"","type":"place_of_worship"},{"id":"xx344140_367555","name":"Islamic place","lat":34.413997,"lng":36.755508,"addr":"","type":"place_of_worship"},{"id":"xx344134_367591","name":"جامع الرحمن","lat":34.413435,"lng":36.759075,"addr":"حمص","type":"mosque"},{"id":"xx344107_367616","name":"Islamic place","lat":34.41074,"lng":36.76158,"addr":"","type":"place_of_worship"},{"id":"xx337524_367154","name":"Islamic place","lat":33.752372,"lng":36.715364,"addr":"","type":"place_of_worship"},{"id":"xx337510_367049","name":"Islamic place","lat":33.75098,"lng":36.704931,"addr":"","type":"place_of_worship"},{"id":"xx337489_367102","name":"Islamic place","lat":33.748877,"lng":36.710204,"addr":"","type":"place_of_worship"},{"id":"xx337431_367066","name":"Islamic place","lat":33.743095,"lng":36.706606,"addr":"","type":"place_of_worship"},{"id":"xx335882_361959","name":"جامع الشامسي","lat":33.588156,"lng":36.195914,"addr":"","type":"place_of_worship"},{"id":"xx335937_362001","name":"جامع اشرفية الوادي الكبير","lat":33.593664,"lng":36.200052,"addr":"","type":"place_of_worship"},{"id":"xx335830_361945","name":"مسجد علي بن علي طالب","lat":33.582962,"lng":36.194541,"addr":"","type":"place_of_worship"},{"id":"xx347268_367530","name":"مقبرة الفردوس Al Fardous Graveyard","lat":34.726836,"lng":36.753004,"addr":"","type":"grave_yard"},{"id":"xx335311_362904","name":"جامع البظنا","lat":33.531105,"lng":36.290372,"addr":"شارع محي الدين بن عربي","type":"mosque"},{"id":"xx335010_362966","name":"جامع الحيواطية","lat":33.501005,"lng":36.296578,"addr":"","type":"place_of_worship"},{"id":"xx334389_365499","name":"جامع المصطفى","lat":33.438944,"lng":36.549924,"addr":"","type":"mosque"},{"id":"xx335697_363979","name":"مسجد طه","lat":33.569727,"lng":36.397946,"addr":"","type":"mosque"},{"id":"xx335719_364028","name":"مسجد حسيبة","lat":33.571936,"lng":36.402795,"addr":"","type":"mosque"},{"id":"xx335684_363955","name":"مصلى الفتح","lat":33.568427,"lng":36.395536,"addr":"","type":"musalla"},{"id":"xx346784_365892","name":"مسجد معاذ بن جبل","lat":34.678432,"lng":36.589169,"addr":"","type":"mosque"},{"id":"xx348223_359686","name":"جامع الزرقات","lat":34.822294,"lng":35.96855,"addr":"","type":"mosque"},{"id":"xx335151_363076","name":"جامع الجوزة","lat":33.515133,"lng":36.307581,"addr":"","type":"mosque"},{"id":"xx335115_362974","name":"جامع تنكز","lat":33.511498,"lng":36.297388,"addr":"","type":"place_of_worship"},{"id":"xx335092_362971","name":"مسجد العجلوني","lat":33.5092,"lng":36.297119,"addr":"","type":"mosque"},{"id":"xx331619_359253","name":"جامع سعد الدين الجباوي","lat":33.161887,"lng":35.925287,"addr":"","type":"mosque"},{"id":"xx342293_372405","name":"Islamic place","lat":34.229332,"lng":37.24054,"addr":"","type":"place_of_worship"},{"id":"xx342275_372344","name":"Islamic place","lat":34.227483,"lng":37.234383,"addr":"","type":"place_of_worship"},{"id":"xx342278_372377","name":"Islamic place","lat":34.227759,"lng":37.237697,"addr":"","type":"place_of_worship"},{"id":"xx335295_362834","name":"جامع الإمام زين العابدين","lat":33.529482,"lng":36.283401,"addr":"","type":"place_of_worship"},{"id":"xx335314_362845","name":"جامع نبي الله ذي الكفل","lat":33.5314,"lng":36.28449,"addr":"","type":"place_of_worship"},{"id":"xx334804_362878","name":"مسجد الإصلاح","lat":33.480441,"lng":36.287844,"addr":"","type":"mosque"},{"id":"xx335175_363061","name":"جامع طلحة بن عبيد الله","lat":33.517547,"lng":36.306058,"addr":"","type":"mosque"},{"id":"xx349817_359051","name":"Islamic place","lat":34.981654,"lng":35.905095,"addr":"","type":"place_of_worship"},{"id":"xx349795_359055","name":"Islamic place","lat":34.979497,"lng":35.905512,"addr":"","type":"place_of_worship"},{"id":"xx335085_363039","name":"جامع القلعي","lat":33.508476,"lng":36.303918,"addr":"دمشق","type":"place_of_worship"},{"id":"xx335087_363062","name":"جامع الخريزاتية","lat":33.508698,"lng":36.306168,"addr":"","type":"place_of_worship"},{"id":"xx335503_362118","name":"مسجد العرفان","lat":33.550256,"lng":36.21175,"addr":"شارع ابو بكر الصديق","type":"place_of_worship"},{"id":"xx334707_363501","name":"Islamic place","lat":33.470667,"lng":36.350087,"addr":"","type":"place_of_worship"},{"id":"xx336149_363092","name":"جامع الدعوة","lat":33.614906,"lng":36.309187,"addr":"","type":"place_of_worship"},{"id":"xx347089_366865","name":"مسجد الجيلاني","lat":34.708893,"lng":36.686537,"addr":"","type":"place_of_worship"},{"id":"xx336393_366870","name":"Islamic place","lat":33.639304,"lng":36.687006,"addr":"","type":"place_of_worship"},{"id":"xx336481_366983","name":"Islamic place","lat":33.648102,"lng":36.69834,"addr":"","type":"place_of_worship"},{"id":"xx335143_364399","name":"Islamic place","lat":33.514284,"lng":36.439915,"addr":"","type":"place_of_worship"},{"id":"xx335223_363840","name":"Islamic place","lat":33.52232,"lng":36.383956,"addr":"","type":"place_of_worship"},{"id":"xx335180_363836","name":"Islamic place","lat":33.518014,"lng":36.383583,"addr":"","type":"place_of_worship"},{"id":"xx335227_363856","name":"Islamic place","lat":33.522686,"lng":36.385612,"addr":"","type":"place_of_worship"},{"id":"xx335198_363834","name":"Islamic place","lat":33.519779,"lng":36.383434,"addr":"","type":"place_of_worship"},{"id":"xx334660_363128","name":"مسجد حمزة","lat":33.465987,"lng":36.312843,"addr":"","type":"place_of_worship"},{"id":"xx347337_367011","name":"Al- Khayrat Mosque","lat":34.733746,"lng":36.701141,"addr":"‫القبس‬‎","type":"place_of_worship"},{"id":"xx335088_363075","name":"مسجد الحبوبي","lat":33.508839,"lng":36.307474,"addr":"","type":"place_of_worship"},{"id":"xx335074_363086","name":"مسجد المليحي","lat":33.507413,"lng":36.30861,"addr":"","type":"place_of_worship"},{"id":"xx335077_363081","name":"مسجد الناصري","lat":33.507744,"lng":36.308148,"addr":"","type":"place_of_worship"},{"id":"xx347162_367150","name":"مسجد عكرمة","lat":34.716219,"lng":36.715045,"addr":"","type":"place_of_worship"},{"id":"xx347052_367129","name":"مسجد بلال الحبشي","lat":34.705169,"lng":36.712868,"addr":"","type":"place_of_worship"},{"id":"xx347165_367202","name":"مسجد الإمام جعفر الصادق","lat":34.716508,"lng":36.720193,"addr":"","type":"place_of_worship"},{"id":"xx347719_363340","name":"هوك عبود","lat":34.771869,"lng":36.334049,"addr":"","type":"place_of_worship"},{"id":"xx334536_362384","name":"Islamic place","lat":33.453606,"lng":36.238416,"addr":"","type":"place_of_worship"},{"id":"xx335966_363107","name":"جامع عمر بن الخطاب","lat":33.596633,"lng":36.310678,"addr":"","type":"place_of_worship"},{"id":"xx347188_367022","name":"جامع الفرقان","lat":34.718758,"lng":36.702205,"addr":"حي الإنشاءات","type":"place_of_worship"},{"id":"xx347291_367220","name":"جامع السراج","lat":34.729093,"lng":36.721993,"addr":"","type":"place_of_worship"},{"id":"xx335425_363046","name":"جامع سعيد باشا","lat":33.542475,"lng":36.304571,"addr":"","type":"place_of_worship"},{"id":"xx335285_362779","name":"جامع السلم والرضوان","lat":33.528549,"lng":36.277909,"addr":"جادة باشكاتب","type":"place_of_worship"},{"id":"xx347409_367251","name":"جامع الهداية","lat":34.74088,"lng":36.725091,"addr":"","type":"place_of_worship"},{"id":"xx347218_367152","name":"مسجد الحاج علاء الدين عبارة","lat":34.72177,"lng":36.71525,"addr":"","type":"place_of_worship"},{"id":"xx347224_367079","name":"مسجد الامام علي بن أبي طالب","lat":34.722352,"lng":36.707887,"addr":"","type":"place_of_worship"},{"id":"xx335278_362810","name":"مسجد البشير","lat":33.527839,"lng":36.281038,"addr":"","type":"place_of_worship"},{"id":"xx347351_367061","name":"مسجد الحافظ","lat":34.735113,"lng":36.706078,"addr":"","type":"place_of_worship"},{"id":"xx334979_362725","name":"جامع الاحسان","lat":33.49794,"lng":36.272476,"addr":"","type":"place_of_worship"},{"id":"xx335058_362968","name":"جامع السلخدية","lat":33.505789,"lng":36.296847,"addr":"باب سريجة","type":"place_of_worship"},{"id":"xx335228_362903","name":"جامع دك الباب","lat":33.522771,"lng":36.290342,"addr":"","type":"place_of_worship"},{"id":"xx336100_363135","name":"جامع الفاروق","lat":33.610001,"lng":36.313523,"addr":"وادي حنونة","type":"place_of_worship"},{"id":"xx336034_363121","name":"جامع النور","lat":33.603368,"lng":36.31211,"addr":"","type":"place_of_worship"},{"id":"xx336016_363149","name":"جامع الفرقان","lat":33.601569,"lng":36.314869,"addr":"","type":"place_of_worship"},{"id":"xx335980_363194","name":"جامع الفرقان","lat":33.598034,"lng":36.319387,"addr":"","type":"place_of_worship"},{"id":"xx336127_363166","name":"جامع الأحمر","lat":33.612704,"lng":36.316624,"addr":"","type":"place_of_worship"},{"id":"xx336125_363175","name":"الثانوية الشرعية للبنين","lat":33.612495,"lng":36.317485,"addr":"","type":"school"},{"id":"xx347250_367252","name":"جامع كعب الأحبار","lat":34.724969,"lng":36.725243,"addr":"","type":"place_of_worship"},{"id":"xx347274_367165","name":"مسجد ابو لبادة","lat":34.7274,"lng":36.716454,"addr":"","type":"place_of_worship"},{"id":"xx347172_367111","name":"جامع الأخيار","lat":34.717246,"lng":36.711076,"addr":"","type":"place_of_worship"},{"id":"xx336998_363723","name":"جامع صيدنايا الكبير","lat":33.699843,"lng":36.372308,"addr":"","type":"place_of_worship"},{"id":"xx336497_364375","name":"جامع الفاروق","lat":33.649694,"lng":36.437511,"addr":"","type":"place_of_worship"},{"id":"xx336500_364357","name":"جامع الأفرم","lat":33.649993,"lng":36.435683,"addr":"","type":"place_of_worship"},{"id":"xx336481_364412","name":"مسجد حفير التحتا الجديد","lat":33.648113,"lng":36.441234,"addr":"","type":"place_of_worship"},{"id":"xx336504_364297","name":"جامع القيوم","lat":33.650397,"lng":36.429669,"addr":"","type":"place_of_worship"},{"id":"xx335143_363159","name":"Islamic place","lat":33.514265,"lng":36.315864,"addr":"","type":"place_of_worship"},{"id":"xx335162_362879","name":"جامع الحسن","lat":33.516156,"lng":36.287934,"addr":"","type":"place_of_worship"},{"id":"xx335047_362571","name":"جامع الزهراء","lat":33.504699,"lng":36.257133,"addr":"","type":"place_of_worship"},{"id":"xx335125_362672","name":"جامع الخجا","lat":33.512486,"lng":36.267196,"addr":"","type":"place_of_worship"},{"id":"xx335197_362921","name":"جامع الشهداء","lat":33.519657,"lng":36.292105,"addr":"","type":"place_of_worship"},{"id":"xx335095_362882","name":"جامع الرازي","lat":33.509532,"lng":36.288202,"addr":"","type":"place_of_worship"},{"id":"xx335236_362792","name":"جامع نافذ افندي","lat":33.523637,"lng":36.279187,"addr":"","type":"place_of_worship"},{"id":"xx335251_362827","name":"جامع العدس","lat":33.525094,"lng":36.282665,"addr":"","type":"place_of_worship"},{"id":"xx335292_362368","name":"جامع نور الهداية","lat":33.529238,"lng":36.236762,"addr":"","type":"place_of_worship"},{"id":"xx335310_362402","name":"مسجد الوزان","lat":33.53104,"lng":36.240196,"addr":"","type":"place_of_worship"},{"id":"xx335633_363238","name":"مسجد عمرو بن العاص","lat":33.563299,"lng":36.323794,"addr":"","type":"place_of_worship"},{"id":"xx335631_363209","name":"جامع ابراهيم الخليل","lat":33.563056,"lng":36.320894,"addr":"","type":"place_of_worship"},{"id":"xx335627_363186","name":"مسجد الرحمن","lat":33.562728,"lng":36.318581,"addr":"","type":"place_of_worship"},{"id":"xx335450_363338","name":"مسجد العمري","lat":33.544996,"lng":36.333789,"addr":"","type":"place_of_worship"},{"id":"xx335255_363066","name":"جامع الثناء","lat":33.525511,"lng":36.306637,"addr":"","type":"place_of_worship"},{"id":"xx335384_362432","name":"جامع دمر الكبير","lat":33.538413,"lng":36.243158,"addr":"","type":"place_of_worship"},{"id":"xx335465_363039","name":"جامع الانور المحمدية","lat":33.546501,"lng":36.303939,"addr":"","type":"place_of_worship"},{"id":"xx335426_363045","name":"جامع سعيد باشا","lat":33.542578,"lng":36.304455,"addr":"","type":"place_of_worship"},{"id":"xx335460_363022","name":"مسجد ابو دجانة الانصاري","lat":33.546006,"lng":36.302171,"addr":"","type":"place_of_worship"},{"id":"xx335432_363041","name":"جامع الكناني","lat":33.543213,"lng":36.304118,"addr":"","type":"place_of_worship"},{"id":"xx335376_363016","name":"جامع صلاح الدين","lat":33.53756,"lng":36.301599,"addr":"","type":"place_of_worship"},{"id":"xx335363_362972","name":"جامع حمو ليلا","lat":33.53625,"lng":36.29719,"addr":"","type":"place_of_worship"},{"id":"xx335379_362941","name":"جامع خالد بن الوليد","lat":33.53794,"lng":36.294099,"addr":"","type":"place_of_worship"},{"id":"xx335349_362919","name":"جامع الملا رمضان البوطي","lat":33.534929,"lng":36.291873,"addr":"","type":"place_of_worship"},{"id":"xx335300_362273","name":"جامع الابرار","lat":33.529957,"lng":36.227317,"addr":"","type":"place_of_worship"},{"id":"xx335318_362330","name":"جامع التقوى","lat":33.531808,"lng":36.233046,"addr":"","type":"place_of_worship"},{"id":"xx335357_362349","name":"مسجد خالد بن الوليد","lat":33.535728,"lng":36.234942,"addr":"","type":"place_of_worship"},{"id":"xx335482_363247","name":"الحسن","lat":33.54819,"lng":36.324666,"addr":"","type":"place_of_worship"},{"id":"xx335232_362123","name":"lمسجد الفرقان","lat":33.523182,"lng":36.212341,"addr":"","type":"place_of_worship"},{"id":"xx335408_363300","name":"مسجد دمشق الاسلامي","lat":33.540817,"lng":36.33005,"addr":"","type":"place_of_worship"},{"id":"xx335437_363363","name":"جامع ابو بكر الصديق","lat":33.543694,"lng":36.33625,"addr":"","type":"place_of_worship"},{"id":"xx335383_362187","name":"جامع الرحمن","lat":33.538321,"lng":36.218728,"addr":"","type":"place_of_worship"},{"id":"xx335409_363352","name":"جامع الحسن","lat":33.54094,"lng":36.335174,"addr":"","type":"place_of_worship"},{"id":"xx335710_362959","name":"مسجد علي بن أبي طالب","lat":33.570957,"lng":36.295903,"addr":"","type":"place_of_worship"},{"id":"xx335351_363344","name":"مسجد التقوى","lat":33.535071,"lng":36.334361,"addr":"","type":"place_of_worship"},{"id":"xx335368_363363","name":"جامع الرحمن","lat":33.536829,"lng":36.33632,"addr":"","type":"place_of_worship"},{"id":"xx335450_362151","name":"جامع عمر بن عبد العزيز","lat":33.545011,"lng":36.215091,"addr":"","type":"place_of_worship"},{"id":"xx335326_362909","name":"جامع سكر","lat":33.532622,"lng":36.290931,"addr":"","type":"place_of_worship"},{"id":"xx335337_362879","name":"مسجد الشيخ ابراهيم","lat":33.533668,"lng":36.287935,"addr":"","type":"place_of_worship"},{"id":"xx335328_362831","name":"جامع الزهراء","lat":33.532845,"lng":36.283096,"addr":"","type":"place_of_worship"},{"id":"xx335337_362845","name":"جامع الاتراك","lat":33.533725,"lng":36.284484,"addr":"","type":"place_of_worship"},{"id":"xx335323_362825","name":"مسجد وحسنية السيدة الزهراء","lat":33.53228,"lng":36.282532,"addr":"","type":"place_of_worship"},{"id":"xx335348_362862","name":"جامع التقوى","lat":33.53477,"lng":36.286161,"addr":"","type":"place_of_worship"},{"id":"xx335348_362880","name":"جامع سيدنا ابي بكر الصديق","lat":33.53482,"lng":36.287966,"addr":"","type":"place_of_worship"},{"id":"xx335363_362893","name":"جامع الاربعين","lat":33.536263,"lng":36.289328,"addr":"","type":"place_of_worship"},{"id":"xx335493_362131","name":"مسجد الهداية","lat":33.549338,"lng":36.213097,"addr":"","type":"place_of_worship"},{"id":"xx335304_362910","name":"جامع عبد الغني النابلسي","lat":33.530364,"lng":36.291041,"addr":"","type":"place_of_worship"},{"id":"xx335293_362894","name":"جامع الحاجبية","lat":33.529305,"lng":36.289364,"addr":"","type":"place_of_worship"},{"id":"xx335473_362216","name":"مسجد الأصيل","lat":33.547312,"lng":36.221609,"addr":"","type":"place_of_worship"},{"id":"xx335478_362206","name":"جامع المحمدي","lat":33.54782,"lng":36.220619,"addr":"","type":"place_of_worship"},{"id":"xx335541_362178","name":"مسجد الهداية","lat":33.554138,"lng":36.217817,"addr":"","type":"place_of_worship"},{"id":"xx335553_362191","name":"جامع الرحمن","lat":33.555262,"lng":36.219125,"addr":"","type":"place_of_worship"},{"id":"xx335468_362080","name":"مسجد الفيصل","lat":33.54677,"lng":36.207967,"addr":"","type":"place_of_worship"},{"id":"xx335446_361942","name":"مسجد الحبيب بن زيد الأنصاري","lat":33.544582,"lng":36.194218,"addr":"","type":"place_of_worship"},{"id":"xx335339_361888","name":"مسجد القدسي","lat":33.533916,"lng":36.188841,"addr":"","type":"place_of_worship"},{"id":"xx335417_361873","name":"مسجد عبد الله بن ناصر","lat":33.541719,"lng":36.18727,"addr":"","type":"place_of_worship"},{"id":"xx335339_361889","name":"مسجد القدسي","lat":33.533851,"lng":36.188875,"addr":"","type":"place_of_worship"},{"id":"xx335328_361824","name":"مسجد علي بن أبي طالب","lat":33.532827,"lng":36.182355,"addr":"","type":"place_of_worship"},{"id":"xx335343_361762","name":"مسجد الكزبري .","lat":33.53431,"lng":36.176244,"addr":"","type":"place_of_worship"},{"id":"xx334835_362968","name":"جامع القاعة","lat":33.483476,"lng":36.296792,"addr":"","type":"place_of_worship"},{"id":"xx335535_361388","name":"جامع حمزة","lat":33.553545,"lng":36.138809,"addr":"","type":"place_of_worship"},{"id":"xx334874_362983","name":"مسجد سعد بن زيد","lat":33.487438,"lng":36.298342,"addr":"","type":"place_of_worship"},{"id":"xx334936_362980","name":"جامع منجك","lat":33.493619,"lng":36.29795,"addr":"","type":"place_of_worship"},{"id":"xx334866_363003","name":"جامع غزوة بدر","lat":33.486608,"lng":36.300273,"addr":"","type":"place_of_worship"},{"id":"xx335684_361779","name":"مسجد ابو بكر الصديق","lat":33.568447,"lng":36.177887,"addr":"","type":"place_of_worship"},{"id":"xx335753_361905","name":"مسجد عمر بن الخطاب","lat":33.575253,"lng":36.190529,"addr":"","type":"place_of_worship"},{"id":"xx334959_362992","name":"مسجد الموصلي","lat":33.495885,"lng":36.299211,"addr":"","type":"place_of_worship"},{"id":"xx335888_363067","name":"مسجد عمر الفاروق","lat":33.588827,"lng":36.306742,"addr":"","type":"place_of_worship"},{"id":"xx336073_361924","name":"جامع عين الخضراء","lat":33.60727,"lng":36.19242,"addr":"","type":"place_of_worship"},{"id":"xx335154_361261","name":"جامع العمري","lat":33.515411,"lng":36.126124,"addr":"","type":"place_of_worship"},{"id":"xx335100_361250","name":"جامع الكريم","lat":33.509997,"lng":36.124984,"addr":"","type":"place_of_worship"},{"id":"xx336087_363098","name":"مسجد التل الكبير","lat":33.608688,"lng":36.309823,"addr":"","type":"place_of_worship"},{"id":"xx336106_363097","name":"مسجد الفردوس","lat":33.610552,"lng":36.309719,"addr":"","type":"place_of_worship"},{"id":"xx336046_363124","name":"جامع خالد بن الوليد","lat":33.604647,"lng":36.312365,"addr":"","type":"place_of_worship"},{"id":"xx335170_361062","name":"مدينة يعفور الجديدة","lat":33.517025,"lng":36.106169,"addr":"","type":"place_of_worship"},{"id":"xx335794_362960","name":"جامع عثمان بن عفان","lat":33.579386,"lng":36.296032,"addr":"","type":"place_of_worship"},{"id":"xx336110_363122","name":"مسجد الصحابة","lat":33.611006,"lng":36.312249,"addr":"","type":"place_of_worship"},{"id":"xx336120_363067","name":"مسجد الرحمن","lat":33.612044,"lng":36.306728,"addr":"","type":"place_of_worship"},{"id":"xx336127_363167","name":"جامع الحسنين","lat":33.612741,"lng":36.3167,"addr":"","type":"place_of_worship"},{"id":"xx336173_363139","name":"مسجد ابو بكر الصديق","lat":33.617315,"lng":36.313922,"addr":"","type":"place_of_worship"},{"id":"xx336090_363161","name":"جامع علي بن ابي طالب","lat":33.609023,"lng":36.316147,"addr":"","type":"place_of_worship"},{"id":"xx336109_363157","name":"جامع الرفاعي","lat":33.610918,"lng":36.315732,"addr":"","type":"place_of_worship"},{"id":"xx335953_363244","name":"جامع البدر","lat":33.595253,"lng":36.324432,"addr":"","type":"place_of_worship"},{"id":"xx335737_362921","name":"جامع الاسراء","lat":33.573714,"lng":36.292065,"addr":"","type":"place_of_worship"},{"id":"xx335067_363024","name":"جامع العجمي","lat":33.506688,"lng":36.302422,"addr":"","type":"place_of_worship"},{"id":"xx335078_363182","name":"جامع أبي بن كعب الأنصاري","lat":33.507835,"lng":36.318238,"addr":"","type":"place_of_worship"},{"id":"xx335078_363009","name":"جامع زاوية الهنود","lat":33.507839,"lng":36.300879,"addr":"","type":"place_of_worship"},{"id":"xx335033_363082","name":"جامع الإيمان","lat":33.503302,"lng":36.308242,"addr":"","type":"place_of_worship"},{"id":"xx335064_363041","name":"جامع الياغوشة","lat":33.506414,"lng":36.304095,"addr":"","type":"place_of_worship"},{"id":"xx334988_363014","name":"جامع عبد الله بن رواحة","lat":33.498813,"lng":36.301403,"addr":"","type":"place_of_worship"},{"id":"xx335126_363336","name":"جامع الدباغات","lat":33.512564,"lng":36.33361,"addr":"","type":"place_of_worship"},{"id":"xx334845_363714","name":"جامع عمر بن الخطاب","lat":33.484474,"lng":36.371435,"addr":"","type":"place_of_worship"},{"id":"xx335215_363314","name":"جامع العرفان","lat":33.521508,"lng":36.33145,"addr":"","type":"place_of_worship"},{"id":"xx334822_363711","name":"مسجد سيدنا الخضر","lat":33.482246,"lng":36.371077,"addr":"","type":"place_of_worship"},{"id":"xx334828_363712","name":"جامع معاذ بن جبل","lat":33.482759,"lng":36.371215,"addr":"","type":"place_of_worship"},{"id":"xx334858_363674","name":"جامع خالد بن الوليد","lat":33.485841,"lng":36.367359,"addr":"","type":"place_of_worship"},{"id":"xx334887_363713","name":"مسجد الحسن","lat":33.488691,"lng":36.371296,"addr":"","type":"place_of_worship"},{"id":"xx335190_363532","name":"جامع خالد ابن الوليد","lat":33.518951,"lng":36.353195,"addr":"","type":"place_of_worship"},{"id":"xx335153_363651","name":"جامع سيدنا ابي بكر الصديق","lat":33.515294,"lng":36.365088,"addr":"","type":"place_of_worship"},{"id":"xx335133_363562","name":"جامع الهدى","lat":33.513286,"lng":36.356223,"addr":"","type":"place_of_worship"},{"id":"xx335097_363733","name":"جامع الرحمان","lat":33.509692,"lng":36.373341,"addr":"","type":"place_of_worship"},{"id":"xx335093_363701","name":"جامع الحمد والرضا","lat":33.509263,"lng":36.370147,"addr":"","type":"place_of_worship"},{"id":"xx334889_363235","name":"مسجد الفتح","lat":33.488899,"lng":36.323496,"addr":"","type":"place_of_worship"},{"id":"xx334844_363231","name":"مسجد شهداء الأقصى","lat":33.484423,"lng":36.323093,"addr":"","type":"place_of_worship"},{"id":"xx334998_363304","name":"جامع إبراهيم الخليل","lat":33.499782,"lng":36.330422,"addr":"","type":"place_of_worship"},{"id":"xx334998_363274","name":"جامع البراء بن عازب","lat":33.499789,"lng":36.327428,"addr":"","type":"place_of_worship"},{"id":"xx334895_363184","name":"جامع التوحيد","lat":33.489501,"lng":36.318417,"addr":"","type":"place_of_worship"},{"id":"xx335031_363282","name":"جامع الهدى","lat":33.503083,"lng":36.328209,"addr":"","type":"place_of_worship"},{"id":"xx334315_361558","name":"جامع الرجاء","lat":33.43151,"lng":36.155796,"addr":"","type":"place_of_worship"},{"id":"xx334326_361686","name":"جامع السيدة خديجة","lat":33.432588,"lng":36.168613,"addr":"","type":"place_of_worship"},{"id":"xx334350_361699","name":"جامع العمري","lat":33.434978,"lng":36.169923,"addr":"","type":"place_of_worship"},{"id":"xx335002_363349","name":"جامع عبدالله بن عمر","lat":33.500165,"lng":36.334933,"addr":"","type":"place_of_worship"},{"id":"xx334128_361504","name":"مسجد الفضل بن العباس","lat":33.412765,"lng":36.150384,"addr":"","type":"place_of_worship"},{"id":"xx334452_361471","name":"جامع البطل صلاح الدين","lat":33.44519,"lng":36.147104,"addr":"","type":"place_of_worship"},{"id":"xx334248_361425","name":"جامع الامام النووي","lat":33.424783,"lng":36.14253,"addr":"","type":"place_of_worship"},{"id":"xx334779_362996","name":"مسجد النعمان ابن مقرن المزني","lat":33.47791,"lng":36.299631,"addr":"","type":"place_of_worship"},{"id":"xx334615_363205","name":"مسجد الصابرين","lat":33.461496,"lng":36.320527,"addr":"","type":"place_of_worship"},{"id":"xx334780_363004","name":"جامع الحبيب المصطفى","lat":33.478031,"lng":36.30044,"addr":"","type":"place_of_worship"},{"id":"xx334742_363000","name":"جامع زيد ابن ثابت","lat":33.474181,"lng":36.300014,"addr":"","type":"place_of_worship"},{"id":"xx334655_363223","name":"مسجد الامام الغزالي","lat":33.465489,"lng":36.322304,"addr":"","type":"place_of_worship"},{"id":"xx334645_363199","name":"جامع أمهات المؤمنين","lat":33.464509,"lng":36.319906,"addr":"","type":"place_of_worship"},{"id":"xx334692_363289","name":"جامع ببيلا الكبير","lat":33.469175,"lng":36.328878,"addr":"","type":"place_of_worship"},{"id":"xx334692_363042","name":"مسجد الحسن","lat":33.469183,"lng":36.30417,"addr":"","type":"place_of_worship"},{"id":"xx334672_363309","name":"مسجد سيدنا علي بن أبي طالب","lat":33.467198,"lng":36.330859,"addr":"","type":"place_of_worship"},{"id":"xx334641_363234","name":"جامع يلدا الكبير","lat":33.464072,"lng":36.323382,"addr":"","type":"place_of_worship"},{"id":"xx334735_363249","name":"جامع سيف","lat":33.473508,"lng":36.324926,"addr":"","type":"place_of_worship"},{"id":"xx334788_363146","name":"جامع عثمان بن عفان","lat":33.4788,"lng":36.314626,"addr":"","type":"place_of_worship"},{"id":"xx334768_363071","name":"جامع سلمان الفارسي","lat":33.476762,"lng":36.307093,"addr":"","type":"place_of_worship"},{"id":"xx334752_363113","name":"عثمان بن عفان","lat":33.475162,"lng":36.311253,"addr":"","type":"place_of_worship"},{"id":"xx334610_362453","name":"جامع الخلفاء الراشدين","lat":33.461049,"lng":36.245316,"addr":"","type":"place_of_worship"},{"id":"xx334821_363139","name":"جامع سعد بن الربيع","lat":33.482084,"lng":36.313909,"addr":"","type":"place_of_worship"},{"id":"xx334785_363026","name":"جامع الرجولة","lat":33.478513,"lng":36.302594,"addr":"","type":"place_of_worship"},{"id":"xx334811_363016","name":"جامع البشير","lat":33.481057,"lng":36.30161,"addr":"","type":"place_of_worship"},{"id":"xx334563_362401","name":"جامع الأنصار","lat":33.456334,"lng":36.240085,"addr":"","type":"place_of_worship"},{"id":"xx334755_363038","name":"جامع صلاح الدين","lat":33.475459,"lng":36.303777,"addr":"","type":"place_of_worship"},{"id":"xx334820_363078","name":"أبو ذر الغفاري","lat":33.482,"lng":36.30778,"addr":"","type":"place_of_worship"},{"id":"xx334429_362931","name":"جامع العدنان","lat":33.442934,"lng":36.293105,"addr":"","type":"place_of_worship"},{"id":"xx334350_362993","name":"مسجد الفتح","lat":33.434956,"lng":36.299314,"addr":"","type":"place_of_worship"},{"id":"xx334375_363018","name":"مسجد الحسن","lat":33.437462,"lng":36.301775,"addr":"","type":"place_of_worship"},{"id":"xx334617_362412","name":"مسجد ومجمع أبي مسلم الخولاني الجديد","lat":33.461703,"lng":36.241236,"addr":"","type":"place_of_worship"},{"id":"xx334423_362811","name":"جامع العلامة الشيخ المربي حسن زكريا","lat":33.442345,"lng":36.281103,"addr":"","type":"place_of_worship"},{"id":"xx334575_362397","name":"جامع داريا الكبير","lat":33.457515,"lng":36.23974,"addr":"","type":"place_of_worship"},{"id":"xx334357_362858","name":"جامع الفلاحين","lat":33.435684,"lng":36.285786,"addr":"","type":"place_of_worship"},{"id":"xx334658_362396","name":"جامع سعد بن معاذ","lat":33.465831,"lng":36.239624,"addr":"","type":"place_of_worship"},{"id":"xx334489_362288","name":"جامع نور الدين الشهيد","lat":33.448879,"lng":36.22879,"addr":"","type":"place_of_worship"},{"id":"xx334581_362372","name":"جامع عمر بن عبد العزيز","lat":33.458078,"lng":36.237228,"addr":"","type":"place_of_worship"},{"id":"xx334651_362462","name":"جامع عثمان بن عفان","lat":33.465108,"lng":36.246151,"addr":"","type":"place_of_worship"},{"id":"xx334615_362407","name":"جامع ومقام التابعي أبو مسلم الخولاني","lat":33.461517,"lng":36.240692,"addr":"","type":"place_of_worship"},{"id":"xx334481_362412","name":"مسجد صلاح الدين","lat":33.448133,"lng":36.241198,"addr":"","type":"place_of_worship"},{"id":"xx334491_362181","name":"مسجد أبو بكر الصديق","lat":33.449132,"lng":36.218119,"addr":"","type":"place_of_worship"},{"id":"xx334610_362231","name":"جامع السمح","lat":33.461009,"lng":36.223079,"addr":"","type":"place_of_worship"},{"id":"xx334602_362280","name":"جامع أسامة بن زيد","lat":33.460235,"lng":36.22797,"addr":"","type":"place_of_worship"},{"id":"xx335170_362917","name":"جامع الاسعاف الخيري","lat":33.517024,"lng":36.291661,"addr":"","type":"place_of_worship"},{"id":"xx335144_362932","name":"مقام الأمير عز الدين أيبك المعظمي","lat":33.514373,"lng":36.293246,"addr":"","type":"place_of_worship"},{"id":"xx335034_362780","name":"جامع عثمان بن عفان","lat":33.503425,"lng":36.278002,"addr":"","type":"place_of_worship"},{"id":"xx334892_362672","name":"جامع علي بن أبي طالب","lat":33.48922,"lng":36.26722,"addr":"","type":"place_of_worship"},{"id":"xx334914_362810","name":"جامع عمر بن الخطاب","lat":33.491356,"lng":36.280977,"addr":"","type":"place_of_worship"},{"id":"xx334883_362707","name":"جامع عمران بن الحصين","lat":33.488315,"lng":36.270687,"addr":"","type":"place_of_worship"},{"id":"xx334893_362598","name":"جامع أبو بكر الصديق","lat":33.489276,"lng":36.259793,"addr":"","type":"place_of_worship"},{"id":"xx334700_362710","name":"جامع السلام","lat":33.470012,"lng":36.271045,"addr":"","type":"place_of_worship"},{"id":"xx334848_362609","name":"جامع السلطان محمد الفاتح","lat":33.484798,"lng":36.260923,"addr":"","type":"place_of_worship"},{"id":"xx334215_362291","name":"جامع الشيخ محمد امين سويد","lat":33.421502,"lng":36.229139,"addr":"","type":"place_of_worship"},{"id":"xx334214_362576","name":"مسجد الرحمن","lat":33.42138,"lng":36.257622,"addr":"","type":"place_of_worship"},{"id":"xx334223_362553","name":"مسجد الصلاح","lat":33.422257,"lng":36.255262,"addr":"","type":"place_of_worship"},{"id":"xx347297_367494","name":"مسجد الحسين بن علي","lat":34.729702,"lng":36.749446,"addr":"","type":"place_of_worship"},{"id":"xx347312_367456","name":"مسجد الرحمن","lat":34.731227,"lng":36.745623,"addr":"","type":"place_of_worship"},{"id":"xx347461_367399","name":"مسجد الأمين","lat":34.746124,"lng":36.739945,"addr":"","type":"place_of_worship"},{"id":"xx347622_367610","name":"مسجد مطور الشعباني","lat":34.762221,"lng":36.760953,"addr":"","type":"place_of_worship"},{"id":"xx347525_367444","name":"جامع أبو بكر الصديق","lat":34.752519,"lng":36.744448,"addr":"","type":"place_of_worship"},{"id":"xx347597_367585","name":"مسجد عثمان ابن عفان رضي الله عنه","lat":34.759712,"lng":36.758522,"addr":"","type":"place_of_worship"},{"id":"xx347634_367407","name":"مسجد الخير","lat":34.763417,"lng":36.740689,"addr":"","type":"place_of_worship"},{"id":"xx347559_367453","name":"جامع عمر بن الخطاب","lat":34.755914,"lng":36.745319,"addr":"","type":"place_of_worship"},{"id":"xx347603_367436","name":"مسجد حمزة بن عبد المطلب","lat":34.760263,"lng":36.743568,"addr":"","type":"place_of_worship"},{"id":"xx347577_367387","name":"جامع حذيفة بن اليمان","lat":34.757655,"lng":36.738698,"addr":"","type":"place_of_worship"},{"id":"xx347440_367279","name":"جامع زيد بن ثابت","lat":34.744022,"lng":36.727918,"addr":"","type":"place_of_worship"},{"id":"xx347499_367358","name":"مسجد علي بن أبي طالب","lat":34.74986,"lng":36.735843,"addr":"","type":"place_of_worship"},{"id":"xx347473_367294","name":"جامع هاشم السبسبي الرفاعي","lat":34.747272,"lng":36.729373,"addr":"","type":"place_of_worship"},{"id":"xx347440_367324","name":"مسجد فاطمة الزهراء","lat":34.743982,"lng":36.732436,"addr":"","type":"place_of_worship"},{"id":"xx347403_367281","name":"جامع الرحمة","lat":34.740342,"lng":36.72811,"addr":"","type":"place_of_worship"},{"id":"xx346627_367335","name":"مسجد خديجة الكبرى","lat":34.662713,"lng":36.733519,"addr":"","type":"place_of_worship"},{"id":"xx347155_367455","name":"جامع البدر","lat":34.715451,"lng":36.745459,"addr":"","type":"place_of_worship"},{"id":"xx346564_367605","name":"جامع غزالة","lat":34.656368,"lng":36.760526,"addr":"","type":"place_of_worship"},{"id":"xx347100_367448","name":"مسجد حمزة","lat":34.709961,"lng":36.744846,"addr":"","type":"place_of_worship"},{"id":"xx347167_367433","name":"جامع البراء بن مالك","lat":34.716719,"lng":36.743261,"addr":"","type":"place_of_worship"},{"id":"xx346661_367072","name":"مسجد علي بن أبي طالب","lat":34.666072,"lng":36.707228,"addr":"","type":"place_of_worship"},{"id":"xx347171_367277","name":"مسجد رياض الصالحين","lat":34.717118,"lng":36.727672,"addr":"","type":"place_of_worship"},{"id":"xx347095_367329","name":"مسجد الإمام أحمد الرفاعي","lat":34.709501,"lng":36.732918,"addr":"","type":"place_of_worship"},{"id":"xx347238_367325","name":"جامع ومقام الخليفة عمر بن عبدالعزيز","lat":34.723836,"lng":36.732544,"addr":"","type":"place_of_worship"},{"id":"xx347652_367232","name":"جامع معاوية بن أبي سفيان","lat":34.765169,"lng":36.723177,"addr":"","type":"place_of_worship"},{"id":"xx347027_367277","name":"جامع الامام علي كرم الله وجهه","lat":34.702703,"lng":36.727724,"addr":"","type":"place_of_worship"},{"id":"xx347142_367299","name":"جامع الانصار","lat":34.714212,"lng":36.729946,"addr":"","type":"place_of_worship"},{"id":"xx347176_367378","name":"مسجد إبراهيم الدسوقي","lat":34.71764,"lng":36.737792,"addr":"","type":"place_of_worship"},{"id":"xx347153_367357","name":"مسجد سعيد بن عامر رضي الله عنه","lat":34.715266,"lng":36.735741,"addr":"","type":"place_of_worship"},{"id":"xx347185_367312","name":"جامع الخضر","lat":34.718469,"lng":36.731245,"addr":"","type":"place_of_worship"},{"id":"xx347644_367570","name":"مسجد أبو الحسن الشاذلي","lat":34.764362,"lng":36.757038,"addr":"","type":"place_of_worship"},{"id":"xx347513_367328","name":"مسجد زيد بن الخطاب","lat":34.751343,"lng":36.732793,"addr":"","type":"place_of_worship"},{"id":"xx347680_367254","name":"مسجد الامام علي بن أبي طالب","lat":34.767961,"lng":36.725374,"addr":"","type":"place_of_worship"},{"id":"xx347550_367330","name":"جامع الإمام النووي","lat":34.755025,"lng":36.732972,"addr":"","type":"place_of_worship"},{"id":"xx347456_367240","name":"مسجد عبد الرحمن بن عوف","lat":34.745624,"lng":36.723979,"addr":"","type":"place_of_worship"},{"id":"xx347501_367254","name":"مسجد عبد الرحمن بن عوف","lat":34.750148,"lng":36.725403,"addr":"","type":"place_of_worship"},{"id":"xx347419_367336","name":"جامع الحسين بن علي","lat":34.74186,"lng":36.733623,"addr":"","type":"place_of_worship"},{"id":"xx347486_367204","name":"جامع عبد المجيد عبد الحفيظ الدروبي","lat":34.748587,"lng":36.720358,"addr":"","type":"place_of_worship"},{"id":"xx347375_367265","name":"جامع طوزقلي","lat":34.737466,"lng":36.726481,"addr":"","type":"place_of_worship"},{"id":"xx347360_367261","name":"جامع المصطفى","lat":34.735995,"lng":36.726112,"addr":"","type":"place_of_worship"},{"id":"xx347277_367249","name":"مسجد عمر الأشرف","lat":34.727708,"lng":36.724912,"addr":"","type":"place_of_worship"},{"id":"xx347291_367175","name":"مسجد الدمل","lat":34.729103,"lng":36.717481,"addr":"","type":"place_of_worship"},{"id":"xx347269_367192","name":"مسجد ذي الكلاع الحميري","lat":34.726899,"lng":36.719191,"addr":"","type":"place_of_worship"},{"id":"xx347270_367177","name":"مسجد ومقام الملك المجاهد","lat":34.726996,"lng":36.717656,"addr":"","type":"place_of_worship"},{"id":"xx347264_367225","name":"جامع الشيخ صخر","lat":34.726398,"lng":36.722482,"addr":"","type":"place_of_worship"},{"id":"xx347220_367227","name":"جامع المريجة","lat":34.721982,"lng":36.722656,"addr":"","type":"place_of_worship"},{"id":"xx347207_367198","name":"صيدلية رنا ابراهيم","lat":34.720651,"lng":36.719813,"addr":"","type":"place_of_worship"},{"id":"xx347243_367189","name":"مسجد عبد الله المغربي","lat":34.724298,"lng":36.718899,"addr":"","type":"place_of_worship"},{"id":"xx347209_367178","name":"جامع ابو العوف","lat":34.720946,"lng":36.717836,"addr":"","type":"place_of_worship"},{"id":"xx347279_367231","name":"جامع العصياتي","lat":34.727914,"lng":36.723076,"addr":"","type":"place_of_worship"},{"id":"xx347237_367209","name":"جامع الشيخ سعد","lat":34.723668,"lng":36.720938,"addr":"","type":"place_of_worship"},{"id":"xx347184_367242","name":"جامع العدوية","lat":34.718396,"lng":36.724151,"addr":"","type":"place_of_worship"},{"id":"xx347258_367224","name":"مسجد عمر النبهان","lat":34.725831,"lng":36.722359,"addr":"","type":"place_of_worship"},{"id":"xx347291_367205","name":"جامع الفضائل","lat":34.729061,"lng":36.720506,"addr":"","type":"place_of_worship"},{"id":"xx347269_367250","name":"مسجد الشيخ مسعود","lat":34.726886,"lng":36.724952,"addr":"","type":"place_of_worship"},{"id":"xx347246_367123","name":"مسجد باب التركمان","lat":34.724586,"lng":36.712306,"addr":"","type":"place_of_worship"},{"id":"xx347255_367140","name":"مسجد القدم","lat":34.72553,"lng":36.714012,"addr":"","type":"place_of_worship"},{"id":"xx347232_367120","name":"مسجد الاتاسي","lat":34.723228,"lng":36.712017,"addr":"","type":"place_of_worship"},{"id":"xx347276_367121","name":"مسجد عبدالله بن مسعود","lat":34.727611,"lng":36.71207,"addr":"","type":"place_of_worship"},{"id":"xx347373_367109","name":"مسجد الفتح","lat":34.737283,"lng":36.710901,"addr":"","type":"place_of_worship"},{"id":"xx347262_367158","name":"جامع الصوفي","lat":34.726174,"lng":36.715793,"addr":"","type":"place_of_worship"},{"id":"xx347279_367167","name":"مسجد العنابة","lat":34.727858,"lng":36.716705,"addr":"","type":"place_of_worship"},{"id":"xx347277_367151","name":"جامع الشيخ موسى","lat":34.727743,"lng":36.71515,"addr":"","type":"place_of_worship"},{"id":"xx347217_367084","name":"جامع الإخلاص","lat":34.721738,"lng":36.708358,"addr":"","type":"place_of_worship"},{"id":"xx347390_367137","name":"جامع عباس","lat":34.739038,"lng":36.713744,"addr":"","type":"place_of_worship"},{"id":"xx347445_367087","name":"جامع التوحيد","lat":34.744451,"lng":36.708661,"addr":"","type":"place_of_worship"},{"id":"xx347090_367090","name":"جامع الأمين","lat":34.709047,"lng":36.708967,"addr":"","type":"place_of_worship"},{"id":"xx347001_367095","name":"مسجد الخطيب","lat":34.70015,"lng":36.70955,"addr":"","type":"place_of_worship"},{"id":"xx347454_367080","name":"جامع سوق الهال","lat":34.745352,"lng":36.707954,"addr":"","type":"place_of_worship"},{"id":"xx347031_367105","name":"أبو هريرة عبد الرحمن بن صخر الدوسي","lat":34.703136,"lng":36.710509,"addr":"","type":"place_of_worship"},{"id":"xx346955_367042","name":"مسجد الحبيب المصطفى","lat":34.695539,"lng":36.704212,"addr":"","type":"place_of_worship"},{"id":"xx346984_366956","name":"جامع سعد بن عامر الجميحي","lat":34.698352,"lng":36.695609,"addr":"","type":"place_of_worship"},{"id":"xx347577_367136","name":"مسجد البيرقدار","lat":34.757746,"lng":36.71364,"addr":"","type":"place_of_worship"},{"id":"xx347569_367033","name":"جامع الطيار","lat":34.756856,"lng":36.70332,"addr":"","type":"place_of_worship"},{"id":"xx347498_367132","name":"جامع عباد الرحمن","lat":34.749752,"lng":36.713164,"addr":"","type":"place_of_worship"},{"id":"xx347463_367132","name":"مسجد حمود الناصر","lat":34.746289,"lng":36.713236,"addr":"","type":"place_of_worship"},{"id":"xx347478_367233","name":"جامع عثمان بن عفان","lat":34.747831,"lng":36.723293,"addr":"","type":"place_of_worship"},{"id":"xx347555_367096","name":"جامع السيدة عائشة","lat":34.755481,"lng":36.709556,"addr":"","type":"place_of_worship"},{"id":"xx347270_367281","name":"جامع البر","lat":34.727029,"lng":36.728105,"addr":"","type":"place_of_worship"},{"id":"xx347431_367159","name":"مسجد أنس بن مالك","lat":34.743101,"lng":36.71591,"addr":"","type":"place_of_worship"},{"id":"xx347417_367180","name":"جامع التقوى","lat":34.741705,"lng":36.718044,"addr":"","type":"place_of_worship"},{"id":"xx347399_367197","name":"مسجد الغفران","lat":34.739894,"lng":36.719687,"addr":"","type":"place_of_worship"},{"id":"xx347368_367208","name":"جامع النور","lat":34.736837,"lng":36.72081,"addr":"","type":"place_of_worship"},{"id":"xx347409_367159","name":"مسجد دار القرأن","lat":34.740863,"lng":36.715868,"addr":"","type":"place_of_worship"},{"id":"xx347347_367179","name":"جامع المأمون","lat":34.734748,"lng":36.717862,"addr":"","type":"place_of_worship"},{"id":"xx347302_367191","name":"مسجد الاوزاعي","lat":34.730207,"lng":36.719079,"addr":"","type":"place_of_worship"},{"id":"xx347297_367175","name":"مسجد الحسنين","lat":34.729746,"lng":36.717483,"addr":"","type":"place_of_worship"},{"id":"xx347312_367229","name":"جامع الصحابي عكاشة بن محصن الأسدي رضي الله عنه","lat":34.731208,"lng":36.722882,"addr":"","type":"place_of_worship"},{"id":"xx347291_367227","name":"جامع الصحن","lat":34.729069,"lng":36.722651,"addr":"","type":"place_of_worship"},{"id":"xx347302_367205","name":"مسجد الشيخ موسى الزهراوي","lat":34.730246,"lng":36.720493,"addr":"","type":"place_of_worship"},{"id":"xx347296_367167","name":"مسجد أبو الهول","lat":34.729625,"lng":36.71669,"addr":"","type":"place_of_worship"},{"id":"xx347294_367188","name":"مسجد ابي للعيناء","lat":34.729435,"lng":36.718775,"addr":"","type":"place_of_worship"},{"id":"xx347295_367245","name":"مسجد الشيخ قاسم اتاسي","lat":34.729548,"lng":36.724526,"addr":"","type":"place_of_worship"},{"id":"xx347302_367221","name":"مسجد الشيخ ناصر طليمات","lat":34.730195,"lng":36.722056,"addr":"","type":"place_of_worship"},{"id":"xx347310_367241","name":"مسجد أبو ذر الغفاري","lat":34.731035,"lng":36.724081,"addr":"","type":"place_of_worship"},{"id":"xx347307_367251","name":"مسجد الشيخ عنين","lat":34.730659,"lng":36.725067,"addr":"","type":"place_of_worship"},{"id":"xx347261_367234","name":"جامع السرو","lat":34.726065,"lng":36.723354,"addr":"","type":"place_of_worship"},{"id":"xx347269_367197","name":"جامع جمال الدين","lat":34.72691,"lng":36.719669,"addr":"","type":"place_of_worship"},{"id":"xx347260_367198","name":"جامع الشيخ كامل المغربي","lat":34.725977,"lng":36.71979,"addr":"","type":"place_of_worship"},{"id":"xx347389_366752","name":"جامع الرئيس","lat":34.738949,"lng":36.675205,"addr":"","type":"place_of_worship"},{"id":"xx347233_366251","name":"مسجد الإمام علي زين العابدين (ع)","lat":34.723292,"lng":36.625111,"addr":"","type":"place_of_worship"},{"id":"xx347344_366629","name":"مسجد الرسول الأعظم","lat":34.7344,"lng":36.662913,"addr":"","type":"place_of_worship"},{"id":"xx346637_366682","name":"مسجد النقيرة","lat":34.663652,"lng":36.668194,"addr":"","type":"place_of_worship"},{"id":"xx346900_366571","name":"جامع بلال الحبشي","lat":34.689966,"lng":36.657109,"addr":"","type":"place_of_worship"},{"id":"xx347426_366659","name":"جامع العز بن عبد السلام","lat":34.742635,"lng":36.665899,"addr":"","type":"place_of_worship"},{"id":"xx347327_366590","name":"مسجد أبو حذيفة النعمان","lat":34.732709,"lng":36.658976,"addr":"","type":"place_of_worship"},{"id":"xx346968_366752","name":"مسجد العباس","lat":34.696789,"lng":36.675169,"addr":"","type":"place_of_worship"},{"id":"xx346870_366696","name":"مسجد ابو بكر الصديق","lat":34.686972,"lng":36.669617,"addr":"","type":"place_of_worship"},{"id":"xx346968_366799","name":"جامع سلطان العلماء العز بن عبد السلام","lat":34.696828,"lng":36.67987,"addr":"","type":"place_of_worship"},{"id":"xx347446_366795","name":"جامع الميتم","lat":34.744638,"lng":36.679522,"addr":"","type":"place_of_worship"},{"id":"xx347019_366829","name":"جامع البيطار","lat":34.70187,"lng":36.682932,"addr":"","type":"place_of_worship"},{"id":"xx347509_367263","name":"مسجد التيسير","lat":34.750915,"lng":36.726331,"addr":"","type":"place_of_worship"},{"id":"xx347487_366942","name":"مسجد الشهداء","lat":34.748671,"lng":36.694221,"addr":"","type":"place_of_worship"},{"id":"xx347444_366832","name":"جامع الروضة","lat":34.744401,"lng":36.683186,"addr":"","type":"place_of_worship"},{"id":"xx347576_367187","name":"مسجد المركز الزطني للمتميزين","lat":34.757627,"lng":36.718673,"addr":"","type":"place_of_worship"},{"id":"xx347194_366960","name":"جامع قباء","lat":34.719435,"lng":36.696027,"addr":"","type":"place_of_worship"},{"id":"xx347125_366880","name":"مسجد باباعمرو","lat":34.7125,"lng":36.688,"addr":"","type":"place_of_worship"},{"id":"xx347190_366922","name":"جامع الوفائي","lat":34.71902,"lng":36.6922,"addr":"","type":"place_of_worship"},{"id":"xx347152_366918","name":"جامع السمان","lat":34.715213,"lng":36.691776,"addr":"","type":"place_of_worship"},{"id":"xx347058_366888","name":"مسجد حمزة بن عبد المطلب رضي الله عنه","lat":34.705755,"lng":36.688758,"addr":"","type":"place_of_worship"},{"id":"xx347157_366967","name":"مسجد مصعب بن عمير","lat":34.715667,"lng":36.696689,"addr":"","type":"place_of_worship"},{"id":"xx347236_366980","name":"جامع الفردوس","lat":34.723613,"lng":36.698002,"addr":"","type":"place_of_worship"},{"id":"xx347097_366922","name":"مسجد عبدالله بن الزبير","lat":34.709691,"lng":36.692167,"addr":"","type":"place_of_worship"},{"id":"xx346798_366544","name":"جامع الشيخ محمود جنيد","lat":34.679839,"lng":36.654414,"addr":"","type":"place_of_worship"},{"id":"xx347131_366968","name":"جامع الأنوار","lat":34.713051,"lng":36.696844,"addr":"","type":"place_of_worship"},{"id":"xx346772_366398","name":"مسجد الإيمان","lat":34.677219,"lng":36.639834,"addr":"","type":"place_of_worship"},{"id":"xx347017_367172","name":"الإمام مسلم","lat":34.701679,"lng":36.717194,"addr":"","type":"place_of_worship"},{"id":"xx347191_367285","name":"مسجد عقبة بن نافع","lat":34.719104,"lng":36.728531,"addr":"","type":"place_of_worship"},{"id":"xx347171_367307","name":"مسجد أبو عبيدة بن الجراح","lat":34.717118,"lng":36.730743,"addr":"","type":"place_of_worship"},{"id":"xx347275_367308","name":"مسجد الحمد","lat":34.727526,"lng":36.730803,"addr":"","type":"place_of_worship"},{"id":"xx347237_367326","name":"جامع ومقام الخليفة عمر بن عبدالعزيز","lat":34.723653,"lng":36.732558,"addr":"","type":"place_of_worship"},{"id":"xx347298_367279","name":"جامع الهدى","lat":34.729774,"lng":36.727894,"addr":"","type":"place_of_worship"},{"id":"xx347217_367390","name":"مسجد الشيخ محمود جنيد","lat":34.72174,"lng":36.739047,"addr":"","type":"place_of_worship"},{"id":"xx348977_358773","name":"Mansour Mosque جامع المنصور","lat":34.897692,"lng":35.877339,"addr":"","type":"place_of_worship"},{"id":"xx348931_358764","name":"المسجد العمري","lat":34.893095,"lng":35.876401,"addr":"","type":"place_of_worship"},{"id":"xx348943_358762","name":"مسجد أبو بكر الصديق","lat":34.894329,"lng":35.876165,"addr":"","type":"place_of_worship"},{"id":"xx348917_358767","name":"جامع السلام","lat":34.891697,"lng":35.876733,"addr":"","type":"place_of_worship"},{"id":"xx349032_358836","name":"جامع السيدة خديجة","lat":34.903173,"lng":35.883597,"addr":"","type":"place_of_worship"},{"id":"xx348958_358758","name":"الشيخ ابراهيم الطرطوسي","lat":34.895806,"lng":35.875826,"addr":"","type":"place_of_worship"},{"id":"xx348856_358807","name":"جامع الإمام علي بن أبي طالب","lat":34.885626,"lng":35.880738,"addr":"","type":"place_of_worship"},{"id":"xx348962_359004","name":"جامع المصطفى","lat":34.896248,"lng":35.900387,"addr":"","type":"place_of_worship"},{"id":"xx349023_358981","name":"مسجد المنى","lat":34.902319,"lng":35.898052,"addr":"","type":"place_of_worship"},{"id":"xx348930_358835","name":"جامع النجاح","lat":34.892968,"lng":35.88349,"addr":"","type":"place_of_worship"},{"id":"xx348793_358909","name":"مسجد الإمام الحسين عليه السلام","lat":34.879295,"lng":35.890945,"addr":"","type":"place_of_worship"},{"id":"xx347625_359370","name":"مسجد الاية البحرية","lat":34.762535,"lng":35.937038,"addr":"","type":"place_of_worship"},{"id":"xx348958_358850","name":"مسجد المنيرة","lat":34.895815,"lng":35.884981,"addr":"","type":"place_of_worship"},{"id":"xx348646_358942","name":"جامع أرواد","lat":34.864591,"lng":35.894224,"addr":"","type":"place_of_worship"},{"id":"xx337399_366043","name":"جامع سنان باشا","lat":33.739945,"lng":36.604281,"addr":"","type":"place_of_worship"},{"id":"xx337365_365990","name":"جامع عمر بن الخطاب","lat":33.736516,"lng":36.599028,"addr":"","type":"place_of_worship"},{"id":"xx337340_366017","name":"جامع","lat":33.734001,"lng":36.601659,"addr":"","type":"place_of_worship"},{"id":"xx337358_366018","name":"جامع المدينة","lat":33.735766,"lng":36.601763,"addr":"","type":"place_of_worship"},{"id":"xx337370_366035","name":"جامع الهدى","lat":33.736989,"lng":36.603512,"addr":"","type":"place_of_worship"},{"id":"xx337378_366053","name":"جامع علي","lat":33.737835,"lng":36.605348,"addr":"","type":"place_of_worship"},{"id":"xx337347_365925","name":"جامع أبو بكر","lat":33.734672,"lng":36.592486,"addr":"","type":"place_of_worship"},{"id":"xx347864_363911","name":"مقام السلطان أحمد الديلمي","lat":34.786395,"lng":36.391074,"addr":"","type":"place_of_worship"},{"id":"xx347876_363922","name":"مقام الشيخ يعقوب الحسن","lat":34.787551,"lng":36.392198,"addr":"","type":"place_of_worship"},{"id":"xx335101_363066","name":"جامع الجوزية","lat":33.510143,"lng":36.306565,"addr":"","type":"place_of_worship"},{"id":"xx335116_363109","name":"جامع فتحي","lat":33.511631,"lng":36.310894,"addr":"","type":"place_of_worship"},{"id":"xx335047_362749","name":"مدرسة","lat":33.504735,"lng":36.274907,"addr":"شارع 17 نيسان","type":"place_of_worship"},{"id":"xx336071_364715","name":"Islamic place","lat":33.607132,"lng":36.471543,"addr":"","type":"place_of_worship"},{"id":"xx335094_363161","name":"جامع العريشة","lat":33.509373,"lng":36.316106,"addr":"","type":"place_of_worship"},{"id":"xx335093_363116","name":"المآذنة البيضاء","lat":33.509286,"lng":36.311622,"addr":"","type":"place_of_worship"},{"id":"xx347782_364304","name":"Islamic place","lat":34.77824,"lng":36.430444,"addr":"","type":"place_of_worship"},{"id":"xx346804_368579","name":"جامع القرية","lat":34.680447,"lng":36.857944,"addr":"","type":"place_of_worship"},{"id":"xx346817_368600","name":"حسينية آل كاظم","lat":34.681684,"lng":36.859999,"addr":"","type":"place_of_worship"},{"id":"xx337764_365023","name":"الجامع الكبير","lat":33.776434,"lng":36.502287,"addr":"","type":"place_of_worship"},{"id":"xx335139_363082","name":"مسجد الحمزاوي","lat":33.513893,"lng":36.308177,"addr":"","type":"place_of_worship"},{"id":"xx334366_362741","name":"Islamic place","lat":33.436605,"lng":36.274076,"addr":"","type":"place_of_worship"},{"id":"xx334425_360795","name":"مسجد مريم بنت عمران","lat":33.442509,"lng":36.079469,"addr":"","type":"place_of_worship"},{"id":"xx334393_360781","name":"مسجد القادري","lat":33.439291,"lng":36.078112,"addr":"","type":"place_of_worship"},{"id":"xx334380_360879","name":"السادات","lat":33.438002,"lng":36.087887,"addr":"","type":"place_of_worship"},{"id":"xx334344_360806","name":"الغلاييني","lat":33.434392,"lng":36.080559,"addr":"","type":"place_of_worship"},{"id":"xx334340_360830","name":"العمري","lat":33.43397,"lng":36.082988,"addr":"","type":"place_of_worship"},{"id":"xx334444_363409","name":"مقام السيدة زينب (ع)","lat":33.44436,"lng":36.340884,"addr":"","type":"place_of_worship"},{"id":"xx334926_363180","name":"كلية الهندسة المعلوماتية، جامعة دمشق","lat":33.492629,"lng":36.317975,"addr":"Damascus","type":"university"},{"id":"xx325712_364065","name":"مسجد درعا خربا","lat":32.571241,"lng":36.4065,"addr":"","type":"place_of_worship"},{"id":"xx325870_364471","name":"مسجد درعا خربا","lat":32.587034,"lng":36.447067,"addr":"خربا ،بصرى الشام ،درعا","type":"place_of_worship"},{"id":"xx325847_364416","name":"مسجد درعا خربا","lat":32.584732,"lng":36.441617,"addr":"خربا بصرى الشام درعا","type":"place_of_worship"},{"id":"xx325858_364450","name":"مسجد بصرى الشام درعا خربا","lat":32.58584,"lng":36.444989,"addr":"","type":"place_of_worship"},{"id":"xx334193_363700","name":"Islamic place","lat":33.419269,"lng":36.369989,"addr":"","type":"place_of_worship"},{"id":"xx334217_363498","name":"Islamic place","lat":33.421663,"lng":36.349791,"addr":"","type":"place_of_worship"},{"id":"xx333940_363718","name":"Islamic place","lat":33.393993,"lng":36.371814,"addr":"","type":"place_of_worship"},{"id":"xx333731_363510","name":"Islamic place","lat":33.373073,"lng":36.351028,"addr":"","type":"place_of_worship"},{"id":"xx349099_359031","name":"Islamic place","lat":34.909865,"lng":35.903129,"addr":"","type":"place_of_worship"},{"id":"xx335294_362880","name":"التكية السليمية","lat":33.529393,"lng":36.288009,"addr":"","type":"place_of_worship"},{"id":"xx327635_361354","name":"Sayyida Aisha Mosque","lat":32.763488,"lng":36.135351,"addr":"","type":"place_of_worship"},{"id":"xx335295_362879","name":"مقام الشيخ محيي الدين بن عربي","lat":33.529459,"lng":36.287942,"addr":"","type":"place_of_worship"},{"id":"xx335367_362877","name":"Mosque of Alhaja Anisa","lat":33.536705,"lng":36.28773,"addr":"","type":"place_of_worship"},{"id":"xx335572_363769","name":"مسجد أم المؤمنين عائشة","lat":33.557169,"lng":36.376872,"addr":"","type":"place_of_worship"},{"id":"xx335559_363742","name":"جامع عقيل بن أبي طالب","lat":33.555923,"lng":36.37422,"addr":"","type":"place_of_worship"},{"id":"xx335593_363684","name":"جامع الحسن","lat":33.559281,"lng":36.36843,"addr":"","type":"place_of_worship"},{"id":"xx335597_363651","name":"جامع الشيخ موسى","lat":33.559724,"lng":36.365125,"addr":"","type":"place_of_worship"},{"id":"xx335589_363627","name":"جامع المحاسنة","lat":33.558943,"lng":36.362698,"addr":"","type":"place_of_worship"},{"id":"xx335590_363640","name":"جامع الشيخ برق","lat":33.559028,"lng":36.36401,"addr":"","type":"place_of_worship"},{"id":"xx335616_363637","name":"جامع غبور","lat":33.56156,"lng":36.363746,"addr":"","type":"place_of_worship"},{"id":"xx335557_363638","name":"جامع الزهراء","lat":33.555741,"lng":36.363755,"addr":"","type":"place_of_worship"},{"id":"xx335623_363672","name":"جامع الإمام الشافعي","lat":33.562265,"lng":36.367168,"addr":"","type":"place_of_worship"},{"id":"xx335647_363710","name":"جامع صلاح الدين","lat":33.564704,"lng":36.371022,"addr":"","type":"place_of_worship"},{"id":"xx335682_363749","name":"جامع سيدنا محمد","lat":33.568187,"lng":36.374941,"addr":"","type":"place_of_worship"},{"id":"xx335683_363665","name":"جامع الإيمان","lat":33.568296,"lng":36.366458,"addr":"","type":"place_of_worship"},{"id":"xx335547_363692","name":"جامع العجمي","lat":33.554722,"lng":36.369167,"addr":"","type":"place_of_worship"},{"id":"xx335532_363663","name":"جامع عبدالله بن عمر","lat":33.55322,"lng":36.366286,"addr":"","type":"place_of_worship"},{"id":"xx335496_363631","name":"جامع أبوبكر الصديق","lat":33.549576,"lng":36.36311,"addr":"","type":"place_of_worship"},{"id":"xx335696_364002","name":"جامع الزين","lat":33.569623,"lng":36.400178,"addr":"","type":"place_of_worship"},{"id":"xx338287_365097","name":"جامع عمار بن ياسر","lat":33.828705,"lng":36.509738,"addr":"","type":"place_of_worship"},{"id":"xx338254_365107","name":"مسجد علي بن أبي طالب","lat":33.8254,"lng":36.51071,"addr":"","type":"place_of_worship"},{"id":"xx337309_362672","name":"مسجد بيسان","lat":33.730918,"lng":36.267157,"addr":"","type":"mosque"},{"id":"xx339682_366710","name":"Islamic place","lat":33.96823,"lng":36.671002,"addr":"","type":"place_of_worship"},{"id":"xx339715_366696","name":"Islamic place","lat":33.971466,"lng":36.669648,"addr":"","type":"place_of_worship"},{"id":"xx337434_366494","name":"Islamic place","lat":33.743437,"lng":36.649448,"addr":"","type":"place_of_worship"},{"id":"xx339623_366577","name":"Islamic place","lat":33.962332,"lng":36.657654,"addr":"","type":"place_of_worship"},{"id":"xx335697_363944","name":"مسجد النعسان","lat":33.569721,"lng":36.394373,"addr":"","type":"place_of_worship"},{"id":"xx339692_366565","name":"Islamic place","lat":33.969235,"lng":36.656486,"addr":"","type":"place_of_worship"},{"id":"xx334452_363305","name":"جامع خالد بن الوليد - Khalid ibn al-Walid Mosque","lat":33.445218,"lng":36.330475,"addr":"","type":"place_of_worship"},{"id":"xx339722_366654","name":"Islamic place","lat":33.972161,"lng":36.665421,"addr":"","type":"place_of_worship"},{"id":"xx338237_365146","name":"Islamic place","lat":33.823704,"lng":36.51457,"addr":"","type":"grave_yard"},{"id":"xx338200_365549","name":"جامع علي بن أبي طالب","lat":33.820031,"lng":36.554871,"addr":"","type":"place_of_worship"},{"id":"xx336576_362443","name":"Al-sahaba mosque","lat":33.65761,"lng":36.244335,"addr":"","type":"place_of_worship"},{"id":"xx334661_363338","name":"جامع البراء Al-Bara' Mosque","lat":33.46605,"lng":36.333764,"addr":"","type":"mosque"},{"id":"xx338202_365080","name":"Islamic place","lat":33.820177,"lng":36.507962,"addr":"","type":"place_of_worship"},{"id":"xx336585_362479","name":"Al-lsalam mosque","lat":33.658527,"lng":36.247949,"addr":"","type":"place_of_worship"},{"id":"xx338229_365080","name":"الخليل ابراهيم","lat":33.822885,"lng":36.508044,"addr":"","type":"place_of_worship"},{"id":"xx337743_364998","name":"مقبرة قرية التواني The cemetery of Al-Tawani village","lat":33.774349,"lng":36.499839,"addr":"","type":"cemetery"},{"id":"xx336652_362506","name":"Al-Abrar Mosque","lat":33.665201,"lng":36.250589,"addr":"","type":"place_of_worship"},{"id":"xx336645_362480","name":"The Great Mosque of Halboun","lat":33.664465,"lng":36.248042,"addr":"","type":"place_of_worship"},{"id":"xx336622_362470","name":"Cemetery of Halboun","lat":33.662222,"lng":36.247039,"addr":"","type":"grave_yard"},{"id":"xx339537_366273","name":"Islamic place","lat":33.953687,"lng":36.627273,"addr":"","type":"place_of_worship"},{"id":"xx339502_366229","name":"Islamic place","lat":33.950227,"lng":36.622929,"addr":"","type":"place_of_worship"},{"id":"xx339833_366536","name":"Islamic place","lat":33.983279,"lng":36.65355,"addr":"","type":"place_of_worship"},{"id":"xx336649_362476","name":"Al-Shibani Mosque","lat":33.664927,"lng":36.247566,"addr":"","type":"place_of_worship"},{"id":"xx338656_364094","name":"Islamic place","lat":33.865625,"lng":36.409373,"addr":"","type":"place_of_worship"},{"id":"xx338645_364178","name":"Islamic place","lat":33.864452,"lng":36.417766,"addr":"","type":"place_of_worship"},{"id":"xx338226_365118","name":"جامع أبو بكر الصديق","lat":33.822624,"lng":36.511825,"addr":"","type":"place_of_worship"},{"id":"xx338241_365124","name":"مسجد الحسنين","lat":33.824096,"lng":36.512391,"addr":"","type":"place_of_worship"},{"id":"xx338599_364116","name":"Islamic place","lat":33.859895,"lng":36.411556,"addr":"","type":"place_of_worship"},{"id":"xx338646_364152","name":"Islamic place","lat":33.864597,"lng":36.415195,"addr":"","type":"place_of_worship"},{"id":"xx336231_362582","name":"Islamic place","lat":33.623089,"lng":36.258198,"addr":"","type":"place_of_worship"},{"id":"xx336203_362619","name":"Omar bin Abdul Aziz Mosque","lat":33.620267,"lng":36.261902,"addr":"","type":"place_of_worship"},{"id":"xx336245_362577","name":"Al-Draji Cemetery","lat":33.62451,"lng":36.257736,"addr":"","type":"grave_yard"},{"id":"xx337798_365033","name":"مسجد الهداية Al-Hidayah Mosque","lat":33.779804,"lng":36.503265,"addr":"","type":"mosque"},{"id":"xx335737_363936","name":"مسجد الهدى","lat":33.573706,"lng":36.39363,"addr":"","type":"place_of_worship"},{"id":"xx335744_363927","name":"مسجد حليمة","lat":33.57439,"lng":36.392723,"addr":"","type":"place_of_worship"},{"id":"xx339968_365696","name":"Islamic place","lat":33.996823,"lng":36.569557,"addr":"","type":"place_of_worship"},{"id":"xx336109_362564","name":"Al-Taqwa Mosque","lat":33.610877,"lng":36.256419,"addr":"","type":"place_of_worship"},{"id":"xx339041_364822","name":"Islamic place","lat":33.904131,"lng":36.482172,"addr":"","type":"place_of_worship"},{"id":"xx339016_364767","name":"Islamic place","lat":33.901631,"lng":36.476665,"addr":"","type":"place_of_worship"},{"id":"xx339926_365572","name":"Islamic place","lat":33.992604,"lng":36.55722,"addr":"","type":"place_of_worship"},{"id":"xx339934_365607","name":"Islamic place","lat":33.993446,"lng":36.560724,"addr":"","type":"place_of_worship"},{"id":"xx339994_365590","name":"Islamic place","lat":33.99945,"lng":36.558953,"addr":"","type":"place_of_worship"},{"id":"xx335671_363995","name":"مسجد المحمود","lat":33.567126,"lng":36.39953,"addr":"","type":"place_of_worship"},{"id":"xx335650_363992","name":"مسجد علي بن أبي طالب (الكحلوس)","lat":33.564984,"lng":36.399175,"addr":"","type":"place_of_worship"},{"id":"xx338217_365115","name":"جامع محمد الديلمي","lat":33.821664,"lng":36.511525,"addr":"","type":"place_of_worship"},{"id":"xx338137_361594","name":"Islamic place","lat":33.813709,"lng":36.159441,"addr":"","type":"place_of_worship"},{"id":"xx338048_361523","name":"Islamic place","lat":33.804777,"lng":36.152316,"addr":"","type":"place_of_worship"},{"id":"xx337150_361037","name":"Islamic place","lat":33.71499,"lng":36.103683,"addr":"","type":"place_of_worship"},{"id":"xx337225_361027","name":"Islamic place","lat":33.722519,"lng":36.102719,"addr":"","type":"place_of_worship"},{"id":"xx337260_360957","name":"Islamic place","lat":33.725969,"lng":36.095654,"addr":"","type":"place_of_worship"},{"id":"xx337245_360967","name":"Islamic place","lat":33.724488,"lng":36.096722,"addr":"","type":"place_of_worship"},{"id":"xx337234_360940","name":"Islamic place","lat":33.723385,"lng":36.09402,"addr":"","type":"place_of_worship"},{"id":"xx337705_361399","name":"Islamic place","lat":33.77049,"lng":36.139892,"addr":"","type":"place_of_worship"},{"id":"xx335152_362852","name":"جامع الحسن","lat":33.515197,"lng":36.285208,"addr":"","type":"place_of_worship"},{"id":"xx337327_366044","name":"مسجد السيدة عائشة","lat":33.732667,"lng":36.604432,"addr":"","type":"place_of_worship"},{"id":"xx337083_361061","name":"Islamic place","lat":33.708325,"lng":36.106088,"addr":"","type":"place_of_worship"},{"id":"xx349701_360563","name":"Islamic place","lat":34.97011,"lng":36.056264,"addr":"","type":"place_of_worship"},{"id":"xx349589_360324","name":"Islamic place","lat":34.958885,"lng":36.032448,"addr":"","type":"place_of_worship"},{"id":"xx337280_361202","name":"Islamic place","lat":33.727953,"lng":36.120226,"addr":"","type":"place_of_worship"},{"id":"xx337321_361049","name":"Islamic place","lat":33.732069,"lng":36.104917,"addr":"","type":"place_of_worship"},{"id":"xx335046_362971","name":"Al-Tawrizi Mosque","lat":33.504577,"lng":36.297094,"addr":"","type":"place_of_worship"},{"id":"xx335022_362952","name":"عبدالرحمن بن عوف","lat":33.502241,"lng":36.295179,"addr":"","type":"place_of_worship"},{"id":"xx334861_363103","name":"Umar ibn al-Khattab mosque","lat":33.486115,"lng":36.31025,"addr":"","type":"place_of_worship"},{"id":"xx335017_362876","name":"Abdul Karim Alrifia mosque","lat":33.501707,"lng":36.287605,"addr":"","type":"place_of_worship"},{"id":"xx335051_362948","name":"Zayd bin Thabit Mosque","lat":33.505148,"lng":36.294757,"addr":"","type":"place_of_worship"},{"id":"xx335035_363014","name":"Naqshbandi Mosque","lat":33.503549,"lng":36.301357,"addr":"","type":"place_of_worship"},{"id":"xx335134_362981","name":"Sayif Aldin Yalbugha Mosque","lat":33.513366,"lng":36.298121,"addr":"","type":"place_of_worship"},{"id":"xx335029_362975","name":"Al-imam Al-Zahbi Mosque","lat":33.50288,"lng":36.29754,"addr":"","type":"place_of_worship"},{"id":"xx335035_362970","name":"مقبرة قبر عاتكة","lat":33.50349,"lng":36.296956,"addr":"","type":"grave_yard"},{"id":"xx335064_362857","name":"جامع مصعب بن عمير","lat":33.506434,"lng":36.285674,"addr":"","type":"place_of_worship"},{"id":"xx334928_362930","name":"جامع الحسن","lat":33.492777,"lng":36.292981,"addr":"","type":"place_of_worship"},{"id":"xx337187_361266","name":"جامع الرحمن","lat":33.718742,"lng":36.126594,"addr":"","type":"place_of_worship"},{"id":"xx335759_363988","name":"مسجد الرحمة","lat":33.575932,"lng":36.39881,"addr":"","type":"place_of_worship"},{"id":"xx335744_363955","name":"Al-Rawda Mosque","lat":33.574364,"lng":36.395531,"addr":"","type":"place_of_worship"},{"id":"xx335708_364068","name":"مسجد البغدادي الشرقي","lat":33.570752,"lng":36.406794,"addr":"","type":"place_of_worship"},{"id":"xx333757_361144","name":"جامع الرضى","lat":33.375725,"lng":36.1144,"addr":"","type":"place_of_worship"},{"id":"xx333608_361013","name":"جامع التوحيد","lat":33.360828,"lng":36.101311,"addr":"","type":"place_of_worship"},{"id":"xx333542_360961","name":"جامع البشير","lat":33.354163,"lng":36.096144,"addr":"","type":"place_of_worship"},{"id":"xx333834_361193","name":"مسجد الشيخة فاطمة","lat":33.383441,"lng":36.119313,"addr":"","type":"place_of_worship"},{"id":"xx334015_361289","name":"مسجد السيدة عائشة","lat":33.401473,"lng":36.128874,"addr":"","type":"place_of_worship"},{"id":"xx333963_361330","name":"جامع الرحمن","lat":33.39628,"lng":36.133021,"addr":"","type":"place_of_worship"},{"id":"xx334066_361391","name":"جامع الفحام","lat":33.406634,"lng":36.139121,"addr":"","type":"place_of_worship"},{"id":"xx334344_361659","name":"Islamic place","lat":33.434431,"lng":36.165874,"addr":"","type":"place_of_worship"},{"id":"xx335678_363951","name":"مسجد الفتح","lat":33.567777,"lng":36.39508,"addr":"","type":"place_of_worship"},{"id":"xx335432_363594","name":"جامع غبير","lat":33.543204,"lng":36.359411,"addr":"","type":"place_of_worship"},{"id":"xx335394_363569","name":"جامع علي بن ابي طالب","lat":33.539413,"lng":36.356896,"addr":"","type":"place_of_worship"},{"id":"xx335359_363570","name":"مسجد السلام","lat":33.535913,"lng":36.357012,"addr":"","type":"place_of_worship"},{"id":"xx335360_363608","name":"مسجد حفظة","lat":33.535989,"lng":36.360758,"addr":"","type":"place_of_worship"},{"id":"xx335378_363648","name":"مسجد الفتح","lat":33.537803,"lng":36.364824,"addr":"","type":"place_of_worship"},{"id":"xx335325_363630","name":"مسجد الصحابة","lat":33.532516,"lng":36.362988,"addr":"","type":"place_of_worship"},{"id":"xx335305_363566","name":"Islamic place","lat":33.530477,"lng":36.356574,"addr":"","type":"place_of_worship"},{"id":"xx335261_363563","name":"مسجد زملكا الكبير","lat":33.526148,"lng":36.356261,"addr":"","type":"place_of_worship"},{"id":"xx335282_363523","name":"مسجد الشهداء","lat":33.52818,"lng":36.352349,"addr":"","type":"place_of_worship"},{"id":"xx335262_363474","name":"Islamic place","lat":33.526177,"lng":36.347437,"addr":"","type":"place_of_worship"},{"id":"xx335249_363518","name":"Islamic place","lat":33.524936,"lng":36.351765,"addr":"","type":"place_of_worship"},{"id":"xx349609_360278","name":"Islamic place","lat":34.960873,"lng":36.027757,"addr":"","type":"place_of_worship"},{"id":"xx336564_361873","name":"Islamic place","lat":33.656426,"lng":36.187261,"addr":"","type":"place_of_worship"},{"id":"xx336510_361851","name":"Islamic place","lat":33.651029,"lng":36.185119,"addr":"","type":"place_of_worship"},{"id":"xx336147_361858","name":"مسجد ابو بكر الصديق","lat":33.614736,"lng":36.185782,"addr":"","type":"place_of_worship"},{"id":"xx336168_361640","name":"مسجد محمد حبيب","lat":33.616796,"lng":36.16397,"addr":"","type":"place_of_worship"},{"id":"xx336186_361544","name":"جامع ابو زيدان","lat":33.618623,"lng":36.154387,"addr":"","type":"place_of_worship"},{"id":"xx336148_361538","name":"مسجد علي بن ابي طالب","lat":33.614801,"lng":36.153799,"addr":"","type":"place_of_worship"},{"id":"xx348169_361040","name":"Al-Mujtaba mosque","lat":34.816896,"lng":36.103957,"addr":"","type":"place_of_worship"},{"id":"xx336737_361233","name":"الجامع العتيق","lat":33.673727,"lng":36.123282,"addr":"","type":"place_of_worship"},{"id":"xx336740_361214","name":"جامع ابو هريرة","lat":33.673963,"lng":36.121403,"addr":"","type":"place_of_worship"},{"id":"xx337218_361271","name":"مسجد النوري","lat":33.721774,"lng":36.127125,"addr":"","type":"place_of_worship"},{"id":"xx334981_360836","name":"جامع الحسيبي","lat":33.498072,"lng":36.083609,"addr":"","type":"place_of_worship"},{"id":"xx335120_360863","name":"جامع عابدين","lat":33.512013,"lng":36.086339,"addr":"","type":"place_of_worship"},{"id":"xx334328_361609","name":"جامع الرحمن","lat":33.432757,"lng":36.160928,"addr":"","type":"place_of_worship"},{"id":"xx334394_362774","name":"جامع معاذ بن جبل","lat":33.439407,"lng":36.277386,"addr":"","type":"place_of_worship"},{"id":"xx338861_366883","name":"جامع الرجاء","lat":33.886126,"lng":36.688254,"addr":"","type":"place_of_worship"},{"id":"xx338795_366865","name":"جامع النور","lat":33.879547,"lng":36.68646,"addr":"","type":"place_of_worship"},{"id":"xx341765_368493","name":"جامع علي بن ابي طالب","lat":34.176492,"lng":36.849278,"addr":"","type":"place_of_worship"},{"id":"xx335832_367111","name":"Islamic place","lat":33.583235,"lng":36.711103,"addr":"","type":"place_of_worship"},{"id":"xx332817_359981","name":"Islamic place","lat":33.281663,"lng":35.998082,"addr":"","type":"place_of_worship"},{"id":"xx332664_359979","name":"Islamic place","lat":33.266413,"lng":35.997872,"addr":"","type":"place_of_worship"},{"id":"xx332333_360298","name":"Islamic place","lat":33.233318,"lng":36.029838,"addr":"","type":"place_of_worship"},{"id":"xx332335_360246","name":"Islamic place","lat":33.233492,"lng":36.024567,"addr":"","type":"place_of_worship"},{"id":"xx332332_359707","name":"Islamic place","lat":33.233159,"lng":35.970724,"addr":"","type":"place_of_worship"},{"id":"xx332335_359805","name":"جامع ابو بكر الصديق","lat":33.233468,"lng":35.980508,"addr":"","type":"place_of_worship"},{"id":"xx334798_360490","name":"جامع خالد بن الوليد","lat":33.479825,"lng":36.048989,"addr":"","type":"place_of_worship"},{"id":"xx337946_361464","name":"Islamic place","lat":33.794562,"lng":36.146436,"addr":"","type":"place_of_worship"},{"id":"xx335176_363050","name":"مقبرة الدحداح","lat":33.517627,"lng":36.304993,"addr":"","type":"mosque"},{"id":"xx335041_363036","name":"مقبرة باب الصغير.        Bab üs sağir Kabristanı","lat":33.504118,"lng":36.30364,"addr":"","type":"mosque"},{"id":"xx335405_362978","name":"مقبرة الشيخ خالد النقبشندي","lat":33.540535,"lng":36.297795,"addr":"","type":"mosque"},{"id":"xx335263_362941","name":"جامع العثمان","lat":33.526326,"lng":36.294071,"addr":"","type":"yes"},{"id":"xx334420_363354","name":"مقبرة للاجئين الفلسطينيين Cemetery for Palestinian refugees","lat":33.442019,"lng":36.33535,"addr":"السيدة زينب","type":"mosque"},{"id":"xx334436_363332","name":"Islamic place","lat":33.443559,"lng":36.333233,"addr":"السيدة زينب","type":"mosque"},{"id":"xx334927_362930","name":"جامع الحسن","lat":33.492745,"lng":36.293036,"addr":"كورنيش الميدان","type":"yes"},{"id":"xx334973_362945","name":"جامع المنصور","lat":33.497324,"lng":36.2945,"addr":"","type":"mosque"},{"id":"xx334920_362417","name":"Islamic place","lat":33.492015,"lng":36.241682,"addr":"","type":"mosque"},{"id":"xx334924_362463","name":"مسجد الشافعي Al-Shafi'i Mosque","lat":33.492442,"lng":36.246343,"addr":"","type":"mosque"},{"id":"xx334989_362429","name":"جامع الهدى","lat":33.49887,"lng":36.24294,"addr":"","type":"yes"},{"id":"xx335262_363188","name":"الحمزة والعباس","lat":33.526184,"lng":36.318815,"addr":"","type":"mosque"},{"id":"xx335318_362331","name":"Islamic place","lat":33.531784,"lng":36.233066,"addr":"","type":"yes"},{"id":"xx335479_362206","name":"Al-Mouhamadi Mosque","lat":33.54786,"lng":36.220593,"addr":"","type":"yes"},{"id":"xx334938_362365","name":"جامع الكوثر","lat":33.493845,"lng":36.236503,"addr":"","type":"yes"},{"id":"xx334953_363046","name":"جامع ابو ايوب الانصاري","lat":33.495305,"lng":36.304557,"addr":"","type":"yes"},{"id":"xx334811_363017","name":"جامع البشير","lat":33.481112,"lng":36.301653,"addr":"","type":"mosque"},{"id":"xx345639_382773","name":"Islamic place","lat":34.563942,"lng":38.277312,"addr":"","type":"mosque"},{"id":"xx326150_361041","name":"مقبرة العباسية","lat":32.615039,"lng":36.104084,"addr":"","type":"mosque"},{"id":"xx326017_360966","name":"مقبرة البحارة","lat":32.601745,"lng":36.096591,"addr":"","type":"mosque"},{"id":"xx325142_364779","name":"Islamic place","lat":32.514207,"lng":36.477903,"addr":"","type":"yes"},{"id":"xx328299_361508","name":"Islamic place","lat":32.829853,"lng":36.1508,"addr":"","type":"place_of_worship"},{"id":"xx330760_361867","name":"Islamic place","lat":33.076008,"lng":36.186681,"addr":"","type":"place_of_worship"},{"id":"xx330202_361354","name":"جامع عازف المطر","lat":33.020171,"lng":36.135394,"addr":"","type":"place_of_worship"},{"id":"xx330224_361293","name":"جامع البسام","lat":33.022353,"lng":36.12933,"addr":"","type":"place_of_worship"},{"id":"xx330194_361318","name":"الجامع العمري","lat":33.019437,"lng":36.131808,"addr":"","type":"place_of_worship"},{"id":"xx330163_361302","name":"جامع الهدى","lat":33.016312,"lng":36.130246,"addr":"","type":"place_of_worship"},{"id":"xx329930_360647","name":"مسجد الأنصار","lat":32.993002,"lng":36.064681,"addr":"","type":"place_of_worship"},{"id":"xx329922_360595","name":"جامع خالد إبن الوليد","lat":32.992191,"lng":36.059513,"addr":"","type":"mosque"},{"id":"xx325714_363166","name":"Islamic place","lat":32.571399,"lng":36.316638,"addr":"","type":"place_of_worship"},{"id":"xx327102_365679","name":"Islamic place","lat":32.710183,"lng":36.567895,"addr":"","type":"yes"},{"id":"xx325374_362005","name":"Islamic place","lat":32.537424,"lng":36.200473,"addr":"","type":"yes"},{"id":"xx340984_367655","name":"جامع البلدية","lat":34.098387,"lng":36.765475,"addr":"","type":"place_of_worship"},{"id":"xx340340_367317","name":"جامع الصفا والزمزم","lat":34.034007,"lng":36.731726,"addr":"","type":"mosque"},{"id":"xx340179_367308","name":"جامع المبارك","lat":34.017936,"lng":36.730834,"addr":"","type":"place_of_worship"},{"id":"xx340228_367304","name":"جامع سنان باشا","lat":34.02277,"lng":36.730395,"addr":"","type":"place_of_worship"},{"id":"xx340230_367335","name":"جامع الخضر","lat":34.022985,"lng":36.733488,"addr":"","type":"place_of_worship"},{"id":"xx340168_367257","name":"جامع الصديق","lat":34.016768,"lng":36.725667,"addr":"","type":"place_of_worship"},{"id":"xx335377_360609","name":"Ras Al Ain School","lat":33.537732,"lng":36.060912,"addr":"","type":"school"},{"id":"xx340243_367429","name":"جامع بدر","lat":34.024287,"lng":36.742856,"addr":"","type":"place_of_worship"},{"id":"xx334277_363926","name":"H32 H33","lat":33.427715,"lng":36.392627,"addr":"","type":"mosque"},{"id":"xx331087_362676","name":"Islamic place","lat":33.108721,"lng":36.267597,"addr":"","type":"place_of_worship"},{"id":"xx327343_360743","name":"Islamic place","lat":32.734269,"lng":36.074317,"addr":"","type":"place_of_worship"},{"id":"xx326125_361009","name":"Islamic place","lat":32.612512,"lng":36.1009,"addr":"","type":"place_of_worship"},{"id":"xx327315_362045","name":"Islamic place","lat":32.731491,"lng":36.204492,"addr":"","type":"yes"},{"id":"xx334658_364191","name":"Islamic place","lat":33.465763,"lng":36.41914,"addr":"","type":"place_of_worship"},{"id":"xx335714_364008","name":"مسجد دوما الكبير","lat":33.571378,"lng":36.400837,"addr":"دوما","type":"place_of_worship"},{"id":"xx336470_366839","name":"Islamic place","lat":33.647008,"lng":36.683859,"addr":"","type":"place_of_worship"},{"id":"xx342428_370590","name":"Islamic place","lat":34.242799,"lng":37.059031,"addr":"","type":"place_of_worship"},{"id":"xx324080_368237","name":"Islamic place","lat":32.407969,"lng":36.823657,"addr":"","type":"mosque"},{"id":"xx324302_368058","name":"مقام الخضر","lat":32.430241,"lng":36.805786,"addr":"","type":"yes"},{"id":"xx347233_367120","name":"مسجد القلعة","lat":34.723301,"lng":36.712014,"addr":"‫القلعة‬‎","type":"mosque"},{"id":"xx347142_367297","name":"Islamic place","lat":34.714155,"lng":36.72967,"addr":"","type":"yes"},{"id":"xx347053_367128","name":"Islamic place","lat":34.70526,"lng":36.712818,"addr":"","type":"mosque"},{"id":"xx347147_367130","name":"مسجد الصفا","lat":34.714711,"lng":36.713044,"addr":"الحضارة","type":"mosque"},{"id":"xx347367_367156","name":"جامع ‏خالد بن الوليد","lat":34.73667,"lng":36.715589,"addr":"","type":"place_of_worship"},{"id":"xx347296_367397","name":"Islamic place","lat":34.729601,"lng":36.739673,"addr":"","type":"place_of_worship"},{"id":"xx347295_367397","name":"مسجد محمد بن أبي بكر","lat":34.729525,"lng":36.73974,"addr":"","type":"yes"},{"id":"xx347236_367277","name":"مسجد أولاد جعفر الطيار","lat":34.723624,"lng":36.727682,"addr":"","type":"mosque"},{"id":"xx347245_367281","name":"مقبرة الكثيب الأصفر","lat":34.724451,"lng":36.728053,"addr":"طريق فيروزة","type":"mosque"},{"id":"xx347234_367282","name":"مقبرة أولاد جعفر الطيار عليه السلام","lat":34.723425,"lng":36.728163,"addr":"","type":"mosque"},{"id":"xx347280_367079","name":"مسجد الدروبي","lat":34.727979,"lng":36.707855,"addr":"","type":"yes"},{"id":"xx347195_366960","name":"Islamic place","lat":34.719478,"lng":36.695961,"addr":"التوزيع الإجباري","type":"yes"},{"id":"xx347391_366751","name":"جامع العمري","lat":34.739051,"lng":36.675147,"addr":"الرئيس حافظ الأسد","type":"yes"},{"id":"xx346382_366779","name":"Islamic place","lat":34.638166,"lng":36.677949,"addr":"","type":"yes"},{"id":"xx346631_367340","name":"Islamic place","lat":34.663065,"lng":36.734031,"addr":"","type":"yes"},{"id":"xx346858_366895","name":"Islamic place","lat":34.68577,"lng":36.689483,"addr":"","type":"yes"},{"id":"xx347274_367137","name":"جامع الزاوية","lat":34.727433,"lng":36.71367,"addr":"","type":"yes"},{"id":"xx347289_367147","name":"جامع الشيخ موسى","lat":34.728896,"lng":36.714747,"addr":"","type":"place_of_worship"},{"id":"xx347525_367448","name":"Islamic place","lat":34.752545,"lng":36.744808,"addr":"","type":"yes"},{"id":"xx347437_367113","name":"جامع شمسي باشا","lat":34.74374,"lng":36.711259,"addr":"","type":"yes"},{"id":"xx335337_362992","name":"Islamic place","lat":33.533693,"lng":36.299223,"addr":"","type":"yes"},{"id":"xx334936_362978","name":"منجك","lat":33.493641,"lng":36.29783,"addr":"","type":"place_of_worship"},{"id":"xx324702_367198","name":"Salkhad Cemetry","lat":32.470185,"lng":36.719752,"addr":"","type":"mosque"},{"id":"xx335364_363036","name":"جامع طارق بن زياد","lat":33.536379,"lng":36.303595,"addr":"","type":"yes"},{"id":"xx330631_360026","name":"مسجد أبو عبيدة بن الجراح","lat":33.063139,"lng":36.002553,"addr":"","type":"place_of_worship"},{"id":"xx335039_363161","name":"جامع بلال بن رباح","lat":33.503934,"lng":36.316142,"addr":"","type":"yes"},{"id":"xx349033_358835","name":"جامع السيدة خديجة","lat":34.903273,"lng":35.883505,"addr":"","type":"place_of_worship"},{"id":"xx333619_362460","name":"مسجد عثمان بن عفان","lat":33.361935,"lng":36.246042,"addr":"","type":"place_of_worship"},{"id":"xx333591_362388","name":"مسجد أنس بن مالك","lat":33.359111,"lng":36.238845,"addr":"","type":"mosque"},{"id":"xx335538_363197","name":"جامع الخنساء","lat":33.55383,"lng":36.319717,"addr":"شارع القعقاع بن عمرو التميمي","type":"yes"},{"id":"xx335422_362161","name":"Islamic place","lat":33.542213,"lng":36.216134,"addr":"","type":"mosque"},{"id":"xx335383_362186","name":"Al-Rahman Mosque","lat":33.538329,"lng":36.218647,"addr":"","type":"yes"},{"id":"xx335382_361980","name":"جامع الأحمد","lat":33.5382,"lng":36.198041,"addr":"","type":"yes"},{"id":"xx335451_362018","name":"مسجد العرفان","lat":33.545145,"lng":36.20177,"addr":"","type":"yes"},{"id":"xx335448_361942","name":"مسجد حبيب بن زيد الأنصاري","lat":33.544843,"lng":36.194233,"addr":"","type":"yes"},{"id":"xx330533_359999","name":"Islamic place","lat":33.053267,"lng":35.999899,"addr":"","type":"place_of_worship"},{"id":"xx330547_360042","name":"Islamic place","lat":33.054734,"lng":36.004159,"addr":"","type":"place_of_worship"},{"id":"xx335737_362920","name":"Islamic place","lat":33.573666,"lng":36.292027,"addr":"","type":"mosque"},{"id":"xx335494_363206","name":"Islamic place","lat":33.549395,"lng":36.320578,"addr":"","type":"mosque"},{"id":"xx335533_363167","name":"جامع القزاز","lat":33.553315,"lng":36.316688,"addr":"شارع القعقاع بن عمرو التميمي","type":"mosque"},{"id":"xx335504_363138","name":"Islamic place","lat":33.550361,"lng":36.313843,"addr":"","type":"mosque"},{"id":"xx335451_363082","name":"جامع عبد الحكيم","lat":33.545127,"lng":36.308222,"addr":"","type":"yes"},{"id":"xx347217_367082","name":"Islamic place","lat":34.721699,"lng":36.708224,"addr":"","type":"yes"},{"id":"xx347188_367133","name":"مسجد عثمان بن عفان","lat":34.718794,"lng":36.713321,"addr":"","type":"mosque"},{"id":"xx347344_367173","name":"Islamic place","lat":34.734448,"lng":36.717349,"addr":"","type":"yes"},{"id":"xx347292_367198","name":"Islamic place","lat":34.729188,"lng":36.719765,"addr":"","type":"yes"},{"id":"xx347353_367194","name":"Islamic place","lat":34.735331,"lng":36.719424,"addr":"","type":"yes"},{"id":"xx347270_367280","name":"جامع البر","lat":34.727018,"lng":36.728049,"addr":"","type":"yes"},{"id":"xx347056_367317","name":"Islamic place","lat":34.705568,"lng":36.731654,"addr":"","type":"yes"},{"id":"xx347220_367226","name":"جامع المريجة","lat":34.721975,"lng":36.722643,"addr":"","type":"yes"},{"id":"xx347151_366915","name":"Islamic place","lat":34.715139,"lng":36.691518,"addr":"","type":"yes"},{"id":"xx347058_366885","name":"Islamic place","lat":34.70584,"lng":36.688529,"addr":"","type":"yes"},{"id":"xx347031_367106","name":"مسجد أبو هريرة","lat":34.703144,"lng":36.710581,"addr":"","type":"yes"},{"id":"xx346968_366750","name":"Islamic place","lat":34.696768,"lng":36.674964,"addr":"","type":"yes"},{"id":"xx347169_367429","name":"Islamic place","lat":34.716858,"lng":36.742872,"addr":"","type":"yes"},{"id":"xx347097_367448","name":"Islamic place","lat":34.709724,"lng":36.744777,"addr":"","type":"yes"},{"id":"xx348029_367104","name":"Islamic place","lat":34.802854,"lng":36.710431,"addr":"","type":"yes"},{"id":"xx347447_366808","name":"Islamic place","lat":34.744661,"lng":36.680834,"addr":"","type":"yes"},{"id":"xx347452_366914","name":"Islamic place","lat":34.745201,"lng":36.691384,"addr":"","type":"yes"},{"id":"xx347444_366831","name":"مسجد الروضة","lat":34.744403,"lng":36.683055,"addr":"","type":"place_of_worship"},{"id":"xx347550_367329","name":"Islamic place","lat":34.754999,"lng":36.732904,"addr":"","type":"yes"},{"id":"xx347487_367204","name":"Islamic place","lat":34.748669,"lng":36.720357,"addr":"","type":"yes"},{"id":"xx347509_367262","name":"Islamic place","lat":34.750883,"lng":36.726238,"addr":"","type":"yes"},{"id":"xx347576_367386","name":"Islamic place","lat":34.757611,"lng":36.738585,"addr":"","type":"yes"},{"id":"xx346807_366926","name":"Islamic place","lat":34.680698,"lng":36.692642,"addr":"","type":"yes"},{"id":"xx335221_363250","name":"جامع علي بن أبي طالب","lat":33.522071,"lng":36.325026,"addr":"","type":"yes"},{"id":"xx335216_363651","name":"Islamic place","lat":33.521586,"lng":36.365096,"addr":"","type":"yes"},{"id":"xx334986_362387","name":"جامع الرحمن","lat":33.498618,"lng":36.238723,"addr":"","type":"place_of_worship"},{"id":"xx334621_362410","name":"Islamic place","lat":33.462057,"lng":36.241044,"addr":"","type":"place_of_worship"},