[{"id":"xx332783_575243","name":"مسجد مجتمع رفاهی امام رضا ع","lat":33.278273,"lng":57.524306,"addr":"","type":"place_of_worship"},{"id":"xx345181_581805","name":"مسجد جامع","lat":34.518076,"lng":58.180513,"addr":"","type":"place_of_worship"},{"id":"xx345177_581779","name":"مسجد حسینی","lat":34.517708,"lng":58.177907,"addr":"","type":"place_of_worship"},{"id":"xx306468_567690","name":"Islamic place","lat":30.646842,"lng":56.769002,"addr":"","type":"place_of_worship"},{"id":"xx306669_567702","name":"Islamic place","lat":30.666916,"lng":56.770167,"addr":"","type":"place_of_worship"},{"id":"xx306518_568633","name":"Islamic place","lat":30.65178,"lng":56.863347,"addr":"","type":"place_of_worship"},{"id":"xx307226_567789","name":"مسجد امام","lat":30.722565,"lng":56.778948,"addr":"","type":"place_of_worship"},{"id":"xx306272_568975","name":"Islamic place","lat":30.62723,"lng":56.897491,"addr":"","type":"place_of_worship"},{"id":"xx302509_570788","name":"Islamic place","lat":30.250884,"lng":57.078784,"addr":"","type":"place_of_worship"},{"id":"xx302985_570630","name":"مسجد طفلان مسلم","lat":30.298505,"lng":57.062951,"addr":"","type":"place_of_worship"},{"id":"xx315995_553960","name":"امامزاده عبدالله","lat":31.599466,"lng":55.395992,"addr":"","type":"mosque"},{"id":"xx303208_570474","name":"Islamic place","lat":30.320761,"lng":57.04744,"addr":"","type":"place_of_worship"},{"id":"xx307246_567790","name":"تکیه ابوالفضل","lat":30.724591,"lng":56.778986,"addr":"","type":"place_of_worship"},{"id":"xx307216_567797","name":"تکیه امام حسین","lat":30.721648,"lng":56.77975,"addr":"","type":"place_of_worship"},{"id":"xx307180_567764","name":"شهدا","lat":30.717958,"lng":56.776365,"addr":"","type":"place_of_worship"},{"id":"xx337562_591644","name":"مسجد غدیر","lat":33.756158,"lng":59.164384,"addr":"","type":"place_of_worship"},{"id":"xx307610_566168","name":"امامزاده عبدالله","lat":30.761017,"lng":56.616784,"addr":"","type":"place_of_worship"},{"id":"xx328895_592217","name":"Islamic place","lat":32.889452,"lng":59.221658,"addr":"","type":"yes"},{"id":"xx328612_592166","name":"مسجد","lat":32.861237,"lng":59.216571,"addr":"","type":"yes"},{"id":"xx308797_552708","name":"امامزاده محمد صالح","lat":30.879715,"lng":55.270799,"addr":"","type":"imamzadeh"},{"id":"xx316022_553940","name":"مسجد مهدیه","lat":31.602217,"lng":55.394008,"addr":"","type":"mosque"},{"id":"xx302986_570604","name":"Islamic place","lat":30.298648,"lng":57.060436,"addr":"","type":"place_of_worship"},{"id":"xx313409_564971","name":"Islamic place","lat":31.340904,"lng":56.497086,"addr":"","type":"mosque"},{"id":"xx304139_573603","name":"Islamic place","lat":30.41391,"lng":57.36028,"addr":"","type":"place_of_worship"},{"id":"xx327741_588852","name":"مسجد امام رضا","lat":32.774121,"lng":58.885163,"addr":"","type":"place_of_worship"},{"id":"xx327761_588790","name":"مسجد جامع","lat":32.776097,"lng":58.878994,"addr":"","type":"place_of_worship"},{"id":"xx327781_588825","name":"هیئت حسینی","lat":32.778094,"lng":58.88249,"addr":"","type":"place_of_worship"},{"id":"xx327782_588822","name":"مسجد امام موسی ابن جعفر","lat":32.778173,"lng":58.88224,"addr":"","type":"place_of_worship"},{"id":"xx327745_588772","name":"هیئت علی ابن ابطالب","lat":32.774476,"lng":58.87718,"addr":"","type":"place_of_worship"},{"id":"xx327889_588597","name":"امام زاده سید ابوالقاسم","lat":32.788943,"lng":58.859723,"addr":"","type":"place_of_worship"},{"id":"xx327806_588893","name":"مسجد امیرالمؤمنین","lat":32.780624,"lng":58.88926,"addr":"","type":"place_of_worship"},{"id":"xx323964_590208","name":"مزار شاه سلیمان علی","lat":32.396371,"lng":59.020766,"addr":"","type":"mosque"},{"id":"xx326337_594569","name":"مزار بی بی زینب خاتون","lat":32.633659,"lng":59.456857,"addr":"","type":"mosque"},{"id":"xx315960_553923","name":"مسجد امام جعفر صادق","lat":31.59596,"lng":55.392255,"addr":"","type":"place_of_worship"},{"id":"xx316004_553952","name":"تکیه انصار الحسین","lat":31.600428,"lng":55.395241,"addr":"","type":"mosque"},{"id":"xx330011_555487","name":"Islamic place","lat":33.001122,"lng":55.548689,"addr":"","type":"place_of_worship"},{"id":"xx317180_550766","name":"مسجد حضرت ابوالفضل علیه السلام","lat":31.718002,"lng":55.076579,"addr":"","type":"place_of_worship"},{"id":"xx329095_592476","name":"مسجد","lat":32.909545,"lng":59.247556,"addr":"","type":"place_of_worship"},{"id":"xx328719_591416","name":"مسجد حضرت ابوالفضل (ع)","lat":32.871885,"lng":59.141587,"addr":"خیابان آزادی","type":"place_of_worship"},{"id":"xx316211_554150","name":"مسجد جواد الائمه","lat":31.621075,"lng":55.415023,"addr":"","type":"mosque"},{"id":"xx316048_553968","name":"مسحد ابوالفضل","lat":31.604797,"lng":55.396797,"addr":"","type":"mosque"},{"id":"xx316057_553956","name":"مسحد قبا","lat":31.605706,"lng":55.395583,"addr":"","type":"mosque"},{"id":"xx315977_553865","name":"نمازخانه","lat":31.597736,"lng":55.386516,"addr":"","type":"place_of_worship"},{"id":"xx316081_554053","name":"مسجد دو طفلان مسلم","lat":31.608095,"lng":55.405255,"addr":"","type":"place_of_worship"},{"id":"xx316098_554106","name":"مسجد چهارده معصوم","lat":31.609813,"lng":55.410643,"addr":"","type":"mosque"},{"id":"xx328616_592018","name":"مسجد امام صادق (ع)","lat":32.861627,"lng":59.201795,"addr":"","type":"place_of_worship"},{"id":"xx325729_597995","name":"مسجد علوی بازار","lat":32.572865,"lng":59.799478,"addr":"","type":"mosque"},{"id":"xx325791_597959","name":"مسجد علی ابن ابیطالب","lat":32.579083,"lng":59.79588,"addr":"","type":"place_of_worship"},{"id":"xx328513_592266","name":"مسجد ولیعصر عج","lat":32.851267,"lng":59.226563,"addr":"","type":"place_of_worship"},{"id":"xx329331_592883","name":"مسجد حضرت علی علیه السلام","lat":32.933143,"lng":59.288323,"addr":"","type":"mosque"},{"id":"xx302638_570496","name":"Islamic place","lat":30.263804,"lng":57.049569,"addr":"","type":"place_of_worship"},{"id":"xx302843_570504","name":"Islamic place","lat":30.284321,"lng":57.050424,"addr":"","type":"place_of_worship"},{"id":"xx335940_569191","name":"مسجد جامع","lat":33.593984,"lng":56.919147,"addr":"","type":"place_of_worship"},{"id":"xx302822_570309","name":"مسجد امام رضا","lat":30.282169,"lng":57.030923,"addr":"","type":"mosque"},{"id":"xx302681_570370","name":"مسجد امام محمد باقر","lat":30.2681,"lng":57.037048,"addr":"","type":"mosque"},{"id":"xx302698_570414","name":"مسجد امیر المؤمنین","lat":30.269759,"lng":57.041388,"addr":"","type":"place_of_worship"},{"id":"xx302292_571116","name":"نمازخانه عمومی","lat":30.229209,"lng":57.111645,"addr":"","type":"mosque"},{"id":"xx302864_570643","name":"زیارتگاه عباسعلی","lat":30.286422,"lng":57.064332,"addr":"","type":"place_of_worship"},{"id":"xx302909_570816","name":"مسجد وکیل","lat":30.290938,"lng":57.08157,"addr":"","type":"place_of_worship"},{"id":"xx302914_571193","name":"مسجد فروزی","lat":30.291406,"lng":57.119303,"addr":"","type":"mosque"},{"id":"xx300624_571123","name":"امامزاده حسین","lat":30.062397,"lng":57.112298,"addr":"","type":"imamzadeh"},{"id":"xx302851_570247","name":"نمازخانه","lat":30.285058,"lng":57.024703,"addr":"","type":"mosque"},{"id":"xx343611_598641","name":"حسینیه قمر بنی هاشم","lat":34.361111,"lng":59.864121,"addr":"","type":"place_of_worship"},{"id":"xx337780_550868","name":"مسجد عرب ها","lat":33.777951,"lng":55.086801,"addr":"","type":"place_of_worship"},{"id":"xx337775_550781","name":"الزهرا","lat":33.777471,"lng":55.078059,"addr":"","type":"place_of_worship"},{"id":"xx337746_550752","name":"Islamic place","lat":33.774594,"lng":55.075211,"addr":"","type":"place_of_worship"},{"id":"xx302431_571101","name":"مسجد","lat":30.243058,"lng":57.110098,"addr":"","type":"mosque"},{"id":"xx302778_570361","name":"Islamic place","lat":30.277828,"lng":57.036071,"addr":"","type":"mosque"},{"id":"xx302297_553757","name":"مسجد میمند","lat":30.229729,"lng":55.375655,"addr":"","type":"place_of_worship"},{"id":"xx302858_571214","name":"نمازخانه","lat":30.285826,"lng":57.121361,"addr":"","type":"mosque"},{"id":"xx340383_587201","name":"امامزاده عبدالله کارشک","lat":34.038285,"lng":58.720051,"addr":"","type":"mosque"},{"id":"xx307630_569328","name":"Islamic place","lat":30.762981,"lng":56.932819,"addr":"","type":"place_of_worship"},{"id":"xx307635_569312","name":"Islamic place","lat":30.763488,"lng":56.931163,"addr":"","type":"place_of_worship"},{"id":"xx308066_569238","name":"شاهزاده محمد","lat":30.806625,"lng":56.923825,"addr":"","type":"place_of_worship"},{"id":"xx346101_587232","name":"مسجد شهدا","lat":34.610065,"lng":58.723236,"addr":"","type":"mosque"},{"id":"xx335443_591795","name":"نمازخانه راهداری","lat":33.544284,"lng":59.179533,"addr":"","type":"place_of_worship"},{"id":"xx328478_592073","name":"دبیرستان امام سجاد","lat":32.847803,"lng":59.2073,"addr":"خیابان بهار","type":"school"},{"id":"xx303055_570526","name":"مسجد ابوالفضل","lat":30.305497,"lng":57.052588,"addr":"","type":"place_of_worship"},{"id":"xx303028_570594","name":"تکیه ابوالفضل","lat":30.302842,"lng":57.059359,"addr":"","type":"place_of_worship"},{"id":"xx333309_551072","name":"امامزاده ابومحمد ابراهیم (ع)","lat":33.330895,"lng":55.107207,"addr":"","type":"place_of_worship"},{"id":"xx302980_570783","name":"مسجد امام زمان","lat":30.298045,"lng":57.078311,"addr":"","type":"place_of_worship"},{"id":"xx303151_570391","name":"نمازخانه","lat":30.315134,"lng":57.039075,"addr":"","type":"mosque"},{"id":"xx302990_570697","name":"حسینیه ثارالله","lat":30.298996,"lng":57.069747,"addr":"","type":"mosque"},{"id":"xx304630_556615","name":"مسجد جامع المهدی","lat":30.463038,"lng":55.661462,"addr":"","type":"place_of_worship"},{"id":"xx336034_569453","name":"مسجد امام رضا","lat":33.603448,"lng":56.945269,"addr":"","type":"place_of_worship"},{"id":"xx336018_569500","name":"مسجد خالوئی","lat":33.601821,"lng":56.94999,"addr":"","type":"place_of_worship"},{"id":"xx335963_569122","name":"مسجد ولیعصر","lat":33.596268,"lng":56.912195,"addr":"","type":"place_of_worship"},{"id":"xx338578_585226","name":"مسجد سلمان","lat":33.857772,"lng":58.522643,"addr":"","type":"place_of_worship"},{"id":"xx338575_585218","name":"مسجد مرحوم غلامرضا امیری","lat":33.857531,"lng":58.52178,"addr":"","type":"place_of_worship"},{"id":"xx338562_585193","name":"مسجد جامع سرایان","lat":33.856211,"lng":58.519287,"addr":"","type":"place_of_worship"},{"id":"xx314143_562775","name":"مسجد امام خمینی","lat":31.414341,"lng":56.277475,"addr":"","type":"place_of_worship"},{"id":"xx314134_562794","name":"حسینیه و مجتمع فرهنگی قمر بنی هاشم","lat":31.413424,"lng":56.279424,"addr":"","type":"place_of_worship"},{"id":"xx314332_562694","name":"مسجد امام صادق","lat":31.433156,"lng":56.269427,"addr":"","type":"place_of_worship"},{"id":"xx302927_570372","name":"مسجد امام حسین ع","lat":30.292728,"lng":57.037228,"addr":"","type":"mosque"},{"id":"xx303654_560405","name":"مسجد ابوالفضل","lat":30.365382,"lng":56.040458,"addr":"","type":"place_of_worship"},{"id":"xx303756_560257","name":"مسجد موس ابن جعفر","lat":30.375582,"lng":56.025737,"addr":"","type":"place_of_worship"},{"id":"xx303760_558912","name":"مسجد امام حسن مجتبی (ع)","lat":30.375968,"lng":55.891234,"addr":"","type":"place_of_worship"},{"id":"xx304023_557650","name":"مجموعه مسجد ابوالفضل رفسنجان","lat":30.402292,"lng":55.764987,"addr":"","type":"place_of_worship"},{"id":"xx300725_572877","name":"مسجد الرضا(ع)","lat":30.072539,"lng":57.287663,"addr":"خیابان طالقانی","type":"place_of_worship"},{"id":"xx317970_589952","name":"مسجد صاحب الزمان","lat":31.796974,"lng":58.995178,"addr":"","type":"place_of_worship"},{"id":"xx311984_593216","name":"fatima","lat":31.198386,"lng":59.321599,"addr":"","type":"place_of_worship"},{"id":"xx327881_588978","name":"مسجد امیرالمؤمنین","lat":32.78809,"lng":58.897849,"addr":"","type":"place_of_worship"},{"id":"xx319582_591163","name":"مسجد","lat":31.958216,"lng":59.116289,"addr":"","type":"place_of_worship"},{"id":"xx334213_598105","name":"Islamic place","lat":33.421334,"lng":59.81054,"addr":"","type":"place_of_worship"},{"id":"xx338450_574339","name":"مسجد ابوالفضل","lat":33.845038,"lng":57.433913,"addr":"","type":"place_of_worship"},{"id":"xx337216_568067","name":"مسجد جامع صاحب الزمان (عج)","lat":33.721619,"lng":56.806687,"addr":"","type":"place_of_worship"},{"id":"xx319769_591255","name":"مسجد روستای کمر سبز","lat":31.976888,"lng":59.125503,"addr":"","type":"place_of_worship"},{"id":"xx328546_592046","name":"مسجد بقیع","lat":32.854555,"lng":59.204606,"addr":"","type":"place_of_worship"},{"id":"xx336550_563468","name":"مسجد جعفری","lat":33.655042,"lng":56.34683,"addr":"","type":"place_of_worship"},{"id":"xx343703_569530","name":"مسجد بین راهی","lat":34.370275,"lng":56.952964,"addr":"","type":"place_of_worship"},{"id":"xx304273_559823","name":"Islamic place","lat":30.427322,"lng":55.9823,"addr":"","type":"place_of_worship"},{"id":"xx303780_559313","name":"Islamic place","lat":30.377974,"lng":55.931302,"addr":"","type":"place_of_worship"},{"id":"xx312656_568062","name":"مسجد جامع","lat":31.265557,"lng":56.80615,"addr":"","type":"place_of_worship"},{"id":"xx304072_559956","name":"حسینیه نخل (هیات کربلا رفسنجان)","lat":30.407178,"lng":55.995608,"addr":"","type":"place_of_worship"},{"id":"xx300083_554152","name":"حسینیه خاتون‌آباد","lat":30.008252,"lng":55.415238,"addr":"","type":"place_of_worship"},{"id":"xx308186_566059","name":"مسجد دوازده امام","lat":30.818566,"lng":56.605854,"addr":"","type":"place_of_worship"},{"id":"xx328485_592211","name":"مسجد حضرت ابوالفضل (ع)","lat":32.848491,"lng":59.221092,"addr":"پانزده خرداد","type":"place_of_worship"},{"id":"xx302729_571378","name":"مسجد ابوالفضل","lat":30.272865,"lng":57.137825,"addr":"","type":"place_of_worship"},{"id":"xx302849_571269","name":"نمازخانه","lat":30.284882,"lng":57.126857,"addr":"","type":"place_of_worship"},{"id":"xx301978_575607","name":"مسجد جامع سیرچ","lat":30.197821,"lng":57.560707,"addr":"","type":"place_of_worship"},{"id":"xx302047_574742","name":"مسجد ابوالفضل","lat":30.204656,"lng":57.474218,"addr":"","type":"place_of_worship"},{"id":"xx302959_570779","name":"مسجد آیت الله","lat":30.29586,"lng":57.077887,"addr":"","type":"place_of_worship"},{"id":"xx302984_570809","name":"مسجد کربلایی صادق","lat":30.29842,"lng":57.08089,"addr":"","type":"place_of_worship"},{"id":"xx302961_570788","name":"مسجد گنج","lat":30.296145,"lng":57.078798,"addr":"","type":"place_of_worship"},{"id":"xx302969_570804","name":"مسجد پامنار","lat":30.296882,"lng":57.080439,"addr":"","type":"place_of_worship"},{"id":"xx302921_570776","name":"مسجد امام صادق","lat":30.292054,"lng":57.077644,"addr":"","type":"place_of_worship"},{"id":"xx302892_570769","name":"مسجد آقا غلامعلی","lat":30.289152,"lng":57.076948,"addr":"","type":"place_of_worship"},{"id":"xx306326_574228","name":"مقبره ابراهیم ادهم (مزار شاه)","lat":30.632576,"lng":57.422848,"addr":"","type":"mosque"},{"id":"xx302928_570785","name":"مسجد حاج آقا علی (چهل ستون)","lat":30.292781,"lng":57.078531,"addr":"","type":"place_of_worship"},{"id":"xx302837_570726","name":"مسجد طالبی","lat":30.283693,"lng":57.072579,"addr":"","type":"place_of_worship"},{"id":"xx302915_570842","name":"صفه عزاخانه","lat":30.291465,"lng":57.084198,"addr":"","type":"place_of_worship"},{"id":"xx302918_570751","name":"تکیه گلبازخان","lat":30.291839,"lng":57.075107,"addr":"","type":"place_of_worship"},{"id":"xx302728_571312","name":"مسجد چهاردده معصوم","lat":30.272767,"lng":57.13117,"addr":"","type":"place_of_worship"},{"id":"xx303946_559749","name":"مسجد جوادیه","lat":30.394638,"lng":55.974854,"addr":"","type":"place_of_worship"},{"id":"xx328791_592114","name":"مسجد خواجه‌ها","lat":32.879128,"lng":59.2114,"addr":"","type":"place_of_worship"},{"id":"xx328656_591869","name":"مسجد جامع الغدیر","lat":32.865582,"lng":59.186916,"addr":"","type":"place_of_worship"},{"id":"xx340166_584842","name":"Islamic place","lat":34.016552,"lng":58.484207,"addr":"","type":"place_of_worship"},{"id":"xx340150_584873","name":"Islamic place","lat":34.014983,"lng":58.487307,"addr":"","type":"place_of_worship"},{"id":"xx302932_571038","name":"Islamic place","lat":30.293182,"lng":57.103774,"addr":"","type":"place_of_worship"},{"id":"xx335960_569230","name":"هیئت چهارده معصوم","lat":33.596002,"lng":56.923015,"addr":"","type":"place_of_worship"},{"id":"xx302817_570893","name":"نمازخانه","lat":30.281748,"lng":57.089344,"addr":"","type":"place_of_worship"},{"id":"xx335551_588732","name":"مسجد فاطمه الزهرا","lat":33.555096,"lng":58.873169,"addr":"","type":"mosque"},{"id":"xx339885_569805","name":"prayer room","lat":33.988482,"lng":56.980457,"addr":"","type":"mosque"},{"id":"xx305792_578525","name":"نمازخانه","lat":30.579204,"lng":57.852522,"addr":"","type":"mosque"},{"id":"xx300713_572929","name":"مسجد حضرت ابوالفضل","lat":30.071318,"lng":57.292862,"addr":"","type":"place_of_worship"},{"id":"xx333038_594144","name":"مسجد بالای ده","lat":33.303769,"lng":59.414369,"addr":"","type":"place_of_worship"},{"id":"xx318573_558095","name":"مسجد روستای پرک","lat":31.857323,"lng":55.809466,"addr":"","type":"place_of_worship"},{"id":"xx318366_558136","name":"مسجد سنجدک","lat":31.836589,"lng":55.813649,"addr":"","type":"place_of_worship"},{"id":"xx304056_559886","name":"حسینیه نجارها","lat":30.405649,"lng":55.988638,"addr":"","type":"place_of_worship"},{"id":"xx337274_591698","name":"مسجد قبا","lat":33.727357,"lng":59.169793,"addr":"","type":"place_of_worship"},{"id":"xx329430_584408","name":"مسجد خور","lat":32.94303,"lng":58.440793,"addr":"","type":"place_of_worship"},{"id":"xx312738_568099","name":"امام زاده بی بی معصومه","lat":31.273778,"lng":56.80988,"addr":"","type":"place_of_worship"},{"id":"xx312646_568187","name":"مسجد الزهرا","lat":31.264642,"lng":56.81871,"addr":"","type":"place_of_worship"},{"id":"xx301189_551144","name":"مسجد نور","lat":30.118926,"lng":55.114397,"addr":"","type":"place_of_worship"},{"id":"xx327217_595284","name":"مسجد صاحب الزمان(عج)","lat":32.721741,"lng":59.52839,"addr":"","type":"mosque"},{"id":"xx304533_559104","name":"عباسیه","lat":30.453341,"lng":55.910367,"addr":"","type":"place_of_worship"},{"id":"xx338914_574106","name":"نمازخانه و مجتمع رفاهی امام رضا (ع)","lat":33.89142,"lng":57.410586,"addr":"","type":"place_of_worship"},{"id":"xx339656_573645","name":"مسجد جامع","lat":33.965632,"lng":57.364485,"addr":"","type":"place_of_worship"},{"id":"xx304327_559947","name":"مسجد جامع رستم آباد","lat":30.432714,"lng":55.994653,"addr":"","type":"place_of_worship"},{"id":"xx304273_560123","name":"Islamic place","lat":30.427299,"lng":56.012251,"addr":"","type":"place_of_worship"},{"id":"xx304254_560135","name":"Islamic place","lat":30.425441,"lng":56.013483,"addr":"","type":"place_of_worship"},{"id":"xx328584_591869","name":"مسجد حضرت اباالفضل العباس","lat":32.858398,"lng":59.186946,"addr":"","type":"place_of_worship"},{"id":"xx304146_559579","name":"مسجد امام حسن مجتبی","lat":30.414592,"lng":55.957893,"addr":"","type":"place_of_worship"},{"id":"xx304167_559595","name":"مسجد صاحب الزمان","lat":30.416726,"lng":55.959473,"addr":"","type":"place_of_worship"},{"id":"xx304230_559596","name":"سقاخانه","lat":30.422998,"lng":55.959567,"addr":"","type":"place_of_worship"},{"id":"xx304239_559596","name":"مسجد امام سجاد","lat":30.4239,"lng":55.959561,"addr":"","type":"place_of_worship"},{"id":"xx345112_581783","name":"مسجد امام علی","lat":34.51122,"lng":58.178285,"addr":"","type":"place_of_worship"},{"id":"xx345142_581825","name":"مصلی نماز جمعه","lat":34.514242,"lng":58.182496,"addr":"","type":"place_of_worship"},{"id":"xx345187_581884","name":"مسجد فاطمه زهرا","lat":34.51867,"lng":58.188409,"addr":"","type":"place_of_worship"},{"id":"xx332806_575169","name":"مسجد امام حسین","lat":33.2806,"lng":57.516916,"addr":"","type":"place_of_worship"},{"id":"xx308281_558090","name":"مسجد شهدا","lat":30.82807,"lng":55.808999,"addr":"","type":"place_of_worship"},{"id":"xx308297_558074","name":"مسجد صاحب الزمان","lat":30.829684,"lng":55.807412,"addr":"","type":"place_of_worship"},{"id":"xx308297_558079","name":"گلزار شهدا شهر صفائیه","lat":30.82965,"lng":55.807884,"addr":"","type":"place_of_worship"},{"id":"xx308263_558078","name":"مسجد جامع","lat":30.826332,"lng":55.807771,"addr":"","type":"place_of_worship"},{"id":"xx310098_555577","name":"Islamic place","lat":31.00982,"lng":55.557665,"addr":"","type":"place_of_worship"},{"id":"xx304133_559903","name":"مقبره خانوادگی افصح هجری","lat":30.413332,"lng":55.990329,"addr":"","type":"place_of_worship"},{"id":"xx334950_551563","name":"Madjeh","lat":33.495034,"lng":55.156301,"addr":"","type":"place_of_worship"},{"id":"xx305184_560428","name":"مسجد امام حسین (ع)","lat":30.518434,"lng":56.042775,"addr":"جاده روستای مهدی آباد معاون","type":"place_of_worship"},{"id":"xx301429_551072","name":"مسجد حاج درویش","lat":30.142906,"lng":55.107228,"addr":"","type":"place_of_worship"},{"id":"xx301446_551044","name":"مسجد شهرک رزمندگان","lat":30.144624,"lng":55.104359,"addr":"","type":"place_of_worship"},{"id":"xx301374_551062","name":"حسینیه پیرجل","lat":30.13743,"lng":55.106178,"addr":"","type":"place_of_worship"},{"id":"xx301374_551131","name":"مسجد امام جعفر صادق","lat":30.137358,"lng":55.113092,"addr":"","type":"place_of_worship"},{"id":"xx328826_592160","name":"مسجد حائری","lat":32.882592,"lng":59.216026,"addr":"","type":"place_of_worship"},{"id":"xx328639_592058","name":"مسجد چهارده معصوم","lat":32.863913,"lng":59.205767,"addr":"","type":"place_of_worship"},{"id":"xx310019_559834","name":"امامزاده جعفر","lat":31.001858,"lng":55.983404,"addr":"","type":"place_of_worship"},{"id":"xx328658_592115","name":"مسجد محمدامین (ص)","lat":32.865788,"lng":59.211536,"addr":"نواب صفوی ۱۲","type":"place_of_worship"},{"id":"xx300001_558012","name":"مسجد حضرت ابوالفضل","lat":30.000069,"lng":55.801226,"addr":"","type":"place_of_worship"},{"id":"xx303712_559498","name":"Islamic place","lat":30.371207,"lng":55.949807,"addr":"","type":"place_of_worship"},{"id":"xx328983_592301","name":"نمازخانه اهل سنت امیر حمزه (رض)","lat":32.898253,"lng":59.230086,"addr":"نیروی هوایی ۲۸","type":"place_of_worship"},{"id":"xx300841_571641","name":"مسجد جامع","lat":30.08411,"lng":57.164091,"addr":"","type":"place_of_worship"},{"id":"xx336004_599913","name":"Islamic place","lat":33.600419,"lng":59.991349,"addr":"","type":"mosque"},{"id":"xx334527_590004","name":"امامزاده زیدبن‌موسی‌بن جعفر(ع)","lat":33.452708,"lng":59.000392,"addr":"","type":"yes"},{"id":"xx303039_570388","name":"مسجد","lat":30.303895,"lng":57.03883,"addr":"","type":"mosque"},{"id":"xx341057_582965","name":"مسجد امام حسین","lat":34.105715,"lng":58.296461,"addr":"","type":"place_of_worship"},{"id":"xx340155_581598","name":"مسجد جوادالائمه","lat":34.015491,"lng":58.159799,"addr":"","type":"place_of_worship"},{"id":"xx310090_555693","name":"Islamic place","lat":31.008976,"lng":55.569286,"addr":"","type":"place_of_worship"},{"id":"xx340427_582296","name":"مسجد و تکیه حضرت رقیه","lat":34.042693,"lng":58.229593,"addr":"","type":"place_of_worship"},{"id":"xx343828_587017","name":"مسجد صاحب‌الزمان (عج) شهرک آیت‌ا.. مدنی بیلند","lat":34.38279,"lng":58.70167,"addr":"صاحب‌الزمان (عج) شهرک آیت‌ا... مدنی بیلیند","type":"place_of_worship"},{"id":"xx348297_598908","name":"مسجد جامع","lat":34.829716,"lng":59.890785,"addr":"","type":"place_of_worship"},{"id":"xx339161_589282","name":"Islamic place","lat":33.916079,"lng":58.928223,"addr":"","type":"place_of_worship"},{"id":"xx339151_589348","name":"Islamic place","lat":33.915107,"lng":58.934838,"addr":"","type":"place_of_worship"},{"id":"xx339133_589306","name":"Islamic place","lat":33.913251,"lng":58.930624,"addr":"","type":"place_of_worship"},{"id":"xx325800_590150","name":"Islamic place","lat":32.580034,"lng":59.01497,"addr":"","type":"place_of_worship"},{"id":"xx334106_569528","name":"حسینیه آقا علی","lat":33.410646,"lng":56.952787,"addr":"","type":"place_of_worship"},{"id":"xx334116_569528","name":"مسجد جامع فهالنج","lat":33.411587,"lng":56.952824,"addr":"","type":"place_of_worship"},{"id":"xx334117_569531","name":"هیئت چهارده معصوم","lat":33.411682,"lng":56.953108,"addr":"","type":"place_of_worship"},{"id":"xx328428_593258","name":"مسجد جامع بجد","lat":32.842799,"lng":59.325838,"addr":"","type":"place_of_worship"},{"id":"xx328333_593266","name":"مسجد محمد رسول الله","lat":32.833329,"lng":59.326577,"addr":"","type":"place_of_worship"},{"id":"xx316052_553891","name":"تکیه امام حسن مجتبی علیه السلام","lat":31.605169,"lng":55.389092,"addr":"","type":"place_of_worship"},{"id":"xx316223_554357","name":"مهدیه مبارکه","lat":31.622348,"lng":55.435704,"addr":"","type":"place_of_worship"},{"id":"xx328720_591465","name":"Islamic place","lat":32.872,"lng":59.146457,"addr":"ولیعصر ۷","type":"place_of_worship"},{"id":"xx313412_560173","name":"حسینیه روستای فتح آباد کوهبنان","lat":31.34116,"lng":56.017311,"addr":"","type":"place_of_worship"},{"id":"xx303095_570332","name":"مسجد بقیةالله (عج)","lat":30.309457,"lng":57.033185,"addr":"","type":"place_of_worship"},{"id":"xx310510_562148","name":"مهدیه سیدسردار","lat":31.050972,"lng":56.214844,"addr":"بلوار سید سردار","type":"place_of_worship"},{"id":"xx310505_562150","name":"Islamic place","lat":31.050498,"lng":56.214999,"addr":"بلوار سید سردار","type":"grave_yard"},{"id":"xx309140_561605","name":"mosque","lat":30.913998,"lng":56.1605,"addr":"","type":"place_of_worship"},{"id":"xx344706_589104","name":"مسجد جامع","lat":34.47063,"lng":58.910406,"addr":"","type":"place_of_worship"},{"id":"xx336425_597765","name":"مصلی","lat":33.642466,"lng":59.776483,"addr":"","type":"place_of_worship"},{"id":"xx336395_597745","name":"مسجد فاطمه زهرا","lat":33.639535,"lng":59.774465,"addr":"","type":"place_of_worship"},{"id":"xx336033_599938","name":"مسجد سید الشهدا","lat":33.603314,"lng":59.993842,"addr":"","type":"place_of_worship"},{"id":"xx336069_599941","name":"مسجد جامع","lat":33.60688,"lng":59.994076,"addr":"","type":"place_of_worship"},{"id":"xx336053_599814","name":"Islamic place","lat":33.60533,"lng":59.981418,"addr":"","type":"place_of_worship"},{"id":"xx302853_569883","name":"مسجد المعین","lat":30.285343,"lng":56.988277,"addr":"","type":"place_of_worship"},{"id":"xx329797_599186","name":"مسجد بلال","lat":32.979687,"lng":59.918607,"addr":"","type":"place_of_worship"},{"id":"xx304192_569095","name":"مصلی","lat":30.419185,"lng":56.909526,"addr":"","type":"place_of_worship"},{"id":"xx305964_569002","name":"Islamic place","lat":30.596381,"lng":56.900197,"addr":"","type":"place_of_worship"},{"id":"xx305953_569008","name":"Islamic place","lat":30.595337,"lng":56.900754,"addr":"","type":"place_of_worship"},{"id":"xx306045_569052","name":"Islamic place","lat":30.604542,"lng":56.905167,"addr":"","type":"place_of_worship"},{"id":"xx343641_586777","name":"مسجد امیرالمؤمنین","lat":34.364111,"lng":58.677731,"addr":"","type":"place_of_worship"},{"id":"xx339791_581200","name":"نمازخانه بین‌راهی","lat":33.979132,"lng":58.119963,"addr":"","type":"place_of_worship"},{"id":"xx303224_599942","name":"Islamic place","lat":30.322449,"lng":59.994222,"addr":"","type":"place_of_worship"},{"id":"xx338715_574310","name":"مسجد حجت","lat":33.871464,"lng":57.431002,"addr":"","type":"place_of_worship"},{"id":"xx338689_574263","name":"حسینیه حاج علی اشرف","lat":33.868877,"lng":57.426306,"addr":"","type":"place_of_worship"},{"id":"xx338686_574263","name":"مسجد میان ده","lat":33.868623,"lng":57.42631,"addr":"","type":"place_of_worship"},{"id":"xx338681_574261","name":"مسجد نخل","lat":33.86811,"lng":57.426082,"addr":"","type":"place_of_worship"},{"id":"xx300800_572912","name":"مسجد سید الشهدا","lat":30.079998,"lng":57.291215,"addr":"","type":"place_of_worship"},{"id":"xx300710_572895","name":"امامزاده هاجر","lat":30.070955,"lng":57.289505,"addr":"","type":"imamzadeh"},{"id":"xx300653_572849","name":"Islamic place","lat":30.065292,"lng":57.284872,"addr":"","type":"place_of_worship"},{"id":"xx343501_586851","name":"مسجد جامع","lat":34.350131,"lng":58.685148,"addr":"","type":"place_of_worship"},{"id":"xx341629_582382","name":"مسجد جامع برون","lat":34.162851,"lng":58.23824,"addr":"","type":"place_of_worship"},{"id":"xx340156_581634","name":"مسجد میرزا","lat":34.015566,"lng":58.16341,"addr":"","type":"place_of_worship"},{"id":"xx340071_581661","name":"مسجد ملایوسف","lat":34.007083,"lng":58.166055,"addr":"","type":"place_of_worship"},{"id":"xx340323_581096","name":"مسجد حجة ابن الحسن","lat":34.032265,"lng":58.109617,"addr":"","type":"place_of_worship"},{"id":"xx340326_581076","name":"مسجد حضرت فاطمه زهرا (س)","lat":34.032558,"lng":58.107584,"addr":"","type":"place_of_worship"},{"id":"xx341178_579506","name":"مسجد طاهریه","lat":34.117813,"lng":57.950632,"addr":"","type":"place_of_worship"},{"id":"xx340506_582246","name":"مسجد حبیب ابن مظاهر","lat":34.050632,"lng":58.2246,"addr":"","type":"place_of_worship"},{"id":"xx312713_568131","name":"مسجد میلانی","lat":31.271303,"lng":56.813135,"addr":"","type":"place_of_worship"},{"id":"xx312777_568025","name":"مسجد ثامن الحجج","lat":31.277664,"lng":56.802487,"addr":"","type":"place_of_worship"},{"id":"xx341581_582423","name":"Islamic place","lat":34.158117,"lng":58.242333,"addr":"","type":"place_of_worship"},{"id":"xx340370_582238","name":"مسجد ابوذر","lat":34.03704,"lng":58.223759,"addr":"","type":"place_of_worship"},{"id":"xx342415_582597","name":"مسجد","lat":34.241491,"lng":58.259743,"addr":"","type":"place_of_worship"},{"id":"xx343736_569244","name":"هیات ابوالفضلی زیرک آباد","lat":34.373568,"lng":56.924438,"addr":"","type":"place_of_worship"},{"id":"xx343636_569159","name":"مسجد حضرت زینب س","lat":34.363622,"lng":56.915934,"addr":"","type":"place_of_worship"},{"id":"xx343627_569163","name":"هیات ابوالفضلی غنی آباد","lat":34.36271,"lng":56.916349,"addr":"","type":"place_of_worship"},{"id":"xx343534_569274","name":"حسینیه میان آباد","lat":34.353408,"lng":56.927397,"addr":"","type":"place_of_worship"},{"id":"xx343686_569289","name":"هیات حسینی عشق آباد","lat":34.368575,"lng":56.928918,"addr":"","type":"place_of_worship"},{"id":"xx343686_569281","name":"مسجد ابوالفضلی عشق آباد","lat":34.368555,"lng":56.928081,"addr":"","type":"place_of_worship"},{"id":"xx343686_569301","name":"مسجد صاحب الزمان عج","lat":34.368635,"lng":56.930128,"addr":"","type":"place_of_worship"},{"id":"xx339908_569785","name":"حسینیه ده محمد","lat":33.990791,"lng":56.978507,"addr":"","type":"place_of_worship"},{"id":"xx343659_569224","name":"مسجد حضرت زهرا س","lat":34.365904,"lng":56.922385,"addr":"","type":"place_of_worship"},{"id":"xx343713_569400","name":"هیات امام سجاد نجات آباد","lat":34.371349,"lng":56.940019,"addr":"","type":"place_of_worship"},{"id":"xx343123_569054","name":"هیات ابوالفضلی هودر","lat":34.312311,"lng":56.905392,"addr":"","type":"place_of_worship"},{"id":"xx343262_571179","name":"حسینیه آبخورگ","lat":34.326184,"lng":57.11795,"addr":"","type":"place_of_worship"},{"id":"xx349026_572487","name":"مسجد تپه طاق","lat":34.902626,"lng":57.248745,"addr":"","type":"place_of_worship"},{"id":"xx343810_569483","name":"حسینیه کاظم آباد","lat":34.381006,"lng":56.948265,"addr":"","type":"place_of_worship"},{"id":"xx343804_569483","name":"مسجد کاظم آباد","lat":34.380384,"lng":56.948282,"addr":"","type":"place_of_worship"},{"id":"xx341162_565028","name":"مزار شیخ احمد ابن اسحاق","lat":34.116211,"lng":56.502779,"addr":"","type":"mosque"},{"id":"xx343670_569353","name":"مهدیه عشق آباد","lat":34.367024,"lng":56.935273,"addr":"","type":"place_of_worship"},{"id":"xx343742_569161","name":"حسینیه قائمیه","lat":34.374171,"lng":56.916116,"addr":"","type":"place_of_worship"},{"id":"xx343105_569069","name":"مسجد امام رضا ع","lat":34.310538,"lng":56.906868,"addr":"","type":"place_of_worship"},{"id":"xx343538_569276","name":"زینبیه میان آباد","lat":34.353823,"lng":56.9276,"addr":"","type":"place_of_worship"},{"id":"xx343518_569273","name":"مسجد امام علی میان آباد","lat":34.351825,"lng":56.927343,"addr":"","type":"place_of_worship"},{"id":"xx343747_569158","name":"مسجد قائمیه","lat":34.374699,"lng":56.915841,"addr":"","type":"place_of_worship"},{"id":"xx340205_581622","name":"مسجد غفاری","lat":34.020548,"lng":58.16221,"addr":"","type":"place_of_worship"},{"id":"xx343444_586924","name":"Fateme Zahra","lat":34.344415,"lng":58.692443,"addr":"","type":"place_of_worship"},{"id":"xx343689_569300","name":"پایگاه شهید بهشتی","lat":34.368911,"lng":56.930001,"addr":"","type":"place_of_worship"},{"id":"xx342388_582527","name":"نمازخانه","lat":34.238836,"lng":58.252674,"addr":"","type":"place_of_worship"},{"id":"xx342330_582462","name":"Islamic place","lat":34.232959,"lng":58.246192,"addr":"","type":"place_of_worship"},{"id":"xx334683_574048","name":"امامزاده شاهزاده علی","lat":33.468321,"lng":57.404781,"addr":"","type":"imamzadeh"},{"id":"xx340141_581622","name":"مسجد بازار","lat":34.014064,"lng":58.16219,"addr":"","type":"place_of_worship"},{"id":"xx341178_582423","name":"Islamic place","lat":34.117808,"lng":58.242269,"addr":"","type":"place_of_worship"},{"id":"xx342294_582991","name":"امامزاده سلطان کریمشاه","lat":34.229364,"lng":58.299127,"addr":"","type":"place_of_worship"},{"id":"xx341182_583852","name":"مسجد فتح آباد","lat":34.118168,"lng":58.385173,"addr":"","type":"place_of_worship"},{"id":"xx341864_583881","name":"امامزاده سلطان احمد","lat":34.186406,"lng":58.388121,"addr":"","type":"grave_yard"},{"id":"xx343307_580588","name":"Islamic place","lat":34.330724,"lng":58.058815,"addr":"","type":"place_of_worship"},{"id":"xx316864_561115","name":"مسجد صاحب الزمان (عج) روستای پرکوئیه","lat":31.686415,"lng":56.111527,"addr":"","type":"place_of_worship"},{"id":"xx338105_598789","name":"مسجد حضرت ابراهیم بیدخت","lat":33.810546,"lng":59.878919,"addr":"Shahrak-e Bidokht","type":"place_of_worship"},{"id":"xx337101_573684","name":"مزار شهدای گمنام","lat":33.71009,"lng":57.368413,"addr":"","type":"place_of_worship"},{"id":"xx334219_598128","name":"مسجد جامع","lat":33.421941,"lng":59.812816,"addr":"","type":"place_of_worship"},{"id":"xx308407_565833","name":"قبرستان زرند","lat":30.840692,"lng":56.583307,"addr":"","type":"mosque"},{"id":"xx337913_583216","name":"مسجد جامع دوحصاران","lat":33.791336,"lng":58.32158,"addr":"","type":"place_of_worship"},{"id":"xx337300_583423","name":"امامزاده قاسم","lat":33.729973,"lng":58.342325,"addr":"","type":"place_of_worship"},{"id":"xx336650_583964","name":"مسجد جامع سه‌قلعه","lat":33.664965,"lng":58.396431,"addr":"","type":"place_of_worship"},{"id":"xx348783_586275","name":"مسجد جامع میاندهی","lat":34.878302,"lng":58.627473,"addr":"","type":"place_of_worship"},{"id":"xx343156_584476","name":"مسجد سیدالشهدا","lat":34.315602,"lng":58.447553,"addr":"","type":"mosque"},{"id":"xx343001_584509","name":"حسینیه اعظم","lat":34.300088,"lng":58.450874,"addr":"","type":"mosque"},{"id":"xx342994_584498","name":"مسجد جامع شادمهر","lat":34.299436,"lng":58.449775,"addr":"","type":"mosque"},{"id":"xx311503_563921","name":"مسجد جامع طغرلجرد","lat":31.15032,"lng":56.392106,"addr":"","type":"place_of_worship"},{"id":"xx305596_568480","name":"حرم شهدای گمنام شهر کاظم آباد","lat":30.559635,"lng":56.848033,"addr":"","type":"place_of_worship"},{"id":"xx345604_585302","name":"کمر زیارت","lat":34.560392,"lng":58.530205,"addr":"","type":"place_of_worship"},{"id":"xx341461_586568","name":"مزار کاخک","lat":34.146058,"lng":58.656759,"addr":"","type":"mosque"},{"id":"xx340319_587891","name":"Islamic place","lat":34.031862,"lng":58.78905,"addr":"","type":"mosque"},{"id":"xx343627_586734","name":"مسجدالنبی","lat":34.362676,"lng":58.673439,"addr":"","type":"yes"},{"id":"xx345137_581695","name":"Islamic place","lat":34.513714,"lng":58.169481,"addr":"","type":"mosque"},{"id":"xx340021_581652","name":"آرمستان بهشت اکبر","lat":34.002122,"lng":58.165159,"addr":"","type":"mosque"},{"id":"xx340224_581681","name":"Islamic place","lat":34.022404,"lng":58.16811,"addr":"","type":"mosque"},{"id":"xx302649_570591","name":"مسجد امام سجاد","lat":30.264858,"lng":57.059144,"addr":"","type":"mosque"},{"id":"xx302719_571033","name":"Islamic place","lat":30.271851,"lng":57.103325,"addr":"","type":"place_of_worship"},{"id":"xx307192_567800","name":"گلزار شهدا","lat":30.719166,"lng":56.779975,"addr":"","type":"mosque"},{"id":"xx307429_567313","name":"Islamic place","lat":30.742906,"lng":56.73125,"addr":"","type":"mosque"},{"id":"xx343664_586474","name":"بهشت قاسم","lat":34.366371,"lng":58.647446,"addr":"","type":"mosque"},{"id":"xx328527_592331","name":"مسجد محمد رسول الله","lat":32.852717,"lng":59.233084,"addr":"","type":"yes"},{"id":"xx333928_599747","name":"Islamic place","lat":33.392828,"lng":59.974705,"addr":"","type":"yes"},{"id":"xx333041_594116","name":"حسینه","lat":33.304148,"lng":59.411597,"addr":"","type":"yes"},{"id":"xx333050_594115","name":"مسجد جامع","lat":33.304973,"lng":59.411453,"addr":"","type":"mosque"},{"id":"xx333049_594114","name":"مسجد رضیه","lat":33.304894,"lng":59.411384,"addr":"","type":"mosque"},{"id":"xx303073_570306","name":"مسجد امام علی","lat":30.307311,"lng":57.030586,"addr":"","type":"yes"},{"id":"xx328385_592347","name":"مسجد امام موسی کاظم","lat":32.838512,"lng":59.234669,"addr":"بلوار غفاری","type":"mosque"},{"id":"xx328677_592204","name":"مسجد امام حسین","lat":32.867658,"lng":59.220366,"addr":"خیابان شهید تیمورپور","type":"place_of_worship"},{"id":"xx328875_592052","name":"بهشت متقین","lat":32.887458,"lng":59.205217,"addr":"","type":"mosque"},{"id":"xx329482_592241","name":"مسجد","lat":32.948168,"lng":59.224097,"addr":"","type":"yes"},{"id":"xx328438_592240","name":"حسینیه جماران","lat":32.843835,"lng":59.224017,"addr":"","type":"yes"},{"id":"xx328445_592193","name":"مسجد امام هادی","lat":32.844548,"lng":59.219273,"addr":"","type":"yes"},{"id":"xx328930_592364","name":"امامزادگان باقریه","lat":32.892966,"lng":59.236378,"addr":"","type":"mosque"},{"id":"xx302985_570275","name":"مسجد خاتم الانبیا","lat":30.298531,"lng":57.027477,"addr":"","type":"mosque"},{"id":"xx336628_583929","name":"Islamic place","lat":33.662809,"lng":58.392912,"addr":"","type":"mosque"},{"id":"xx338540_585107","name":"Islamic place","lat":33.853969,"lng":58.510696,"addr":"","type":"mosque"},{"id":"xx338528_574276","name":"بهشت امام حسین(ع)","lat":33.852755,"lng":57.427625,"addr":"","type":"mosque"},{"id":"xx346998_592277","name":"بهشت شهید احمدی","lat":34.699768,"lng":59.227727,"addr":"","type":"mosque"},{"id":"xx308413_553325","name":"Islamic place","lat":30.841298,"lng":55.332494,"addr":"","type":"mosque"},{"id":"xx308086_553334","name":"مسجد","lat":30.808612,"lng":55.333444,"addr":"","type":"yes"},{"id":"xx349916_588493","name":"Islamic place","lat":34.991554,"lng":58.849258,"addr":"","type":"mosque"},{"id":"xx335257_550365","name":"امامزاده جنید","lat":33.525732,"lng":55.036536,"addr":"","type":"imamzadeh"},{"id":"xx307364_559189","name":"امامزاده سید جلال الدین","lat":30.736361,"lng":55.918913,"addr":"","type":"place_of_worship"},{"id":"xx343498_586856","name":"مصلی امام خمینی","lat":34.349824,"lng":58.685563,"addr":"گناباد","type":"yes"},{"id":"xx343455_586929","name":"مسجد ابوالفضل صددستگاه","lat":34.34547,"lng":58.692855,"addr":"","type":"yes"},{"id":"xx343445_587631","name":"مسجد جامع بیدخت","lat":34.344473,"lng":58.763094,"addr":"","type":"mosque"},{"id":"xx341639_585818","name":"Islamic place","lat":34.163942,"lng":58.5818,"addr":"","type":"grave_yard"},{"id":"xx315993_553939","name":"مجتمع فرهنگی بیت الرضا","lat":31.599252,"lng":55.393917,"addr":"","type":"yes"},{"id":"xx347020_592218","name":"مسجدجامع","lat":34.702015,"lng":59.221811,"addr":"","type":"place_of_worship"},{"id":"xx316240_554408","name":"حسینیه ابوالفضل","lat":31.623976,"lng":55.440841,"addr":"","type":"yes"},{"id":"xx316041_553912","name":"حسینیه جمعه ها","lat":31.604058,"lng":55.391195,"addr":"","type":"place_of_worship"},{"id":"xx316151_554120","name":"مسجد النبی","lat":31.615148,"lng":55.412048,"addr":"توحید 2","type":"yes"},{"id":"xx315788_554235","name":"بهشت الحسین","lat":31.578807,"lng":55.423473,"addr":"","type":"mosque"},{"id":"xx328640_591944","name":"مصلی المهدی بیرجند","lat":32.863985,"lng":59.19437,"addr":"","type":"place_of_worship"},{"id":"xx328473_592030","name":"مسجد سید الشهدا (ع)","lat":32.847268,"lng":59.202962,"addr":"","type":"mosque"},{"id":"xx331644_597121","name":"مسجد جامع درخش","lat":33.164385,"lng":59.712116,"addr":"","type":"yes"},{"id":"xx349998_588442","name":"نمازخانه مجتمع رفاهی امام رضا علیه السلام","lat":34.999826,"lng":58.844186,"addr":"","type":"yes"},{"id":"xx332711_592797","name":"مسجد فاطمه الزهرا س","lat":33.271123,"lng":59.279684,"addr":"","type":"mosque"},{"id":"xx343683_587249","name":"مسجد جامع دلوئی","lat":34.368321,"lng":58.72487,"addr":"","type":"mosque"},{"id":"xx343671_587259","name":"مسجد صاحب‌الزمان دلویی","lat":34.367131,"lng":58.725883,"addr":"","type":"yes"},{"id":"xx343696_587233","name":"قدمگاه امام علی","lat":34.369618,"lng":58.723269,"addr":"","type":"yes"},{"id":"xx343684_587244","name":"Islamic place","lat":34.368422,"lng":58.724415,"addr":"","type":"yes"},{"id":"xx302523_570361","name":"نمازخانه","lat":30.252292,"lng":57.036149,"addr":"","type":"yes"},{"id":"xx337396_591757","name":"مسجد امام رضا علیه السلام","lat":33.739606,"lng":59.175685,"addr":"","type":"yes"},{"id":"xx337495_591706","name":"مسجد فاطمه الزهرا","lat":33.749463,"lng":59.170627,"addr":"","type":"yes"},{"id":"xx340332_582116","name":"دارالسلام","lat":34.033229,"lng":58.211578,"addr":"","type":"mosque"},{"id":"xx340002_581521","name":"قبرستان چنجه (بهشت حسین)","lat":34.000215,"lng":58.152123,"addr":"","type":"mosque"},{"id":"xx302741_570591","name":"خیمه","lat":30.274116,"lng":57.059125,"addr":"","type":"yes"},{"id":"xx343138_584440","name":"Islamic place","lat":34.313777,"lng":58.444038,"addr":"","type":"mosque"},{"id":"xx341376_585590","name":"Islamic place","lat":34.137571,"lng":58.558967,"addr":"","type":"mosque"},{"id":"xx349689_596236","name":"Islamic place","lat":34.968869,"lng":59.623638,"addr":"","type":"mosque"},{"id":"xx349692_595509","name":"Islamic place","lat":34.969209,"lng":59.550877,"addr":"","type":"mosque"},{"id":"xx302602_570300","name":"مسجد امام جعفر صادق","lat":30.260233,"lng":57.029977,"addr":"","type":"yes"},{"id":"xx304415_558283","name":"گلزار شهدا","lat":30.441474,"lng":55.82828,"addr":"","type":"mosque"},{"id":"xx316035_553928","name":"حسینیه سفلا","lat":31.603545,"lng":55.392792,"addr":"","type":"yes"},{"id":"xx343863_599179","name":"مسجد","lat":34.386341,"lng":59.917858,"addr":"","type":"mosque"},{"id":"xx343573_598606","name":"مسجد جامع","lat":34.357349,"lng":59.860606,"addr":"","type":"yes"},{"id":"xx337784_550860","name":"حسینه اعظم خور","lat":33.77839,"lng":55.085961,"addr":"","type":"yes"},{"id":"xx300599_572901","name":"آرامگاه شاه نعمت الله ولی","lat":30.059914,"lng":57.290062,"addr":"mahan","type":"museum"},{"id":"xx337702_550937","name":"گلزار شهدا","lat":33.770187,"lng":55.093726,"addr":"","type":"mosque"},{"id":"xx337771_550904","name":"نمازخانه","lat":33.777128,"lng":55.090365,"addr":"","type":"yes"},{"id":"xx337788_550862","name":"مسجد جامع شهر خور","lat":33.778819,"lng":55.086157,"addr":"","type":"yes"},{"id":"xx337741_550881","name":"دوازده امام","lat":33.774065,"lng":55.088059,"addr":"","type":"place_of_worship"},{"id":"xx337323_591812","name":"قبرستان فرخ آباد","lat":33.732346,"lng":59.1812,"addr":"","type":"mosque"},{"id":"xx332793_575063","name":"Islamic place","lat":33.279298,"lng":57.506303,"addr":"","type":"mosque"},{"id":"xx332962_575024","name":"Islamic place","lat":33.296153,"lng":57.502412,"addr":"","type":"mosque"},{"id":"xx327719_588857","name":"Islamic place","lat":32.771874,"lng":58.885655,"addr":"","type":"mosque"},{"id":"xx327728_588845","name":"Islamic place","lat":32.77278,"lng":58.884544,"addr":"","type":"mosque"},{"id":"xx338858_583749","name":"Islamic place","lat":33.885827,"lng":58.374879,"addr":"","type":"mosque"},{"id":"xx337761_550882","name":"هیات حضرت علی اکبر","lat":33.77614,"lng":55.088163,"addr":"","type":"yes"},{"id":"xx328515_592337","name":"نمازخانه اهل سنت حضرت بلال (رض)","lat":32.85148,"lng":59.233711,"addr":"بین پرستار ۲۲ و ۲۴","type":"chapel"},{"id":"xx328458_592387","name":"مسجد آل رسول","lat":32.845775,"lng":59.238692,"addr":"خیابان نیلوفر","type":"yes"},{"id":"xx335999_569042","name":"باغ رضوان","lat":33.599917,"lng":56.904243,"addr":"","type":"mosque"},{"id":"xx341488_586408","name":"Islamic place","lat":34.148846,"lng":58.64075,"addr":"","type":"place_of_worship"},{"id":"xx308090_565668","name":"مسجد جامع زرند","lat":30.808955,"lng":56.566756,"addr":"","type":"place_of_worship"},{"id":"xx308222_565713","name":"مصلی زرند","lat":30.822232,"lng":56.571322,"addr":"","type":"yes"},{"id":"xx308400_565833","name":"قبرستان زرند","lat":30.840049,"lng":56.583253,"addr":"","type":"mosque"},{"id":"xx347449_580506","name":"Islamic place","lat":34.744852,"lng":58.050595,"addr":"","type":"mosque"},{"id":"xx337777_550830","name":"مسجد امام حسین","lat":33.777697,"lng":55.082967,"addr":"","type":"mosque"},{"id":"xx337786_550833","name":"هیات قمر بنی هاشم","lat":33.778567,"lng":55.083338,"addr":"","type":"yes"},{"id":"xx300714_572896","name":"آرامستان","lat":30.071365,"lng":57.289582,"addr":"","type":"mosque"},{"id":"xx340126_588065","name":"Islamic place","lat":34.012559,"lng":58.806493,"addr":"","type":"mosque"},{"id":"xx343968_582379","name":"Islamic place","lat":34.396802,"lng":58.237917,"addr":"","type":"mosque"},{"id":"xx343848_582236","name":"Islamic place","lat":34.384784,"lng":58.223641,"addr":"","type":"mosque"},{"id":"xx301435_551014","name":"Islamic place","lat":30.143542,"lng":55.101424,"addr":"","type":"mosque"},{"id":"xx301009_551736","name":"آرامستان بهشت زهرا","lat":30.100943,"lng":55.173579,"addr":"","type":"mosque"},{"id":"xx302439_570776","name":"مسجد","lat":30.243919,"lng":57.07761,"addr":"","type":"mosque"},{"id":"xx307646_569145","name":"مسجد صاحب الزمان","lat":30.764603,"lng":56.914479,"addr":"","type":"yes"},{"id":"xx335429_590954","name":"مسجد امام حسین (ع) روستای نیگ","lat":33.542945,"lng":59.095404,"addr":"","type":"mosque"},{"id":"xx335426_590961","name":"حسینیه شهید پردل","lat":33.542552,"lng":59.096089,"addr":"","type":"husayniyyah"},{"id":"xx335422_590963","name":"ساختمان هیئت جان نثاران امام حسین(ع)","lat":33.54219,"lng":59.09631,"addr":"","type":"mosque"},{"id":"xx335438_590951","name":"قبرستان قدیم","lat":33.543829,"lng":59.095134,"addr":"","type":"mosque"},{"id":"xx335441_590966","name":"قبرستان جدید","lat":33.544132,"lng":59.096582,"addr":"","type":"mosque"},{"id":"xx302915_571289","name":"مسجد صاحب الزمان","lat":30.29145,"lng":57.12893,"addr":"","type":"mosque"},{"id":"xx302926_570844","name":"مسجد جامع کرمان","lat":30.292643,"lng":57.084385,"addr":"","type":"place_of_worship"},{"id":"xx337735_550832","name":"سالن نمازخانه مدرسه امام خمینی","lat":33.77348,"lng":55.083216,"addr":"","type":"yes"},{"id":"xx340318_587890","name":"Islamic place","lat":34.031844,"lng":58.788966,"addr":"","type":"mosque"},{"id":"xx345136_581694","name":"Islamic place","lat":34.513646,"lng":58.169381,"addr":"","type":"mosque"},{"id":"xx340019_581648","name":"آرمستان بهشت اکبر","lat":34.001937,"lng":58.164811,"addr":"","type":"mosque"},{"id":"xx340224_581680","name":"Islamic place","lat":34.022425,"lng":58.168028,"addr":"","type":"mosque"},{"id":"xx340077_581586","name":"مسجد جامع تون","lat":34.007698,"lng":58.158642,"addr":"","type":"mosque"},{"id":"xx307191_567799","name":"گلزار شهدا","lat":30.719106,"lng":56.779929,"addr":"","type":"mosque"},{"id":"xx343657_586463","name":"بهشت قاسم","lat":34.365695,"lng":58.646255,"addr":"","type":"mosque"},{"id":"xx328527_592330","name":"مسجد محمد رسول الله","lat":32.852725,"lng":59.233022,"addr":"","type":"yes"},{"id":"xx333042_594116","name":"حسینه","lat":33.304174,"lng":59.411565,"addr":"","type":"yes"},{"id":"xx333050_594114","name":"مسجد جامع","lat":33.304986,"lng":59.411434,"addr":"","type":"mosque"},{"id":"xx333049_594113","name":"مسجد رضیه","lat":33.304885,"lng":59.411348,"addr":"","type":"mosque"},{"id":"xx328875_592051","name":"بهشت متقین","lat":32.88747,"lng":59.205143,"addr":"","type":"mosque"},{"id":"xx328438_592239","name":"حسینیه جماران","lat":32.843829,"lng":59.223857,"addr":"","type":"yes"},{"id":"xx328446_592193","name":"مسجد امام هادی","lat":32.844559,"lng":59.219261,"addr":"","type":"yes"},{"id":"xx328929_592363","name":"امامزادگان باقریه","lat":32.892914,"lng":59.236259,"addr":"","type":"mosque"},{"id":"xx302985_570273","name":"مسجد خاتم الانبیا","lat":30.298499,"lng":57.027339,"addr":"","type":"mosque"},{"id":"xx336627_583927","name":"Islamic place","lat":33.662748,"lng":58.392719,"addr":"","type":"mosque"},{"id":"xx338538_585106","name":"Islamic place","lat":33.853849,"lng":58.510555,"addr":"","type":"mosque"},{"id":"xx338528_574273","name":"بهشت امام حسین(ع)","lat":33.852817,"lng":57.42726,"addr":"","type":"mosque"},{"id":"xx346997_592275","name":"بهشت شهید احمدی","lat":34.699701,"lng":59.227505,"addr":"","type":"mosque"},{"id":"xx308412_553325","name":"Islamic place","lat":30.841226,"lng":55.33247,"addr":"","type":"mosque"},{"id":"xx349915_588492","name":"Islamic place","lat":34.991483,"lng":58.849168,"addr":"","type":"mosque"},{"id":"xx307362_559188","name":"امامزاده سید جلال الدین","lat":30.736242,"lng":55.918839,"addr":"","type":"place_of_worship"},{"id":"xx343499_586854","name":"مصلی امام خمینی","lat":34.349857,"lng":58.685426,"addr":"گناباد","type":"yes"},{"id":"xx343455_586928","name":"مسجد ابوالفضل صددستگاه","lat":34.345461,"lng":58.692836,"addr":"","type":"yes"},{"id":"xx343445_587630","name":"مسجد جامع بیدخت","lat":34.344456,"lng":58.76305,"addr":"","type":"mosque"},{"id":"xx341639_585817","name":"Islamic place","lat":34.163885,"lng":58.581701,"addr":"","type":"grave_yard"},{"id":"xx315992_553939","name":"مجتمع فرهنگی بیت الرضا","lat":31.599233,"lng":55.393866,"addr":"","type":"yes"},{"id":"xx316081_554052","name":"Islamic place","lat":31.608094,"lng":55.405233,"addr":"","type":"mosque"},{"id":"xx316239_554408","name":"حسینیه ابوالفضل","lat":31.62394,"lng":55.44081,"addr":"","type":"yes"},{"id":"xx315787_554233","name":"بهشت الحسین","lat":31.578707,"lng":55.423316,"addr":"","type":"mosque"},{"id":"xx328643_591943","name":"مصلی المهدی بیرجند","lat":32.864331,"lng":59.194286,"addr":"","type":"place_of_worship"},{"id":"xx328473_592029","name":"مسجد سید الشهدا (ع)","lat":32.84727,"lng":59.202861,"addr":"","type":"mosque"},{"id":"xx332711_592796","name":"مسجد فاطمه الزهرا س","lat":33.271079,"lng":59.279627,"addr":"","type":"mosque"},{"id":"xx343683_587248","name":"مسجد جامع دلوئی","lat":34.368282,"lng":58.724825,"addr":"","type":"mosque"},{"id":"xx343671_587258","name":"مسجد صاحب‌الزمان دلویی","lat":34.367104,"lng":58.725841,"addr":"","type":"yes"},{"id":"xx343696_587232","name":"قدمگاه امام علی","lat":34.369639,"lng":58.723164,"addr":"","type":"yes"},{"id":"xx337396_591756","name":"مسجد امام رضا علیه السلام","lat":33.739583,"lng":59.175646,"addr":"","type":"yes"},{"id":"xx340331_582115","name":"دارالسلام","lat":34.033136,"lng":58.211503,"addr":"","type":"mosque"},{"id":"xx343137_584439","name":"Islamic place","lat":34.313709,"lng":58.443917,"addr":"","type":"mosque"},{"id":"xx349688_596234","name":"Islamic place","lat":34.968834,"lng":59.62342,"addr":"","type":"mosque"},{"id":"xx349692_595508","name":"Islamic place","lat":34.969152,"lng":59.550754,"addr":"","type":"mosque"},{"id":"xx302602_570299","name":"مسجد امام جعفر صادق","lat":30.260219,"lng":57.029944,"addr":"","type":"yes"},{"id":"xx304414_558282","name":"گلزار شهدا","lat":30.441391,"lng":55.828232,"addr":"","type":"mosque"},{"id":"xx343863_599178","name":"مسجد","lat":34.386275,"lng":59.917763,"addr":"","type":"mosque"},{"id":"xx343573_598605","name":"مسجد جامع","lat":34.357317,"lng":59.860499,"addr":"","type":"yes"},{"id":"xx337783_550859","name":"حسینه اعظم خور","lat":33.778315,"lng":55.085897,"addr":"","type":"yes"},{"id":"xx300599_572900","name":"آرامگاه شاه نعمت الله ولی","lat":30.059894,"lng":57.289984,"addr":"mahan","type":"museum"},{"id":"xx337788_550861","name":"مسجد جامع شهر خور","lat":33.778813,"lng":55.086119,"addr":"","type":"yes"},{"id":"xx337740_550880","name":"دوازده امام","lat":33.773984,"lng":55.088015,"addr":"","type":"place_of_worship"},{"id":"xx332961_575023","name":"Islamic place","lat":33.29614,"lng":57.502338,"addr":"","type":"mosque"},{"id":"xx327718_588856","name":"Islamic place","lat":32.771758,"lng":58.885629,"addr":"","type":"mosque"},{"id":"xx327727_588844","name":"Islamic place","lat":32.772701,"lng":58.884417,"addr":"","type":"mosque"},{"id":"xx338859_583747","name":"Islamic place","lat":33.88588,"lng":58.374667,"addr":"","type":"mosque"},{"id":"xx337761_550881","name":"هیات حضرت علی اکبر","lat":33.776102,"lng":55.088137,"addr":"","type":"yes"},{"id":"xx328457_592387","name":"مسجد آل رسول","lat":32.84568,"lng":59.238676,"addr":"خیابان نیلوفر","type":"yes"},{"id":"xx335996_569040","name":"باغ رضوان","lat":33.599593,"lng":56.903988,"addr":"","type":"mosque"},{"id":"xx341489_586407","name":"Islamic place","lat":34.148862,"lng":58.640664,"addr":"","type":"place_of_worship"},{"id":"xx308090_565667","name":"مسجد جامع زرند","lat":30.809026,"lng":56.566677,"addr":"","type":"place_of_worship"},{"id":"xx308225_565718","name":"مصلی زرند","lat":30.822486,"lng":56.57181,"addr":"","type":"place_of_worship"},{"id":"xx308401_565823","name":"قبرستان زرند","lat":30.84012,"lng":56.582306,"addr":"","type":"mosque"},{"id":"xx347448_580505","name":"Islamic place","lat":34.744799,"lng":58.050518,"addr":"","type":"mosque"},{"id":"xx337785_550833","name":"هیات قمر بنی هاشم","lat":33.778517,"lng":55.083297,"addr":"","type":"yes"},{"id":"xx300713_572895","name":"آرامستان","lat":30.071336,"lng":57.28946,"addr":"","type":"mosque"},{"id":"xx340383_587200","name":"Islamic place","lat":34.03828,"lng":58.720015,"addr":"","type":"mosque"},{"id":"xx340125_588064","name":"Islamic place","lat":34.012474,"lng":58.806431,"addr":"","type":"mosque"},{"id":"xx343967_582379","name":"Islamic place","lat":34.396699,"lng":58.237858,"addr":"","type":"mosque"},{"id":"xx343848_582235","name":"Islamic place","lat":34.384826,"lng":58.223497,"addr":"","type":"mosque"},{"id":"xx301434_551013","name":"Islamic place","lat":30.143423,"lng":55.101293,"addr":"","type":"mosque"},{"id":"xx301009_551730","name":"آرامستان بهشت زهرا","lat":30.100896,"lng":55.173033,"addr":"","type":"mosque"},{"id":"xx302574_571025","name":"مسجد امام باقر ع","lat":30.257419,"lng":57.102533,"addr":"","type":"place_of_worship"},{"id":"xx335425_590961","name":"حسینیه شهید پردل","lat":33.54254,"lng":59.096071,"addr":"","type":"husayniyyah"},{"id":"xx335421_590963","name":"ساختمان هیئت جان نثاران امام حسین(ع)","lat":33.542141,"lng":59.096278,"addr":"","type":"mosque"},{"id":"xx335441_590965","name":"قبرستان جدید","lat":33.544133,"lng":59.096549,"addr":"","type":"mosque"},{"id":"xx302927_570844","name":"مسجد جامع کرمان","lat":30.292692,"lng":57.084357,"addr":"","type":"place_of_worship"},{"id":"xx303862_559228","name":"مسجد دانشگاه","lat":30.386185,"lng":55.92283,"addr":"","type":"yes"},{"id":"xx307901_569840","name":"مسجد حرگندی","lat":30.790086,"lng":56.983959,"addr":"","type":"yes"},{"id":"xx303086_570438","name":"مسجد الائمه","lat":30.30864,"lng":57.043805,"addr":"","type":"mosque"},{"id":"xx302831_570804","name":"مسجد قائم","lat":30.283081,"lng":57.08036,"addr":"","type":"place_of_worship"},{"id":"xx302910_570787","name":"مسجد گنجعلیخان","lat":30.291004,"lng":57.078652,"addr":"kerman","type":"yes"},{"id":"xx345923_582139","name":"نمازخانه بین راهی امام رضا","lat":34.592279,"lng":58.213906,"addr":"","type":"mosque"},{"id":"xx302807_569806","name":"مسجد حضرت ابوالفضل","lat":30.280661,"lng":56.980626,"addr":"","type":"yes"},{"id":"xx337761_550860","name":"امامزاده سید داوود","lat":33.776131,"lng":55.085977,"addr":"","type":"yes"},{"id":"xx337761_550861","name":"امامزاده سید داوود","lat":33.776091,"lng":55.086117,"addr":"","type":"yes"},{"id":"xx337758_550859","name":"مسجد نبی","lat":33.77579,"lng":55.085924,"addr":"","type":"yes"},{"id":"xx316544_599894","name":"حسینیه سید الشهدا","lat":31.654355,"lng":59.989354,"addr":"","type":"yes"},{"id":"xx333309_551073","name":"Islamic place","lat":33.330936,"lng":55.107273,"addr":"","type":"yes"},{"id":"xx337259_591932","name":"مسجد جامع قاین","lat":33.725875,"lng":59.193177,"addr":"شهر قائن","type":"mosque"},{"id":"xx337315_591809","name":"امامزاده زید","lat":33.731509,"lng":59.180886,"addr":"","type":"mosque"},{"id":"xx336874_591906","name":"نمازخانه مجتمع رفاهی امام رضا","lat":33.68744,"lng":59.190556,"addr":"","type":"mosque"},{"id":"xx337219_591834","name":"مسجدالرضا","lat":33.721875,"lng":59.183421,"addr":"","type":"mosque"},{"id":"xx328638_591919","name":"Islamic place","lat":32.863805,"lng":59.191874,"addr":"","type":"mosque"},{"id":"xx328593_592305","name":"هنرستان خیامی","lat":32.85931,"lng":59.230509,"addr":"بلوار غفاری","type":"school"},{"id":"xx342169_588003","name":"مسجد صاحب الزمان","lat":34.216924,"lng":58.800297,"addr":"","type":"mosque"},{"id":"xx314053_562724","name":"امامزاده سلیمان شاه","lat":31.405328,"lng":56.272381,"addr":"کوهبنان","type":"mosque"},{"id":"xx314055_562724","name":"Islamic place","lat":31.405456,"lng":56.272392,"addr":"","type":"mosque"},{"id":"xx330722_558938","name":"مسجد شکر","lat":33.072192,"lng":55.893815,"addr":"","type":"yes"},{"id":"xx304578_559074","name":"گلزار شهدا","lat":30.457831,"lng":55.907351,"addr":"","type":"mosque"},{"id":"xx334121_572249","name":"امامزاده حسین بن موسی کاظم زرگ","lat":33.412088,"lng":57.224861,"addr":"","type":"shrine"},{"id":"xx327137_595280","name":"Islamic place","lat":32.713707,"lng":59.528014,"addr":"","type":"mosque"},{"id":"xx327608_594129","name":"Islamic place","lat":32.760753,"lng":59.412927,"addr":"","type":"mosque"},{"id":"xx327594_594384","name":"Islamic place","lat":32.759436,"lng":59.438433,"addr":"","type":"mosque"},{"id":"xx329341_584366","name":"مسجد و حسینیه سید الشهدا (ع)","lat":32.934143,"lng":58.436583,"addr":"","type":"place_of_worship"},{"id":"xx318776_560202","name":"مسجد جامع بهاباد","lat":31.877555,"lng":56.020217,"addr":"","type":"yes"},{"id":"xx318720_560241","name":"مسجد فاطمیه بهاباد","lat":31.872013,"lng":56.024147,"addr":"","type":"yes"},{"id":"xx318642_560338","name":"مسجد ولیعصر","lat":31.864155,"lng":56.033828,"addr":"","type":"yes"},{"id":"xx318810_560138","name":"مسجد امام حسن مجتبی (ع)","lat":31.881008,"lng":56.013805,"addr":"","type":"yes"},{"id":"xx318721_560247","name":"حسینیه باغستان بهاباد","lat":31.872096,"lng":56.024733,"addr":"","type":"yes"},{"id":"xx325531_598173","name":"Islamic place","lat":32.553109,"lng":59.817333,"addr":"","type":"mosque"},{"id":"xx322374_598197","name":"Islamic place","lat":32.237415,"lng":59.819722,"addr":"","type":"mosque"},{"id":"xx334172_597051","name":"Islamic place","lat":33.417209,"lng":59.705118,"addr":"","type":"mosque"},{"id":"xx302564_570334","name":"مسجد حضرت ابراهیم","lat":30.256376,"lng":57.033407,"addr":"","type":"mosque"},{"id":"xx336923_599619","name":"مسجد امیرالمؤمنین آبیز","lat":33.692345,"lng":59.961884,"addr":"","type":"yes"},{"id":"xx315994_553961","name":"آستان مقدس امامزاده عبدالله ابن موسی الکاظم (ع)","lat":31.599437,"lng":55.396058,"addr":"بلوار امام خمینی","type":"yes"},{"id":"xx328521_592049","name":"نمازخانه اهل سنت حضرت علی (رض)","lat":32.852111,"lng":59.204874,"addr":"خیابان مالک اشتر","type":"yes"},{"id":"xx328752_592154","name":"مسجدالنبی","lat":32.875225,"lng":59.215439,"addr":"شهدا ۴","type":"yes"},{"id":"xx302744_571372","name":"Islamic place","lat":30.274399,"lng":57.137246,"addr":"","type":"mosque"},{"id":"xx302744_571375","name":"مسجد جامع سراسیاب فرسنگی","lat":30.274448,"lng":57.137527,"addr":"","type":"place_of_worship"},{"id":"xx302745_571373","name":"Islamic place","lat":30.274497,"lng":57.137283,"addr":"","type":"mosque"},{"id":"xx302745_571372","name":"Islamic place","lat":30.27448,"lng":57.137177,"addr":"","type":"mosque"},{"id":"xx302743_571376","name":"Islamic place","lat":30.274349,"lng":57.137621,"addr":"","type":"mosque"},{"id":"xx302920_571288","name":"گلزار شهدای کرمان","lat":30.292024,"lng":57.128805,"addr":"","type":"mosque"},{"id":"xx328779_592152","name":"محبان الزهرا (س)","lat":32.877934,"lng":59.215242,"addr":"","type":"yes"},{"id":"xx328568_592197","name":"مسجد باقرالعلوم","lat":32.856827,"lng":59.219659,"addr":"","type":"yes"},{"id":"xx328618_592094","name":"نمازخانه مفتح","lat":32.861756,"lng":59.209412,"addr":"مفتح ۳۳","type":"yes"},{"id":"xx330013_555488","name":"Islamic place","lat":33.001272,"lng":55.548825,"addr":"","type":"place_of_worship"},{"id":"xx306616_555347","name":"مهدیه گلزار شهدا لطف آباد","lat":30.661626,"lng":55.534668,"addr":"","type":"mosque"},{"id":"xx336179_569312","name":"فرهنگی و مذهبی","lat":33.617874,"lng":56.931237,"addr":"","type":"place_of_worship"},{"id":"xx335937_569226","name":"هیئت رزمندگان اسلام","lat":33.593709,"lng":56.922586,"addr":"","type":"place_of_worship"},{"id":"xx335715_569222","name":"هیئت صاحب الزمان","lat":33.571484,"lng":56.922203,"addr":"","type":"place_of_worship"},{"id":"xx328566_592284","name":"مسجد دانشگاه علوم پزشکی","lat":32.856557,"lng":59.228375,"addr":"","type":"yes"},{"id":"xx309111_552213","name":"مسجد امام سجاد","lat":30.911078,"lng":55.221266,"addr":"","type":"yes"},{"id":"xx320725_594212","name":"قبرستان","lat":32.07251,"lng":59.421215,"addr":"","type":"mosque"},{"id":"xx320728_594228","name":"مسجد روستای برک","lat":32.07284,"lng":59.422769,"addr":"","type":"yes"},{"id":"xx332243_599999","name":"Islamic place","lat":33.224341,"lng":59.999934,"addr":"","type":"mosque"},{"id":"xx332236_599999","name":"Islamic place","lat":33.223551,"lng":59.999932,"addr":"","type":"yes"},{"id":"xx332231_599997","name":"حسینیه فاطمه الزهرا","lat":33.223081,"lng":59.99969,"addr":"","type":"mosque"},{"id":"xx332223_599997","name":"مسجد جامع","lat":33.222308,"lng":59.999654,"addr":"","type":"yes"},{"id":"xx332928_594319","name":"مزار سلطان قریش گازار","lat":33.292789,"lng":59.431935,"addr":"","type":"yes"},{"id":"xx328474_592896","name":"مسجد امام جعفر صادق","lat":32.847418,"lng":59.28958,"addr":"بیرجند","type":"mosque"},{"id":"xx307901_569839","name":"مسجد حرگندی","lat":30.790067,"lng":56.98395,"addr":"","type":"yes"},{"id":"xx302830_570804","name":"مسجد قائم","lat":30.283015,"lng":57.080354,"addr":"","type":"place_of_worship"},{"id":"xx302910_570786","name":"مسجد گنجعلیخان","lat":30.291019,"lng":57.078646,"addr":"kerman","type":"yes"},{"id":"xx302806_569806","name":"مسجد حضرت ابوالفضل","lat":30.280631,"lng":56.980572,"addr":"","type":"yes"},{"id":"xx337761_550859","name":"امامزاده سید داوود","lat":33.776135,"lng":55.085907,"addr":"","type":"yes"},{"id":"xx337760_550859","name":"Islamic place","lat":33.776024,"lng":55.085871,"addr":"","type":"mosque"},{"id":"xx337758_550858","name":"مسجد نبی","lat":33.775801,"lng":55.085799,"addr":"","type":"yes"},{"id":"xx336874_591905","name":"نمازخانه مجتمع رفاهی امام رضا","lat":33.687433,"lng":59.190541,"addr":"","type":"mosque"},{"id":"xx314054_562724","name":"امامزاده سلیمان شاه","lat":31.405406,"lng":56.272352,"addr":"کوهبنان","type":"mosque"},{"id":"xx304578_559073","name":"گلزار شهدا","lat":30.457773,"lng":55.907267,"addr":"","type":"mosque"},{"id":"xx334121_572248","name":"امامزاده حسین بن موسی کاظم زرگ","lat":33.412076,"lng":57.224844,"addr":"","type":"shrine"},{"id":"xx327138_595278","name":"Islamic place","lat":32.713821,"lng":59.527768,"addr":"","type":"mosque"},{"id":"xx327607_594128","name":"Islamic place","lat":32.760748,"lng":59.41282,"addr":"","type":"mosque"},{"id":"xx327595_594383","name":"Islamic place","lat":32.759464,"lng":59.438332,"addr":"","type":"mosque"},{"id":"xx329341_584365","name":"مسجد و حسینیه سید الشهدا (ع)","lat":32.934103,"lng":58.436506,"addr":"","type":"place_of_worship"},{"id":"xx318721_560246","name":"حسینیه باغستان بهاباد","lat":31.872111,"lng":56.02465,"addr":"","type":"yes"},{"id":"xx325530_598173","name":"Islamic place","lat":32.553036,"lng":59.81728,"addr":"","type":"mosque"},{"id":"xx322374_598196","name":"Islamic place","lat":32.23743,"lng":59.819648,"addr":"","type":"mosque"},{"id":"xx334171_597051","name":"Islamic place","lat":33.417138,"lng":59.70507,"addr":"","type":"mosque"},{"id":"xx315994_553960","name":"آستان مقدس امامزاده عبدالله ابن موسی الکاظم (ع)","lat":31.59943,"lng":55.396047,"addr":"بلوار امام خمینی","type":"yes"},{"id":"xx302920_571287","name":"گلزار شهدای کرمان","lat":30.291987,"lng":57.128748,"addr":"","type":"mosque"},{"id":"xx303946_559748","name":"مسجد جوادیه","lat":30.394608,"lng":55.974834,"addr":"","type":"yes"},{"id":"xx328617_592094","name":"نمازخانه مفتح","lat":32.861727,"lng":59.209385,"addr":"مفتح ۳۳","type":"yes"},{"id":"xx330012_555487","name":"Islamic place","lat":33.001233,"lng":55.548732,"addr":"","type":"place_of_worship"},{"id":"xx306616_555346","name":"مهدیه گلزار شهدا لطف آباد","lat":30.661578,"lng":55.534569,"addr":"","type":"mosque"},{"id":"xx336179_569311","name":"فرهنگی و مذهبی","lat":33.617855,"lng":56.931133,"addr":"","type":"place_of_worship"},{"id":"xx335938_569225","name":"هیئت رزمندگان اسلام","lat":33.593816,"lng":56.9225,"addr":"","type":"place_of_worship"},{"id":"xx335715_569221","name":"هیئت صاحب الزمان","lat":33.571494,"lng":56.922136,"addr":"","type":"place_of_worship"},{"id":"xx328565_592284","name":"مسجد دانشگاه علوم پزشکی","lat":32.856537,"lng":59.228354,"addr":"","type":"yes"},{"id":"xx309111_552212","name":"مسجد امام سجاد","lat":30.911084,"lng":55.221247,"addr":"","type":"yes"},{"id":"xx304228_577125","name":"امامزاده زید","lat":30.42275,"lng":57.7125,"addr":"","type":"imamzadeh"},{"id":"xx320725_594210","name":"قبرستان","lat":32.072501,"lng":59.420982,"addr":"","type":"mosque"},{"id":"xx332223_599996","name":"مسجد جامع","lat":33.222302,"lng":59.999641,"addr":"","type":"yes"},{"id":"xx301302_571703","name":"مسجد امام علی","lat":30.130246,"lng":57.170282,"addr":"","type":"place_of_worship"},{"id":"xx328788_592140","name":"حسینیه و مدرسه شوکتیه","lat":32.878775,"lng":59.213978,"addr":"","type":"husayniyya"},{"id":"xx309039_557155","name":"امامزاده ابراهیم","lat":30.903908,"lng":55.715505,"addr":"","type":"shrine"},{"id":"xx309036_557149","name":"گلزار شهدا","lat":30.903588,"lng":55.714925,"addr":"","type":"shrine"},{"id":"xx302881_571630","name":"Islamic place","lat":30.288066,"lng":57.163046,"addr":"","type":"yes"},{"id":"xx328902_592174","name":"مسجدالحسین جوادیه","lat":32.890243,"lng":59.217367,"addr":"خیابان شهید برگی","type":"yes"},{"id":"xx328797_592405","name":"مسجد و مهدیه","lat":32.879702,"lng":59.240511,"addr":"","type":"yes"},{"id":"xx328628_592356","name":"مسجد امام رضا","lat":32.862778,"lng":59.235616,"addr":"","type":"yes"},{"id":"xx343356_586499","name":"Islamic place","lat":34.335557,"lng":58.649911,"addr":"","type":"mosque"},{"id":"xx343475_587217","name":"Islamic place","lat":34.347493,"lng":58.721656,"addr":"","type":"mosque"},{"id":"xx343317_587054","name":"Islamic place","lat":34.331724,"lng":58.705435,"addr":"","type":"mosque"},{"id":"xx343346_586945","name":"Islamic place","lat":34.334611,"lng":58.694489,"addr":"","type":"mosque"},{"id":"xx341642_585823","name":"امام زاده احمد","lat":34.164187,"lng":58.58229,"addr":"","type":"yes"},{"id":"xx317181_550766","name":"Islamic place","lat":31.718108,"lng":55.076598,"addr":"","type":"yes"},{"id":"xx316058_553925","name":"مسجد فاطمیه","lat":31.605804,"lng":55.392532,"addr":"","type":"yes"},{"id":"xx328586_592109","name":"مسجد توحید","lat":32.858604,"lng":59.210933,"addr":"","type":"yes"},{"id":"xx328932_592059","name":"مسجد باب الحوائج","lat":32.893241,"lng":59.205892,"addr":"","type":"yes"},{"id":"xx334197_569391","name":"قبرستان روستای فهالنج","lat":33.419733,"lng":56.939054,"addr":"","type":"mosque"},{"id":"xx329388_584406","name":"Islamic place","lat":32.938845,"lng":58.440559,"addr":"","type":"mosque"},{"id":"xx303028_569609","name":"مسجد صاحب الزمان","lat":30.302831,"lng":56.960863,"addr":"","type":"yes"},{"id":"xx302661_569763","name":"Islamic place","lat":30.266093,"lng":56.976261,"addr":"","type":"yes"},{"id":"xx336029_569067","name":"امامزاده حسین ابن موسی الکاظم","lat":33.602853,"lng":56.906653,"addr":"طبس","type":"mosque"},{"id":"xx333601_595364","name":"مسجد و حسینیه","lat":33.360124,"lng":59.536387,"addr":"خیابان ملا بلال شاخنی","type":"mosque"},{"id":"xx333597_595375","name":"مزار","lat":33.359698,"lng":59.537522,"addr":"","type":"mosque"},{"id":"xx333618_595353","name":"آرامگاه ملابلال شاخنی","lat":33.361795,"lng":59.535325,"addr":"","type":"mosque"},{"id":"xx333592_595364","name":"مسجد جامع تاریخی","lat":33.359223,"lng":59.536385,"addr":"خیابان شهید حسینی","type":"mosque"},{"id":"xx304591_560110","name":"Islamic place","lat":30.459069,"lng":56.010955,"addr":"","type":"mosque"},{"id":"xx343399_587304","name":"Islamic place","lat":34.33985,"lng":58.73036,"addr":"","type":"yes"},{"id":"xx333332_551058","name":"Islamic place","lat":33.333219,"lng":55.105797,"addr":"","type":"place_of_worship"},{"id":"xx335264_550381","name":"Islamic place","lat":33.526437,"lng":55.038066,"addr":"","type":"place_of_worship"},{"id":"xx337272_591848","name":"مصلی قاین","lat":33.72719,"lng":59.184795,"addr":"","type":"yes"},{"id":"xx300482_558980","name":"Islamic place","lat":30.048176,"lng":55.89801,"addr":"","type":"mosque"},{"id":"xx307465_565644","name":"Islamic place","lat":30.746488,"lng":56.564351,"addr":"","type":"mosque"},{"id":"xx303975_559954","name":"مسجد الزهرا","lat":30.397532,"lng":55.995358,"addr":"","type":"yes"},{"id":"xx304065_559924","name":"مسجد جامع","lat":30.40654,"lng":55.992378,"addr":"","type":"yes"},{"id":"xx304092_559923","name":"مسجد حاج شریف","lat":30.409186,"lng":55.992302,"addr":"","type":"yes"},{"id":"xx304095_559670","name":"مصلا رفسنجان","lat":30.409476,"lng":55.967009,"addr":"","type":"mosque"},{"id":"xx304082_559912","name":"مسجد امام خمینی","lat":30.408225,"lng":55.991195,"addr":"","type":"yes"},{"id":"xx301234_551070","name":"مصلی نماز جمعه","lat":30.12335,"lng":55.107033,"addr":"","type":"place_of_worship"},{"id":"xx301429_551073","name":"مسجد حاج درویش","lat":30.142856,"lng":55.107306,"addr":"","type":"yes"},{"id":"xx301445_551043","name":"مسجد شهرک رزمندگان","lat":30.14454,"lng":55.104333,"addr":"","type":"yes"},{"id":"xx301376_551066","name":"حسینیه پیرجل","lat":30.137561,"lng":55.106561,"addr":"","type":"yes"},{"id":"xx301370_550992","name":"Islamic place","lat":30.137004,"lng":55.099245,"addr":"","type":"yes"},{"id":"xx301373_551130","name":"مسجد امام جعفر صادق","lat":30.137265,"lng":55.112952,"addr":"","type":"yes"},{"id":"xx301048_551234","name":"مسجد فاطمه زهرا","lat":30.10483,"lng":55.123408,"addr":"","type":"yes"},{"id":"xx301329_551272","name":"مسجد حضرت ابوالفضل پارک صنعت","lat":30.132874,"lng":55.127197,"addr":"","type":"yes"},{"id":"xx301245_551165","name":"حسینیه هاوشک","lat":30.124502,"lng":55.116486,"addr":"","type":"yes"},{"id":"xx301098_551570","name":"Islamic place","lat":30.109774,"lng":55.157017,"addr":"","type":"yes"},{"id":"xx301213_551363","name":"Islamic place","lat":30.121279,"lng":55.13628,"addr":"","type":"yes"},{"id":"xx301105_551201","name":"مسجد صاحب الزمان","lat":30.110472,"lng":55.120068,"addr":"","type":"yes"},{"id":"xx301105_551197","name":"حسینیه محله پایین","lat":30.110538,"lng":55.119674,"addr":"","type":"yes"},{"id":"xx301301_551059","name":"مسجد امیرالمومنین","lat":30.130079,"lng":55.10592,"addr":"","type":"yes"},{"id":"xx301184_551302","name":"مسجد جامع قطب آباد","lat":30.118449,"lng":55.130194,"addr":"","type":"yes"},{"id":"xx301234_550955","name":"حسینیه موروئیه","lat":30.12339,"lng":55.095451,"addr":"","type":"yes"},{"id":"xx301232_550950","name":"مسجد موروئیه","lat":30.123175,"lng":55.094994,"addr":"","type":"yes"},{"id":"xx301281_551250","name":"Islamic place","lat":30.12813,"lng":55.125029,"addr":"","type":"yes"},{"id":"xx301072_551438","name":"مسجد علی بن ابیطالب","lat":30.10718,"lng":55.143819,"addr":"","type":"yes"},{"id":"xx301201_551247","name":"مسجد شهر کهنه","lat":30.1201,"lng":55.124667,"addr":"","type":"yes"},{"id":"xx300907_551355","name":"مسجد شریک آباد","lat":30.090683,"lng":55.135527,"addr":"","type":"yes"},{"id":"xx301292_551152","name":"مسجد امام رضا","lat":30.129195,"lng":55.115195,"addr":"","type":"yes"},{"id":"xx301273_551099","name":"Islamic place","lat":30.127339,"lng":55.109902,"addr":"","type":"yes"},{"id":"xx343827_587017","name":"Islamic place","lat":34.382695,"lng":58.701652,"addr":"","type":"mosque"},{"id":"xx343871_587044","name":"بهشت رضای بیلند","lat":34.387054,"lng":58.704388,"addr":"","type":"mosque"},{"id":"xx301154_551158","name":"مسجد مهدیه","lat":30.115376,"lng":55.115843,"addr":"","type":"yes"},{"id":"xx301248_551202","name":"مسجد شهید محمدیان","lat":30.124814,"lng":55.120206,"addr":"","type":"yes"},{"id":"xx301230_551202","name":"مسجد فاطمه نسا حسن آباد","lat":30.123006,"lng":55.120176,"addr":"","type":"yes"},{"id":"xx301203_551178","name":"مسجد حاج محمد رفیع","lat":30.120299,"lng":55.117801,"addr":"","type":"yes"},{"id":"xx301203_551176","name":"حسینیه غریب شاهی","lat":30.12033,"lng":55.117553,"addr":"","type":"yes"},{"id":"xx301212_551034","name":"مسجد امام خمینی","lat":30.121196,"lng":55.103409,"addr":"","type":"yes"},{"id":"xx300921_551106","name":"مسجد گلوزرداب","lat":30.092103,"lng":55.110596,"addr":"","type":"yes"},{"id":"xx300498_550977","name":"مسجد استبرق","lat":30.049818,"lng":55.097698,"addr":"","type":"yes"},{"id":"xx300503_550979","name":"حسینیه استبرق","lat":30.050269,"lng":55.097923,"addr":"","type":"yes"},{"id":"xx301471_550885","name":"مسجد امام حسین قنات نوج","lat":30.147057,"lng":55.088528,"addr":"","type":"yes"},{"id":"xx301535_550926","name":"مسجد امام جعفر صادق عباس آباد","lat":30.153522,"lng":55.092627,"addr":"","type":"yes"},{"id":"xx301611_550863","name":"مسجد جامع ولی عصر","lat":30.161072,"lng":55.086326,"addr":"","type":"yes"},{"id":"xx301036_551145","name":"مسجد امام حسن مجتبی","lat":30.103577,"lng":55.114473,"addr":"","type":"yes"},{"id":"xx300504_550957","name":"حسینیه بافت قدیم","lat":30.050394,"lng":55.095709,"addr":"","type":"yes"},{"id":"xx300424_550959","name":"مسجد خواجه خضر","lat":30.042389,"lng":55.095923,"addr":"","type":"place_of_worship"},{"id":"xx301559_550840","name":"مسجد باب الحوایج","lat":30.155877,"lng":55.083969,"addr":"","type":"yes"},{"id":"xx301001_551280","name":"حسینیه حضرت علی اصغر","lat":30.100093,"lng":55.127955,"addr":"","type":"husayniyyah"},{"id":"xx301177_551178","name":"مسجد ولیعصر","lat":30.117685,"lng":55.117792,"addr":"","type":"yes"},{"id":"xx301046_551324","name":"مسجد ابوالفضل گودگز","lat":30.104634,"lng":55.132427,"addr":"","type":"yes"},{"id":"xx300980_551372","name":"مسجد امام سجاد","lat":30.098019,"lng":55.137177,"addr":"","type":"yes"},{"id":"xx301204_551074","name":"حسینیه شهدای ده موسی","lat":30.120419,"lng":55.107353,"addr":"","type":"husayniyyah"},{"id":"xx301207_551050","name":"مسجد حضرت ابوالفضل محله سادات","lat":30.120716,"lng":55.105002,"addr":"","type":"yes"},{"id":"xx301255_551328","name":"هییت انصارالمهدی","lat":30.125517,"lng":55.13276,"addr":"","type":"yes"},{"id":"xx301368_551051","name":"مسجد پیرجل","lat":30.136793,"lng":55.105066,"addr":"","type":"yes"},{"id":"xx301479_550858","name":"مسجد حضرت ابوالفضل","lat":30.147891,"lng":55.085808,"addr":"","type":"yes"},{"id":"xx301327_551174","name":"مسجد الزهرا","lat":30.132711,"lng":55.117435,"addr":"","type":"yes"},{"id":"xx300004_554230","name":"حسینیه شهدای خاتون آباد","lat":30.000447,"lng":55.422974,"addr":"","type":"yes"},{"id":"xx300211_554209","name":"مسجد ولی عصر ملک آباد","lat":30.021143,"lng":55.420891,"addr":"","type":"yes"},{"id":"xx300081_554215","name":"مسجد ابوالفضل خاتون آباد","lat":30.008053,"lng":55.421543,"addr":"","type":"yes"},{"id":"xx330385_597023","name":"قبرستان گسک","lat":33.038512,"lng":59.702294,"addr":"","type":"mosque"},{"id":"xx316181_554282","name":"دبیرستان پسرانه نمونه امام رضا(ع) آهنشهر","lat":31.618075,"lng":55.42822,"addr":"شهرک آهنشهر خیابان پارک","type":"school"},{"id":"xx300661_552021","name":"مسجد امام سجاد برفه","lat":30.066051,"lng":55.202117,"addr":"","type":"yes"},{"id":"xx300659_552018","name":"حسینیه علی اصغر برفه","lat":30.065936,"lng":55.201769,"addr":"","type":"yes"},{"id":"xx300716_552049","name":"مسجد ابوالفضل گهرت","lat":30.071569,"lng":55.204926,"addr":"","type":"yes"},{"id":"xx300719_552043","name":"حسینیه گهرت","lat":30.071882,"lng":55.204292,"addr":"","type":"yes"},{"id":"xx347964_598493","name":"Islamic place","lat":34.796368,"lng":59.849344,"addr":"","type":"mosque"},{"id":"xx348112_584284","name":"Islamic place","lat":34.811234,"lng":58.428425,"addr":"","type":"mosque"},{"id":"xx348064_584442","name":"Islamic place","lat":34.806395,"lng":58.444199,"addr":"","type":"mosque"},{"id":"xx347884_583504","name":"Islamic place","lat":34.788361,"lng":58.350407,"addr":"","type":"mosque"},{"id":"xx335311_591265","name":"Islamic place","lat":33.531107,"lng":59.126506,"addr":"","type":"mosque"},{"id":"xx335558_591554","name":"Islamic place","lat":33.555803,"lng":59.155361,"addr":"","type":"mosque"},{"id":"xx315982_553884","name":"قبرستان سرکوچه","lat":31.598226,"lng":55.388375,"addr":"","type":"mosque"},{"id":"xx300639_551298","name":"مسجد مهرآباد","lat":30.063881,"lng":55.129831,"addr":"","type":"yes"},{"id":"xx300502_551786","name":"Islamic place","lat":30.050228,"lng":55.178614,"addr":"","type":"yes"},{"id":"xx312531_568143","name":"مسجد النبی","lat":31.25311,"lng":56.814335,"addr":"","type":"mosque"},{"id":"xx301248_551163","name":"Islamic place","lat":30.124844,"lng":55.116253,"addr":"","type":"yes"},{"id":"xx329155_592410","name":"مسجد خاتم الانبیاء","lat":32.915516,"lng":59.240962,"addr":"","type":"mosque"},{"id":"xx333263_593516","name":"آستان امامزاده میر عباس حسنی","lat":33.326287,"lng":59.351638,"addr":"","type":"grave_yard"},{"id":"xx334117_569528","name":"مسجد جامع فهالنج","lat":33.411702,"lng":56.952794,"addr":"","type":"mosque"},{"id":"xx328377_593267","name":"مصلی بجد","lat":32.83775,"lng":59.326665,"addr":"بجد","type":"yes"},{"id":"xx304116_560063","name":"مسجد خیراندیش","lat":30.411593,"lng":56.006288,"addr":"","type":"mosque"},{"id":"xx303656_560406","name":"مسجد ابوالفضل","lat":30.365626,"lng":56.040566,"addr":"","type":"place_of_worship"},{"id":"xx304265_551606","name":"نمازخانه","lat":30.426456,"lng":55.160582,"addr":"","type":"yes"},{"id":"xx310505_562148","name":"پیر سردار","lat":31.050501,"lng":56.214825,"addr":"","type":"mosque"},{"id":"xx310502_562153","name":"گلزار شهدای شعبجره","lat":31.050171,"lng":56.215315,"addr":"بلوار سید سردار","type":"mosque"},{"id":"xx337017_552584","name":"Islamic place","lat":33.701685,"lng":55.258396,"addr":"","type":"yes"},{"id":"xx343575_569341","name":"مسجد امام حسین ع مسکن مهر","lat":34.357483,"lng":56.934094,"addr":"","type":"mosque"},{"id":"xx327291_598262","name":"Islamic place","lat":32.729136,"lng":59.826182,"addr":"","type":"yes"},{"id":"xx330147_598910","name":"مسجد جامع هندوالان","lat":33.014723,"lng":59.890956,"addr":"","type":"yes"},{"id":"xx336813_586761","name":"Islamic place","lat":33.681342,"lng":58.676076,"addr":"","type":"mosque"},{"id":"xx343122_584460","name":"Islamic place","lat":34.312167,"lng":58.44599,"addr":"","type":"yes"},{"id":"xx343117_584449","name":"Islamic place","lat":34.311706,"lng":58.44486,"addr":"","type":"yes"},{"id":"xx343114_584446","name":"Islamic place","lat":34.311411,"lng":58.444582,"addr":"","type":"yes"},{"id":"xx308688_552589","name":"مسجد امام علی","lat":30.868828,"lng":55.258936,"addr":"","type":"yes"},{"id":"xx308622_552662","name":"مسجد ابوالفضل","lat":30.862192,"lng":55.266168,"addr":"","type":"mosque"},{"id":"xx302100_570227","name":"Islamic place","lat":30.21001,"lng":57.022709,"addr":"","type":"mosque"},{"id":"xx340104_581639","name":"Islamic place","lat":34.010388,"lng":58.163916,"addr":"","type":"mosque"},{"id":"xx328787_592139","name":"حسینیه و مدرسه شوکتیه","lat":32.878719,"lng":59.213915,"addr":"","type":"husayniyya"},{"id":"xx302880_571630","name":"Islamic place","lat":30.288034,"lng":57.162994,"addr":"","type":"yes"},{"id":"xx328627_592356","name":"مسجد امام رضا","lat":32.862748,"lng":59.235602,"addr":"","type":"yes"},{"id":"xx343344_587002","name":"مسجد جامع قدیم","lat":34.334447,"lng":58.700166,"addr":"","type":"yes"},{"id":"xx343355_586499","name":"Islamic place","lat":34.335503,"lng":58.649858,"addr":"","type":"mosque"},{"id":"xx343474_587215","name":"Islamic place","lat":34.347421,"lng":58.721537,"addr":"","type":"mosque"},{"id":"xx343316_587054","name":"Islamic place","lat":34.331622,"lng":58.705388,"addr":"","type":"mosque"},{"id":"xx317182_550764","name":"Islamic place","lat":31.718222,"lng":55.076435,"addr":"","type":"yes"},{"id":"xx334197_569390","name":"قبرستان روستای فهالنج","lat":33.419722,"lng":56.938997,"addr":"","type":"mosque"},{"id":"xx329388_584405","name":"Islamic place","lat":32.938789,"lng":58.440527,"addr":"","type":"mosque"},{"id":"xx302661_569762","name":"Islamic place","lat":30.266111,"lng":56.97624,"addr":"","type":"yes"},{"id":"xx336029_569066","name":"امامزاده حسین ابن موسی الکاظم","lat":33.602858,"lng":56.906647,"addr":"طبس","type":"mosque"},{"id":"xx304591_560108","name":"Islamic place","lat":30.459119,"lng":56.010842,"addr":"","type":"mosque"},{"id":"xx343398_587304","name":"Islamic place","lat":34.339849,"lng":58.73036,"addr":"","type":"yes"},{"id":"xx337271_591847","name":"مصلی قاین","lat":33.727094,"lng":59.184718,"addr":"","type":"yes"},{"id":"xx307464_565642","name":"Islamic place","lat":30.746378,"lng":56.564219,"addr":"","type":"mosque"},{"id":"xx303975_559953","name":"مسجد الزهرا","lat":30.39748,"lng":55.995258,"addr":"","type":"yes"},{"id":"xx304082_559911","name":"مسجد امام خمینی","lat":30.408197,"lng":55.991149,"addr":"","type":"yes"},{"id":"xx301232_551069","name":"مصلی نماز جمعه","lat":30.123179,"lng":55.106877,"addr":"","type":"place_of_worship"},{"id":"xx301428_551072","name":"مسجد حاج درویش","lat":30.142843,"lng":55.107222,"addr":"","type":"yes"},{"id":"xx301375_551064","name":"حسینیه پیرجل","lat":30.137464,"lng":55.106407,"addr":"","type":"yes"},{"id":"xx301048_551233","name":"مسجد فاطمه زهرا","lat":30.104822,"lng":55.123329,"addr":"","type":"yes"},{"id":"xx301328_551271","name":"مسجد حضرت ابوالفضل پارک صنعت","lat":30.132839,"lng":55.12712,"addr":"","type":"yes"},{"id":"xx301245_551164","name":"حسینیه هاوشک","lat":30.124514,"lng":55.116386,"addr":"","type":"yes"},{"id":"xx301212_551362","name":"Islamic place","lat":30.121243,"lng":55.13624,"addr":"","type":"yes"},{"id":"xx301104_551200","name":"مسجد صاحب الزمان","lat":30.110445,"lng":55.119994,"addr":"","type":"yes"},{"id":"xx301105_551196","name":"حسینیه محله پایین","lat":30.110524,"lng":55.119601,"addr":"","type":"yes"},{"id":"xx301299_551058","name":"مسجد امیرالمومنین","lat":30.129944,"lng":55.105813,"addr":"","type":"yes"},{"id":"xx301233_550954","name":"حسینیه موروئیه","lat":30.123343,"lng":55.095412,"addr":"","type":"yes"},{"id":"xx301231_550949","name":"مسجد موروئیه","lat":30.123126,"lng":55.094927,"addr":"","type":"yes"},{"id":"xx301281_551249","name":"Islamic place","lat":30.128075,"lng":55.124944,"addr":"","type":"yes"},{"id":"xx301072_551437","name":"مسجد علی بن ابیطالب","lat":30.107168,"lng":55.143672,"addr":"","type":"yes"},{"id":"xx301200_551246","name":"مسجد شهر کهنه","lat":30.120048,"lng":55.124587,"addr":"","type":"yes"},{"id":"xx300906_551355","name":"مسجد شریک آباد","lat":30.090649,"lng":55.13549,"addr":"","type":"yes"},{"id":"xx343827_587016","name":"Islamic place","lat":34.382739,"lng":58.701586,"addr":"","type":"mosque"},{"id":"xx301203_551175","name":"حسینیه غریب شاهی","lat":30.120341,"lng":55.117518,"addr":"","type":"yes"},{"id":"xx300921_551105","name":"مسجد گلوزرداب","lat":30.092102,"lng":55.110503,"addr":"","type":"yes"},{"id":"xx300498_550976","name":"مسجد استبرق","lat":30.049838,"lng":55.097606,"addr":"","type":"yes"},{"id":"xx301470_550885","name":"مسجد امام حسین قنات نوج","lat":30.14703,"lng":55.088501,"addr":"","type":"yes"},{"id":"xx301036_551144","name":"مسجد امام حسن مجتبی","lat":30.10358,"lng":55.114435,"addr":"","type":"yes"},{"id":"xx300424_550958","name":"مسجد خواجه خضر","lat":30.0424,"lng":55.095808,"addr":"","type":"place_of_worship"},{"id":"xx301559_550839","name":"مسجد باب الحوایج","lat":30.155852,"lng":55.083944,"addr":"","type":"yes"},{"id":"xx301001_551279","name":"حسینیه حضرت علی اصغر","lat":30.100074,"lng":55.127949,"addr":"","type":"husayniyyah"},{"id":"xx301176_551178","name":"مسجد ولیعصر","lat":30.117647,"lng":55.117784,"addr":"","type":"yes"},{"id":"xx300980_551371","name":"مسجد امام سجاد","lat":30.097956,"lng":55.137102,"addr":"","type":"yes"},{"id":"xx301204_551073","name":"حسینیه شهدای ده موسی","lat":30.120438,"lng":55.107275,"addr":"","type":"husayniyyah"},{"id":"xx301207_551049","name":"مسجد حضرت ابوالفضل محله سادات","lat":30.12065,"lng":55.104914,"addr":"","type":"yes"},{"id":"xx301255_551327","name":"هییت انصارالمهدی","lat":30.125495,"lng":55.132739,"addr":"","type":"yes"},{"id":"xx301478_550857","name":"مسجد حضرت ابوالفضل","lat":30.147842,"lng":55.085741,"addr":"","type":"yes"},{"id":"xx300080_554215","name":"مسجد ابوالفضل خاتون آباد","lat":30.008034,"lng":55.421516,"addr":"","type":"yes"},{"id":"xx330384_597023","name":"قبرستان گسک","lat":33.038442,"lng":59.702259,"addr":"","type":"mosque"},{"id":"xx300659_552017","name":"حسینیه علی اصغر برفه","lat":30.065916,"lng":55.201727,"addr":"","type":"yes"},{"id":"xx300715_552049","name":"مسجد ابوالفضل گهرت","lat":30.071539,"lng":55.204903,"addr":"","type":"yes"},{"id":"xx300718_552043","name":"حسینیه گهرت","lat":30.071834,"lng":55.204253,"addr":"","type":"yes"},{"id":"xx347963_598492","name":"Islamic place","lat":34.796272,"lng":59.849163,"addr":"","type":"mosque"},{"id":"xx348111_584284","name":"Islamic place","lat":34.811109,"lng":58.428364,"addr":"","type":"mosque"},{"id":"xx348065_584441","name":"Islamic place","lat":34.806496,"lng":58.444098,"addr":"","type":"mosque"},{"id":"xx347883_583503","name":"Islamic place","lat":34.788312,"lng":58.35031,"addr":"","type":"mosque"},{"id":"xx335311_591264","name":"Islamic place","lat":33.531147,"lng":59.126388,"addr":"","type":"mosque"},{"id":"xx335558_591553","name":"Islamic place","lat":33.555801,"lng":59.155343,"addr":"","type":"mosque"},{"id":"xx301248_551162","name":"Islamic place","lat":30.124845,"lng":55.11622,"addr":"","type":"yes"},{"id":"xx329155_592409","name":"مسجد خاتم الانبیاء","lat":32.915493,"lng":59.240913,"addr":"","type":"mosque"},{"id":"xx333263_593515","name":"آستان امامزاده میر عباس حسنی","lat":33.326298,"lng":59.351536,"addr":"","type":"grave_yard"},{"id":"xx334107_569527","name":"حسینیه آقا علی","lat":33.410667,"lng":56.952693,"addr":"","type":"mosque"},{"id":"xx334118_569528","name":"مسجد جامع فهالنج","lat":33.411811,"lng":56.952772,"addr":"","type":"mosque"},{"id":"xx328377_593266","name":"مصلی بجد","lat":32.837717,"lng":59.326606,"addr":"بجد","type":"yes"},{"id":"xx304116_560062","name":"مسجد خیراندیش","lat":30.411568,"lng":56.006236,"addr":"","type":"mosque"},{"id":"xx303655_560404","name":"مسجد ابوالفضل","lat":30.365461,"lng":56.040368,"addr":"","type":"place_of_worship"},{"id":"xx304265_551604","name":"نمازخانه","lat":30.426455,"lng":55.160441,"addr":"","type":"yes"},{"id":"xx335947_569311","name":"Islamic place","lat":33.594738,"lng":56.931114,"addr":"","type":"yes"},{"id":"xx335908_569211","name":"Islamic place","lat":33.590781,"lng":56.921099,"addr":"","type":"yes"},{"id":"xx334425_569660","name":"Islamic place","lat":33.442508,"lng":56.966008,"addr":"","type":"yes"},{"id":"xx330147_598909","name":"مسجد جامع هندوالان","lat":33.014708,"lng":59.890899,"addr":"","type":"yes"},{"id":"xx336812_586759","name":"Islamic place","lat":33.68115,"lng":58.675923,"addr":"","type":"mosque"},{"id":"xx343114_584445","name":"Islamic place","lat":34.311392,"lng":58.444543,"addr":"","type":"yes"},{"id":"xx308687_552588","name":"مسجد امام علی","lat":30.86875,"lng":55.258833,"addr":"","type":"yes"},{"id":"xx308622_552661","name":"مسجد ابوالفضل","lat":30.862166,"lng":55.266132,"addr":"","type":"mosque"},{"id":"xx302099_570225","name":"Islamic place","lat":30.209928,"lng":57.022492,"addr":"","type":"mosque"},{"id":"xx340223_581682","name":"مسجد جامع و مصلی بزرگ فردوس","lat":34.022335,"lng":58.168225,"addr":"مصلی، ابن یمین","type":"place_of_worship"},{"id":"xx340104_581638","name":"مسجد حجّة ابن الحسن","lat":34.010388,"lng":58.16381,"addr":"","type":"place_of_worship"},{"id":"xx312520_568115","name":"مسجد حضرت رقیه","lat":31.251957,"lng":56.811456,"addr":"راور","type":"mosque"},{"id":"xx312647_568187","name":"مسجد الزهرا","lat":31.264662,"lng":56.818685,"addr":"","type":"yes"},{"id":"xx301290_571680","name":"نمازخانه","lat":30.128962,"lng":57.167972,"addr":"","type":"mosque"},{"id":"xx312714_568133","name":"مسجد میلانی","lat":31.271384,"lng":56.813259,"addr":"","type":"mosque"},{"id":"xx340560_582293","name":"نمازخانه مجتمع رفاهی امام رضا","lat":34.056047,"lng":58.229286,"addr":"","type":"yes"},{"id":"xx340077_581590","name":"شبستان آخوند ملا اکبر","lat":34.007698,"lng":58.159049,"addr":"","type":"mosque"},{"id":"xx340428_582176","name":"مسجد جامع اسلامیه","lat":34.042848,"lng":58.217621,"addr":"","type":"place_of_worship"},{"id":"xx302813_570092","name":"مدرسه بوعلی(باستانه پاریزی) دوره دوم","lat":30.281332,"lng":57.009157,"addr":"","type":"school"},{"id":"xx340024_581654","name":"گلزار شهدای فردوس","lat":34.00244,"lng":58.165359,"addr":"","type":"yes"},{"id":"xx328446_592293","name":"پیش دبستان سما","lat":32.844633,"lng":59.229254,"addr":"","type":"yes"},{"id":"xx340246_581806","name":"مسجد چهارده معصوم","lat":34.024642,"lng":58.180624,"addr":"","type":"yes"},{"id":"xx302925_571291","name":"حسینیه شهدا","lat":30.292459,"lng":57.12905,"addr":"","type":"husayniyyah"},{"id":"xx340323_581894","name":"مسجد ولیعصر","lat":34.032305,"lng":58.189438,"addr":"","type":"yes"},{"id":"xx340383_581930","name":"مسجد فاطمه زهرا","lat":34.038337,"lng":58.192985,"addr":"","type":"yes"},{"id":"xx340142_581782","name":"مسجد امیرالمؤمنین","lat":34.014223,"lng":58.178223,"addr":"","type":"mosque"},{"id":"xx341090_582960","name":"بهشت محمدی","lat":34.109025,"lng":58.295951,"addr":"","type":"mosque"},{"id":"xx340913_582804","name":"بهشت علی","lat":34.091323,"lng":58.280444,"addr":"","type":"mosque"},{"id":"xx340335_581112","name":"Islamic place","lat":34.033531,"lng":58.111233,"addr":"","type":"mosque"},{"id":"xx339775_583749","name":"امامزاده سلطان ابوالقاسم","lat":33.977505,"lng":58.374851,"addr":"","type":"yes"},{"id":"xx339775_583751","name":"قبرستان سرند","lat":33.977491,"lng":58.37511,"addr":"","type":"mosque"},{"id":"xx341242_583857","name":"بهشت ابوالفضل","lat":34.124179,"lng":58.385711,"addr":"","type":"mosque"},{"id":"xx327713_588735","name":"Islamic place","lat":32.771309,"lng":58.873477,"addr":"","type":"mosque"},{"id":"xx314143_562763","name":"حسینیه بزرگ","lat":31.414318,"lng":56.276274,"addr":"","type":"mosque"},{"id":"xx314098_562903","name":"مصلی-قبور شهدای گمنام","lat":31.409768,"lng":56.290265,"addr":"","type":"mosque"},{"id":"xx314041_562716","name":"بهشت زهرا","lat":31.404072,"lng":56.271551,"addr":"","type":"mosque"},{"id":"xx314022_562693","name":"غسالخانه","lat":31.402182,"lng":56.269324,"addr":"","type":"mortuary"},{"id":"xx314054_562796","name":"حسینیه صحرای اپوروار","lat":31.405388,"lng":56.279645,"addr":"","type":"mosque"},{"id":"xx314108_562859","name":"حسینیه سیدالشهدا","lat":31.410781,"lng":56.285882,"addr":"","type":"mosque"},{"id":"xx304191_559882","name":"مسجد ابوالفضل","lat":30.41908,"lng":55.988201,"addr":"","type":"yes"},{"id":"xx341614_585783","name":"Islamic place","lat":34.161368,"lng":58.578346,"addr":"","type":"yes"},{"id":"xx341611_585790","name":"Islamic place","lat":34.161091,"lng":58.578956,"addr":"","type":"yes"},{"id":"xx341598_585789","name":"Islamic place","lat":34.159831,"lng":58.578887,"addr":"","type":"yes"},{"id":"xx341446_585658","name":"امامزاده محمود","lat":34.144559,"lng":58.565827,"addr":"","type":"yes"},{"id":"xx315993_553959","name":"Islamic place","lat":31.599334,"lng":55.395933,"addr":"","type":"mosque"},{"id":"xx314556_558819","name":"Islamic place","lat":31.455648,"lng":55.88192,"addr":"","type":"mosque"},{"id":"xx302630_570084","name":"مدرسه پسرانه دوره اول و دوم صالحی","lat":30.262988,"lng":57.008402,"addr":"خیابان صاحب الزمان","type":"yes"},{"id":"xx302852_570560","name":"دبستان دخترانه دوره اول کرامت","lat":30.285242,"lng":57.056003,"addr":"تبریزچی","type":"house"},{"id":"xx308494_566311","name":"مسجد و تکیه حضرت رقیه","lat":30.849405,"lng":56.631051,"addr":"","type":"yes"},{"id":"xx308520_566340","name":"Islamic place","lat":30.851956,"lng":56.634036,"addr":"","type":"yes"},{"id":"xx308832_565910","name":"Islamic place","lat":30.88319,"lng":56.591039,"addr":"","type":"yes"},{"id":"xx305278_560548","name":"مسجد صاحب الزمان","lat":30.527793,"lng":56.05479,"addr":"","type":"mosque"},{"id":"xx308357_565755","name":"غسالخانه زرند","lat":30.835718,"lng":56.57548,"addr":"","type":"mosque"},{"id":"xx309105_565698","name":"مسجد ابولفضل","lat":30.91054,"lng":56.569822,"addr":"","type":"yes"},{"id":"xx309144_565695","name":"حسینیه","lat":30.914387,"lng":56.569463,"addr":"","type":"place_of_worship"},{"id":"xx309192_565788","name":"قبرستان بابتنگل","lat":30.919193,"lng":56.578769,"addr":"","type":"mosque"},{"id":"xx345112_581782","name":"مسجد امام علی علیه السلام","lat":34.511225,"lng":58.17817,"addr":"","type":"mosque"},{"id":"xx307611_566173","name":"امام‌زاده عبدالله","lat":30.761094,"lng":56.617294,"addr":"","type":"mosque"},{"id":"xx348803_586249","name":"Islamic place","lat":34.880278,"lng":58.624883,"addr":"","type":"mosque"},{"id":"xx337830_593006","name":"امام زاده بی بی زبیده خاتون اسفشاد","lat":33.782963,"lng":59.300555,"addr":"","type":"mosque"},{"id":"xx337259_592914","name":"مزار نروگ","lat":33.725898,"lng":59.291412,"addr":"","type":"mosque"},{"id":"xx337445_591788","name":"Islamic place","lat":33.744469,"lng":59.178794,"addr":"","type":"yes"},{"id":"xx337578_592768","name":"Islamic place","lat":33.757784,"lng":59.276804,"addr":"","type":"yes"},{"id":"xx337591_592810","name":"مسجد امام هادی","lat":33.759091,"lng":59.28097,"addr":"","type":"yes"},{"id":"xx335254_597475","name":"مسجد جامع تاریخی افین","lat":33.525421,"lng":59.747472,"addr":"","type":"mosque"},{"id":"xx337905_598946","name":"Islamic place","lat":33.7905,"lng":59.894578,"addr":"","type":"mosque"},{"id":"xx337905_598947","name":"خاتم الانبیا","lat":33.790473,"lng":59.894691,"addr":"","type":"place_of_worship"},{"id":"xx340103_581637","name":"مسجد حجّة ابن الحسن","lat":34.010342,"lng":58.163716,"addr":"","type":"place_of_worship"},{"id":"xx312713_568132","name":"مسجد میلانی","lat":31.27134,"lng":56.813194,"addr":"","type":"mosque"},{"id":"xx340078_581590","name":"شبستان آخوند ملا اکبر","lat":34.007768,"lng":58.159033,"addr":"","type":"mosque"},{"id":"xx340429_582175","name":"مسجد جامع اسلامیه","lat":34.042863,"lng":58.217522,"addr":"","type":"place_of_worship"},{"id":"xx302814_570091","name":"مدرسه بوعلی(باستانه پاریزی) دوره دوم","lat":30.281427,"lng":57.009103,"addr":"","type":"school"},{"id":"xx340024_581653","name":"گلزار شهدای فردوس","lat":34.002424,"lng":58.165341,"addr":"","type":"yes"},{"id":"xx340913_582803","name":"بهشت علی","lat":34.091256,"lng":58.280346,"addr":"","type":"mosque"},{"id":"xx340334_581111","name":"Islamic place","lat":34.033405,"lng":58.111119,"addr":"","type":"mosque"},{"id":"xx339775_583748","name":"امامزاده سلطان ابوالقاسم","lat":33.977484,"lng":58.374837,"addr":"","type":"yes"},{"id":"xx339774_583750","name":"قبرستان سرند","lat":33.977407,"lng":58.37497,"addr":"","type":"mosque"},{"id":"xx341241_583856","name":"بهشت ابوالفضل","lat":34.12411,"lng":58.385599,"addr":"","type":"mosque"},{"id":"xx327712_588734","name":"Islamic place","lat":32.771187,"lng":58.873383,"addr":"","type":"mosque"},{"id":"xx314098_562902","name":"مصلی-قبور شهدای گمنام","lat":31.40981,"lng":56.29024,"addr":"","type":"mosque"},{"id":"xx314041_562715","name":"بهشت زهرا","lat":31.404136,"lng":56.271514,"addr":"","type":"mosque"},{"id":"xx314107_562857","name":"حسینیه سیدالشهدا","lat":31.410741,"lng":56.285733,"addr":"","type":"mosque"},{"id":"xx341611_585789","name":"Islamic place","lat":34.161059,"lng":58.578936,"addr":"","type":"yes"},{"id":"xx314557_558819","name":"Islamic place","lat":31.455712,"lng":55.881883,"addr":"","type":"mosque"},{"id":"xx302853_570559","name":"دبستان دخترانه دوره اول کرامت","lat":30.28534,"lng":57.055939,"addr":"تبریزچی","type":"house"},{"id":"xx308494_566310","name":"مسجد و تکیه حضرت رقیه","lat":30.849376,"lng":56.630992,"addr":"","type":"yes"},{"id":"xx308519_566340","name":"Islamic place","lat":30.8519,"lng":56.633972,"addr":"","type":"yes"},{"id":"xx308832_565909","name":"Islamic place","lat":30.883213,"lng":56.590943,"addr":"","type":"yes"},{"id":"xx309105_565696","name":"مسجد ابولفضل","lat":30.910532,"lng":56.569617,"addr":"","type":"yes"},{"id":"xx309144_565694","name":"حسینیه","lat":30.914391,"lng":56.569404,"addr":"","type":"place_of_worship"},{"id":"xx309194_565785","name":"قبرستان بابتنگل","lat":30.919353,"lng":56.578492,"addr":"","type":"mosque"},{"id":"xx345112_581781","name":"مسجد امام علی علیه السلام","lat":34.511209,"lng":58.178145,"addr":"","type":"mosque"},{"id":"xx307612_566172","name":"امام‌زاده عبدالله","lat":30.761185,"lng":56.617211,"addr":"","type":"mosque"},{"id":"xx348802_586246","name":"Islamic place","lat":34.880176,"lng":58.62461,"addr":"","type":"mosque"},{"id":"xx337830_593005","name":"امام زاده بی بی زبیده خاتون اسفشاد","lat":33.782977,"lng":59.300538,"addr":"","type":"mosque"},{"id":"xx337591_592809","name":"مسجد امام هادی","lat":33.759067,"lng":59.280911,"addr":"","type":"yes"}]