[{"id":"xx361306_-980373","name":"Staint James Church","lat":36.130593,"lng":-98.037283,"addr":"","type":"place_of_worship"},{"id":"xx356681_-973259","name":"Saint James AME Church","lat":35.668112,"lng":-97.325869,"addr":"","type":"place_of_worship"},{"id":"xx367338_-959160","name":"Saint James Catholic Church","lat":36.733779,"lng":-95.91596,"addr":"","type":"place_of_worship"},{"id":"xx360016_-959198","name":"Saint James United Methodist Church","lat":36.001643,"lng":-95.919753,"addr":"","type":"place_of_worship"},{"id":"xx359904_-959764","name":"Saint James Presbyterian Church","lat":35.990374,"lng":-95.976383,"addr":"","type":"place_of_worship"},{"id":"xx355209_-975731","name":"Islamic Center of Oklahoma City","lat":35.520891,"lng":-97.573096,"addr":"","type":"place_of_worship"},{"id":"xx355148_-973050","name":"Saint James Baptist Church","lat":35.514784,"lng":-97.305033,"addr":"","type":"place_of_worship"},{"id":"xx377081_-973103","name":"Saint James Baptist Church","lat":37.708069,"lng":-97.310322,"addr":"","type":"place_of_worship"},{"id":"xx377462_-972585","name":"Islamic Society of Wichita","lat":37.746175,"lng":-97.258541,"addr":"","type":"place_of_worship"},{"id":"xx356608_-974753","name":"Islamic place","lat":35.660797,"lng":-97.475277,"addr":"","type":"place_of_worship"},{"id":"xx352036_-974372","name":"Islamic Society of Norman","lat":35.203595,"lng":-97.437174,"addr":"East Lindsey Street","type":"place_of_worship"},{"id":"xx396351_-958091","name":"St. James Catholic Church","lat":39.635133,"lng":-95.809094,"addr":"5th Street","type":"place_of_worship"},{"id":"xx390187_-956626","name":"Islamic Center of Topeka","lat":39.018729,"lng":-95.66262,"addr":"Southeast Kentucky Avenue","type":"church"},{"id":"xx390188_-956627","name":"Islamic Center of Topeka","lat":39.01875,"lng":-95.662689,"addr":"Southeast Kentucky Avenue","type":"church"},{"id":"xx389495_-952516","name":"Islamic Center of Lawrence","lat":38.949479,"lng":-95.251577,"addr":"Naismith Drive","type":"mosque"},{"id":"xx389496_-952515","name":"Islamic place","lat":38.949557,"lng":-95.251524,"addr":"Naismith Drive","type":"mosque"},{"id":"xx389496_-952516","name":"Islamic place","lat":38.949576,"lng":-95.251557,"addr":"Naismith Drive","type":"mosque"},{"id":"xx361109_-970589","name":"St. James","lat":36.110891,"lng":-97.058897,"addr":"South Main Street","type":"yes"},{"id":"xx376870_-972929","name":"Saint James Episcopal Church","lat":37.68701,"lng":-97.292876,"addr":"East Douglas Avenue","type":"church"},{"id":"xx361293_-970699","name":"Islamic Society of Stillwater","lat":36.129316,"lng":-97.069907,"addr":"","type":"mosque"},{"id":"xx391926_-966042","name":"Islamic Center of Manhattan","lat":39.192634,"lng":-96.604249,"addr":"Hylton Heights Road","type":"yes"},{"id":"xx391927_-966043","name":"Islamic Center of Manhattan","lat":39.192661,"lng":-96.604277,"addr":"Hylton Heights Road","type":"yes"},{"id":"xx361130_-970467","name":"Saint James Orthodox Christian Church","lat":36.112989,"lng":-97.046684,"addr":"South Hall Street","type":"yes"},{"id":"xx391927_-966042","name":"Islamic place","lat":39.19269,"lng":-96.604243,"addr":"","type":"mosque"},{"id":"xx354227_-975372","name":"Saint James the Greater Catholic Church","lat":35.422745,"lng":-97.537234,"addr":"South McKinley Avenue","type":"place_of_worship"},{"id":"xx377464_-972585","name":"Islamic place","lat":37.746362,"lng":-97.258495,"addr":"","type":"mosque"},{"id":"xx360960_-959118","name":"Islamic Society of Tulsa: Masjid Al-Salam","lat":36.095969,"lng":-95.911831,"addr":"","type":"yes"},{"id":"xx353824_-975471","name":"Saint James' Episcopal Church","lat":35.382399,"lng":-97.547116,"addr":"South Pennsylvania Avenue","type":"yes"},{"id":"xx359584_-953736","name":"Saint James Episcopal Church","lat":35.958385,"lng":-95.373584,"addr":"East Church Street","type":"church"},{"id":"xx388738_-993254","name":"Masjid of Hays","lat":38.873814,"lng":-99.325433,"addr":"Pine Street","type":"yes"},{"id":"xx388738_-993255","name":"Masjid of Hays","lat":38.87381,"lng":-99.325462,"addr":"Pine Street","type":"yes"},{"id":"xx384072_-961722","name":"Saint James Missionary Baptist Church","lat":38.407174,"lng":-96.172153,"addr":"Sylvan Street","type":"yes"},{"id":"xx384120_-961791","name":"Islamic Center of Emporia","lat":38.411958,"lng":-96.179147,"addr":"Mechanic Street","type":"yes"}]