[{"id":"xx387170_-897659","name":"Saint James Catholic Church","lat":38.716992,"lng":-89.765927,"addr":"","type":"place_of_worship"},{"id":"xx387625_-899730","name":"Saint James Lutheran Church","lat":38.762538,"lng":-89.972992,"addr":"","type":"place_of_worship"},{"id":"xx389609_-890998","name":"Saint James Evangelical Lutheran Church","lat":38.960879,"lng":-89.099789,"addr":"","type":"place_of_worship"},{"id":"xx377284_-889251","name":"Saint James Episcopal Church","lat":37.728383,"lng":-88.92507,"addr":"","type":"place_of_worship"},{"id":"xx391614_-894868","name":"Saint James Baptist Church","lat":39.161436,"lng":-89.486754,"addr":"","type":"place_of_worship"},{"id":"xx398395_-889476","name":"Saint James Roman Catholic Church","lat":39.839481,"lng":-88.947578,"addr":"","type":"place_of_worship"},{"id":"xx399864_-876370","name":"Saint James Christian Methodist Episcopal Church","lat":39.986426,"lng":-87.636966,"addr":"","type":"place_of_worship"},{"id":"xx350304_-851947","name":"Saint James Church","lat":35.030352,"lng":-85.194676,"addr":"","type":"place_of_worship"},{"id":"xx356959_-896884","name":"Saint James Church","lat":35.695893,"lng":-89.688373,"addr":"","type":"place_of_worship"},{"id":"xx350393_-896820","name":"Saint James Church","lat":35.039259,"lng":-89.682027,"addr":"","type":"place_of_worship"},{"id":"xx351754_-899206","name":"Saint James Church","lat":35.175367,"lng":-89.920643,"addr":"","type":"place_of_worship"},{"id":"xx362484_-867306","name":"Saint James the Less Episcopal Church","lat":36.248387,"lng":-86.730553,"addr":"","type":"place_of_worship"},{"id":"xx354534_-867994","name":"Saint James Baptist Church","lat":35.453407,"lng":-86.799444,"addr":"","type":"place_of_worship"},{"id":"xx350345_-852741","name":"Saint James Baptist Church","lat":35.034518,"lng":-85.274124,"addr":"","type":"place_of_worship"},{"id":"xx360789_-873861","name":"Saint James African Methodist Episcopal Church","lat":36.078949,"lng":-87.386123,"addr":"","type":"place_of_worship"},{"id":"xx360763_-873919","name":"Saint James Episcopal Church","lat":36.076257,"lng":-87.391904,"addr":"","type":"place_of_worship"},{"id":"xx361564_-868192","name":"Saint James Missionary Baptist Church","lat":36.156446,"lng":-86.819166,"addr":"","type":"place_of_worship"},{"id":"xx351998_-899534","name":"James Road Baptist Church","lat":35.199811,"lng":-89.953422,"addr":"","type":"place_of_worship"},{"id":"xx361773_-868172","name":"James Tabernacle Baptist Church","lat":36.177279,"lng":-86.817222,"addr":"","type":"place_of_worship"},{"id":"xx361936_-867398","name":"Saint James African Methodist Episcopal Church","lat":36.19362,"lng":-86.739847,"addr":"","type":"place_of_worship"},{"id":"xx352551_-889895","name":"Saint James Episcopal Church","lat":35.255083,"lng":-88.989506,"addr":"","type":"place_of_worship"},{"id":"xx351996_-899837","name":"James Road Church of Christ","lat":35.199564,"lng":-89.983658,"addr":"","type":"place_of_worship"},{"id":"xx351191_-899491","name":"Saint James Church","lat":35.119086,"lng":-89.949109,"addr":"","type":"place_of_worship"},{"id":"xx351735_-899589","name":"Saint James Church of God and Christ","lat":35.173538,"lng":-89.958949,"addr":"","type":"place_of_worship"},{"id":"xx351137_-899714","name":"Saint James Church of God In Christ","lat":35.113668,"lng":-89.971391,"addr":"","type":"place_of_worship"},{"id":"xx373342_-897484","name":"Saint James Church","lat":37.334219,"lng":-89.748429,"addr":"","type":"place_of_worship"},{"id":"xx383128_-854847","name":"Saint James Church","lat":38.312847,"lng":-85.484682,"addr":"","type":"place_of_worship"},{"id":"xx358137_-863497","name":"Islamic Center of Murfreesboro","lat":35.81369,"lng":-86.34971,"addr":"Veals Road","type":"yes"},{"id":"xx385653_-899651","name":"Belleville Masjid & Islamic Education Center","lat":38.565296,"lng":-89.965124,"addr":"Old Collinsville Road","type":"place_of_worship"},{"id":"xx397620_-896249","name":"Islamic Society of Springfield","lat":39.761951,"lng":-89.624874,"addr":"Stanton Street","type":"place_of_worship"},{"id":"xx351454_-897217","name":"Memphis Islamic Center","lat":35.145383,"lng":-89.721725,"addr":"Humphrey Road","type":"place_of_worship"},{"id":"xx351602_-899066","name":"Masjid Al-Salam - Muslim Society of Memphis","lat":35.160216,"lng":-89.906585,"addr":"Stratford Road","type":"place_of_worship"},{"id":"xx350293_-897075","name":"Jamatkhana","lat":35.02933,"lng":-89.707466,"addr":"Collierville Road","type":"place_of_worship"},{"id":"xx382909_-856788","name":"Louisville Islamic Center of Compassion","lat":38.290927,"lng":-85.678816,"addr":"","type":"place_of_worship"},{"id":"xx396631_-863857","name":"Islamic Society of North America","lat":39.663071,"lng":-86.385738,"addr":"S County Road 750 East","type":"place_of_worship"},{"id":"xx356122_-889133","name":"Islamic Center of Jackson","lat":35.612198,"lng":-88.913257,"addr":"","type":"place_of_worship"},{"id":"xx353372_-898352","name":"Saint James Church","lat":35.337195,"lng":-89.835213,"addr":"","type":"place_of_worship"},{"id":"xx379764_-875691","name":"Masjid As-Sunnah Mosque","lat":37.976408,"lng":-87.569118,"addr":"Court Street","type":"place_of_worship"},{"id":"xx361594_-868765","name":"James Avenue Church of Christ","lat":36.159444,"lng":-86.876489,"addr":"","type":"church"},{"id":"xx361594_-868766","name":"James Avenue Church of Christ","lat":36.159425,"lng":-86.876566,"addr":"","type":"church"},{"id":"xx398049_-862042","name":"Masjid Al-Fajr","lat":39.804894,"lng":-86.204151,"addr":"Cold Spring Road","type":"yes"},{"id":"xx382324_-857108","name":"Saint James Catholic Church","lat":38.232389,"lng":-85.710806,"addr":"Bardstown Road","type":"church"},{"id":"xx381949_-857826","name":"Saint James United Church of Christ","lat":38.194948,"lng":-85.782551,"addr":"Taylor Boulevard","type":"yes"},{"id":"xx382530_-857877","name":"Saint James Baptist Church","lat":38.253,"lng":-85.787739,"addr":"West Madison Street","type":"yes"},{"id":"xx382787_-855999","name":"The Muslim Communnity Center of Louisville","lat":38.278714,"lng":-85.599914,"addr":"","type":"yes"},{"id":"xx382085_-857647","name":"Al-Nur Mosque","lat":38.208454,"lng":-85.764661,"addr":"South 4th Street","type":"mosque"},{"id":"xx382371_-857889","name":"Greater Saint James African Methodist Episcopal Church","lat":38.237108,"lng":-85.788852,"addr":"West Oak Street","type":"yes"},{"id":"xx381885_-856927","name":"Alzahrah Islamic Center","lat":38.188534,"lng":-85.692721,"addr":"4010 Bishop Lane","type":"yes"},{"id":"xx382530_-857878","name":"Saint James Baptist Church","lat":38.252994,"lng":-85.787756,"addr":"West Madison Street","type":"yes"},{"id":"xx382084_-857647","name":"Al-Nur Mosque","lat":38.208446,"lng":-85.764675,"addr":"South 4th Street","type":"mosque"},{"id":"xx381886_-856928","name":"Alzahrah Islamic Center","lat":38.188582,"lng":-85.692758,"addr":"4010 Bishop Lane","type":"yes"},{"id":"xx397619_-896249","name":"Islamic place","lat":39.761947,"lng":-89.624888,"addr":"Stanton Street","type":"yes"},{"id":"xx369835_-850660","name":"Jamestown First Baptist","lat":36.98354,"lng":-85.066028,"addr":"West Cumberland Avenue","type":"yes"},{"id":"xx369833_-850624","name":"Jamestown Christian Church","lat":36.983271,"lng":-85.062364,"addr":"South Main Street","type":"yes"},{"id":"xx369863_-850649","name":"Jamestown Methodist Church","lat":36.986292,"lng":-85.064875,"addr":"North Main Street","type":"yes"},{"id":"xx369953_-850725","name":"Jamestown Church of Christ","lat":36.995341,"lng":-85.072521,"addr":"","type":"yes"},{"id":"xx350323_-852958","name":"The Islamic Center of Chattanooga","lat":35.032273,"lng":-85.295845,"addr":"","type":"yes"},{"id":"xx369829_-850611","name":"Jamestown Nazarene Church","lat":36.982876,"lng":-85.061073,"addr":"South Main Street","type":"yes"},{"id":"xx387626_-899730","name":"Saint James Lutheran Church","lat":38.762575,"lng":-89.97297,"addr":"","type":"yes"},{"id":"xx397623_-857635","name":"St. James Lutheran Church","lat":39.762349,"lng":-85.763516,"addr":"","type":"church"},{"id":"xx397624_-857635","name":"St. James Lutheran Church","lat":39.762372,"lng":-85.763535,"addr":"","type":"church"},{"id":"xx376965_-858629","name":"Saint James Catholic Church","lat":37.696541,"lng":-85.862852,"addr":"West Dixie Avenue","type":"church"},{"id":"xx361357_-867611","name":"Al-Mahdi Islamic Center","lat":36.135734,"lng":-86.761136,"addr":"","type":"yes"},{"id":"xx361242_-867900","name":"Islamic Center of Nashville","lat":36.124231,"lng":-86.790015,"addr":"","type":"yes"},{"id":"xx398404_-861261","name":"Nur-Allah Islamic Center","lat":39.840409,"lng":-86.126107,"addr":"East 46th Street","type":"mosque"},{"id":"xx398257_-861242","name":"Islamic place","lat":39.825698,"lng":-86.124208,"addr":"East 38th Street","type":"yes"},{"id":"xx350486_-851466","name":"Islamic Society of Greater Chattanooga","lat":35.04865,"lng":-85.14656,"addr":"","type":"yes"},{"id":"xx351174_-899445","name":"Masjid Al-Noor","lat":35.117424,"lng":-89.944509,"addr":"Mynders Avenue","type":"yes"},{"id":"xx352054_-898865","name":"Al Rasool Center","lat":35.205402,"lng":-89.886454,"addr":"Stage Road","type":"yes"},{"id":"xx380951_-885378","name":"Saint James Episcopal Church","lat":38.095087,"lng":-88.537845,"addr":"","type":"place_of_worship"},{"id":"xx359837_-865170","name":"Mahmood Mosque","lat":35.983656,"lng":-86.516977,"addr":"Maple Street","type":"yes"},{"id":"xx391633_-865100","name":"Islamic Center of Bloomington","lat":39.163335,"lng":-86.510003,"addr":"","type":"yes"},{"id":"xx397550_-861233","name":"Greater Saint James Baptist Church","lat":39.754961,"lng":-86.123253,"addr":"Saint Paul Street","type":"yes"},{"id":"xx398488_-862588","name":"Masjid Noor","lat":39.848771,"lng":-86.258784,"addr":"Lafayette Road","type":"yes"},{"id":"xx399656_-860130","name":"Alhuda Islamic Center of Indiana (AICI)","lat":39.965638,"lng":-86.012983,"addr":"Lantern Road","type":"mosque"},{"id":"xx377247_-858381","name":"Islamic Center of Elizabethtown","lat":37.724726,"lng":-85.838122,"addr":"Ring Road","type":"yes"},{"id":"xx374194_-869231","name":"The Old King James Church","lat":37.419385,"lng":-86.923103,"addr":"","type":"yes"},{"id":"xx362629_-873577","name":"Saint James Episcopal Church","lat":36.262907,"lng":-87.357682,"addr":"","type":"yes"},{"id":"xx379741_-874315","name":"Islamic Center of Evansville","lat":37.974135,"lng":-87.431503,"addr":"Grimm Road","type":"mosque"},{"id":"xx366898_-887080","name":"Saint James Church","lat":36.689825,"lng":-88.708036,"addr":"","type":"church"},{"id":"xx361085_-867304","name":"Al-Farooq Islamic Center","lat":36.108453,"lng":-86.730388,"addr":"Thompson Lane","type":"yes"},{"id":"xx361084_-867304","name":"Al-Farooq Islamic Center","lat":36.108435,"lng":-86.730427,"addr":"Thompson Lane","type":"yes"},{"id":"xx359297_-898916","name":"Saint James Word of faith Ministry","lat":35.92972,"lng":-89.891551,"addr":"","type":"church"},{"id":"xx373126_-895506","name":"Islamic place","lat":37.312632,"lng":-89.550576,"addr":"","type":"mosque"},{"id":"xx362628_-891869","name":"Saint James Baptist Church","lat":36.26284,"lng":-89.186949,"addr":"","type":"yes"},{"id":"xx373128_-895508","name":"Islamic place","lat":37.312763,"lng":-89.550756,"addr":"","type":"mosque"},{"id":"xx362628_-891870","name":"Saint James Baptist Church","lat":36.262821,"lng":-89.186973,"addr":"","type":"yes"},{"id":"xx362299_-897488","name":"St James Word of Faith","lat":36.229939,"lng":-89.748821,"addr":"","type":"yes"},{"id":"xx382787_-855997","name":"Islamic place","lat":38.278656,"lng":-85.599742,"addr":"","type":"mosque"},{"id":"xx382786_-855998","name":"Islamic place","lat":38.278602,"lng":-85.59981,"addr":"","type":"mosque"},{"id":"xx364245_-890538","name":"St James Episcopal Church","lat":36.424482,"lng":-89.053767,"addr":"","type":"yes"}]