[{"id":"xx378954_-805740","name":"James Chapel United Methodist Church","lat":37.895397,"lng":-80.57397,"addr":"","type":"place_of_worship"},{"id":"xx377051_-805209","name":"James Memorial Church","lat":37.705122,"lng":-80.520907,"addr":"","type":"place_of_worship"},{"id":"xx374351_-815824","name":"Saint James Baptist Church","lat":37.435053,"lng":-81.582382,"addr":"","type":"place_of_worship"},{"id":"xx367591_-816550","name":"Saint James Church","lat":36.759116,"lng":-81.655049,"addr":"","type":"place_of_worship"},{"id":"xx369211_-800094","name":"Saint James Methodist Church","lat":36.921115,"lng":-80.009418,"addr":"","type":"place_of_worship"},{"id":"xx351567_-848691","name":"Saint James Cumberland Presbyterian Church","lat":35.156741,"lng":-84.869111,"addr":"","type":"place_of_worship"},{"id":"xx364276_-849294","name":"Jamestown First Baptist Church","lat":36.42757,"lng":-84.929392,"addr":"","type":"place_of_worship"},{"id":"xx350637_-812804","name":"Saint James United Methodist Church","lat":35.063746,"lng":-81.280354,"addr":"","type":"place_of_worship"},{"id":"xx399178_-829743","name":"Saint James Pentecostal Church","lat":39.917842,"lng":-82.974349,"addr":"","type":"place_of_worship"},{"id":"xx397370_-842061","name":"Saint James Catholic Church","lat":39.737003,"lng":-84.206052,"addr":"","type":"place_of_worship"},{"id":"xx396467_-818501","name":"Saint James Roman Catholic Church","lat":39.646738,"lng":-81.850136,"addr":"","type":"place_of_worship"},{"id":"xx396576_-837302","name":"Jamestown Friends Meeting House","lat":39.657561,"lng":-83.730201,"addr":"","type":"place_of_worship"},{"id":"xx354976_-810195","name":"Saint James Church","lat":35.497634,"lng":-81.019521,"addr":"","type":"place_of_worship"},{"id":"xx355731_-812207","name":"Saint James Church","lat":35.57309,"lng":-81.220684,"addr":"","type":"place_of_worship"},{"id":"xx356357_-811990","name":"Saint James Church","lat":35.635689,"lng":-81.19897,"addr":"","type":"place_of_worship"},{"id":"xx356604_-808023","name":"Saint James Episcopal Church","lat":35.660416,"lng":-80.802294,"addr":"","type":"place_of_worship"},{"id":"xx362424_-802912","name":"Saint James Church","lat":36.24236,"lng":-80.291162,"addr":"","type":"place_of_worship"},{"id":"xx356410_-808819","name":"Saint James Church","lat":35.640955,"lng":-80.881903,"addr":"","type":"place_of_worship"},{"id":"xx359350_-806422","name":"Ijames Crossroads Baptist","lat":35.935041,"lng":-80.642208,"addr":"","type":"place_of_worship"},{"id":"xx356336_-828915","name":"James Chapel","lat":35.633566,"lng":-82.891504,"addr":"James Chapel Road","type":"place_of_worship"},{"id":"xx357737_-818187","name":"Lake James Church","lat":35.773739,"lng":-81.818713,"addr":"","type":"place_of_worship"},{"id":"xx371668_-829971","name":"James Memorial Church","lat":37.166763,"lng":-82.997107,"addr":"","type":"place_of_worship"},{"id":"xx376856_-828145","name":"Saint James Episcopal Church","lat":37.685639,"lng":-82.814527,"addr":"","type":"place_of_worship"},{"id":"xx359131_-815392","name":"Saint James Episcopal Church","lat":35.913076,"lng":-81.539224,"addr":"College Avenue Southwest","type":"place_of_worship"},{"id":"xx393480_-843835","name":"Islamic place","lat":39.34796,"lng":-84.383532,"addr":"","type":"mosque"},{"id":"xx356142_-823269","name":"St. James Episcopal Church","lat":35.614203,"lng":-82.326893,"addr":"","type":"place_of_worship"},{"id":"xx399950_-830193","name":"James Sanctuary","lat":39.994964,"lng":-83.019344,"addr":"","type":"place_of_worship"},{"id":"xx391493_-845180","name":"Islamic Association of Cincinnati","lat":39.149347,"lng":-84.518005,"addr":"Clifton Avenue","type":"place_of_worship"},{"id":"xx352086_-807692","name":"Islamic Center of Charlotte","lat":35.208607,"lng":-80.76916,"addr":"Progress Lane","type":"place_of_worship"},{"id":"xx392435_-842859","name":"Saint James Orthodox Christian Church","lat":39.24349,"lng":-84.285939,"addr":"Branch Hill-Miamiville Road","type":"school"},{"id":"xx399803_-831497","name":"St James Lutheran Church","lat":39.980325,"lng":-83.149654,"addr":"","type":"yes"},{"id":"xx399804_-831497","name":"St James Lutheran Church","lat":39.980351,"lng":-83.149659,"addr":"","type":"yes"},{"id":"xx372434_-804160","name":"Masjid Al-Ihsan","lat":37.243449,"lng":-80.415974,"addr":"North Main Street","type":"mosque"},{"id":"xx391392_-844746","name":"Mohammed Temple #3","lat":39.13916,"lng":-84.474588,"addr":"Montgomery Road","type":"yes"},{"id":"xx393479_-843838","name":"Islamic place","lat":39.347941,"lng":-84.38381,"addr":"","type":"mosque"},{"id":"xx391391_-844746","name":"Mohammed Temple #3","lat":39.139127,"lng":-84.474592,"addr":"Montgomery Road","type":"yes"},{"id":"xx390799_-845066","name":"Saint James African Methodist Episcopal Church","lat":39.07994,"lng":-84.506582,"addr":"","type":"yes"},{"id":"xx392037_-846015","name":"Saint James the Greater Church","lat":39.203677,"lng":-84.601479,"addr":"","type":"church"},{"id":"xx390929_-845486","name":"Saint James Catholic Church","lat":39.092929,"lng":-84.548609,"addr":"Oak Street","type":"church"},{"id":"xx391487_-846072","name":"Saint James Episcopal Church","lat":39.148657,"lng":-84.607211,"addr":"Montana Avenue","type":"church"},{"id":"xx391486_-846072","name":"Saint James Episcopal Church","lat":39.148604,"lng":-84.607215,"addr":"Montana Avenue","type":"church"},{"id":"xx390003_-846494","name":"ICNK Community Center","lat":39.000315,"lng":-84.649445,"addr":"","type":"yes"},{"id":"xx390003_-846495","name":"ICNK Community Center","lat":39.000302,"lng":-84.649457,"addr":"","type":"yes"},{"id":"xx390003_-846491","name":"Islamic place","lat":39.000256,"lng":-84.649133,"addr":"","type":"mosque"},{"id":"xx390002_-846492","name":"Islamic place","lat":39.000213,"lng":-84.649203,"addr":"","type":"mosque"},{"id":"xx352641_-807936","name":"Masjid Ash-Shaheed","lat":35.264133,"lng":-80.793631,"addr":"West Sugar Creek Road","type":"mosque"},{"id":"xx352641_-807937","name":"Masjid Ash-Shaheed","lat":35.264115,"lng":-80.793658,"addr":"West Sugar Creek Road","type":"mosque"},{"id":"xx377997_-804499","name":"Saint James Episcopal Church","lat":37.799732,"lng":-80.449911,"addr":"","type":"church"},{"id":"xx352572_-807400","name":"Islamic Society of Greater Charlotte","lat":35.257194,"lng":-80.739958,"addr":"","type":"yes"},{"id":"xx362398_-802944","name":"St James United Methodist Church","lat":36.239781,"lng":-80.294393,"addr":"Bethania Rural Hall Road","type":"church"},{"id":"xx354083_-805794","name":"St James Lutheran Church","lat":35.40831,"lng":-80.579381,"addr":"Union Street North","type":"church"},{"id":"xx350772_-807758","name":"Charlotte Latin School","lat":35.077227,"lng":-80.77583,"addr":"Providence Road","type":"school"},{"id":"xx350773_-807759","name":"Charlotte Latin School","lat":35.077271,"lng":-80.775879,"addr":"Providence Road","type":"school"},{"id":"xx393478_-843836","name":"Islamic Center of Greater Cincinnati","lat":39.347755,"lng":-84.383616,"addr":"","type":"place_of_worship"},{"id":"xx393475_-843840","name":"Islamic Center of Greater Cincinnati","lat":39.347544,"lng":-84.383992,"addr":"","type":"place_of_worship"},{"id":"xx350512_-821106","name":"Greater St. James Temple Holiness Church, Inc.","lat":35.051186,"lng":-82.110574,"addr":"Asheville Highway","type":"church"},{"id":"xx376745_-822749","name":"Saint James African Methodist Episcopal Church","lat":37.674485,"lng":-82.274883,"addr":"","type":"yes"},{"id":"xx379782_-844857","name":"Islamic Center of Lexington","lat":37.978199,"lng":-84.48572,"addr":"Armstrong Mill Road","type":"yes"},{"id":"xx392254_-844735","name":"Saint James of the Valley Church","lat":39.225391,"lng":-84.473522,"addr":"","type":"place_of_worship"},{"id":"xx392253_-844737","name":"Saint James of the Valley Church","lat":39.225336,"lng":-84.47369,"addr":"","type":"place_of_worship"},{"id":"xx361642_-828311","name":"Saint James Episcopal Church","lat":36.164236,"lng":-82.831146,"addr":"West Church Street","type":"yes"},{"id":"xx361642_-828312","name":"Saint James Episcopal Church","lat":36.164231,"lng":-82.831182,"addr":"West Church Street","type":"yes"},{"id":"xx359435_-841566","name":"Knoxville Jamatkhana","lat":35.943535,"lng":-84.156582,"addr":"","type":"yes"},{"id":"xx375801_-809381","name":"James Chapel Methodist Church","lat":37.580091,"lng":-80.938094,"addr":"","type":"yes"},{"id":"xx399670_-829628","name":"Islamic Center","lat":39.966975,"lng":-82.962798,"addr":"","type":"commercial"},{"id":"xx391494_-845180","name":"Islamic Association of Cincinnati","lat":39.14939,"lng":-84.518015,"addr":"Clifton Avenue","type":"mosque"},{"id":"xx392717_-815734","name":"Saint James Greek Orthodox Church","lat":39.271686,"lng":-81.573365,"addr":"Maple Street","type":"yes"},{"id":"xx364278_-849295","name":"Jamestown First Baptist Church","lat":36.427756,"lng":-84.92951,"addr":"East Central Avenue","type":"yes"},{"id":"xx364302_-849312","name":"Jamestown First United Methodist Church","lat":36.430173,"lng":-84.93119,"addr":"","type":"yes"},{"id":"xx364277_-849295","name":"Jamestown First Baptist Church","lat":36.427743,"lng":-84.929512,"addr":"East Central Avenue","type":"yes"},{"id":"xx397556_-841758","name":"Al-Rahman Mosque - Islamic Society of Greater Dayton","lat":39.755579,"lng":-84.175848,"addr":"Josie Street","type":"yes"},{"id":"xx397556_-841759","name":"Al-Rahman Mosque - Islamic Society of Greater Dayton","lat":39.755572,"lng":-84.175889,"addr":"Josie Street","type":"yes"},{"id":"xx399148_-828762","name":"Masjid Namarah Pakistani Community Center","lat":39.914764,"lng":-82.876245,"addr":"","type":"yes"},{"id":"xx399147_-828762","name":"Masjid Namarah Pakistani Community Center","lat":39.914731,"lng":-82.876249,"addr":"","type":"yes"},{"id":"xx384164_-824204","name":"Muslim Association of Huntington","lat":38.416384,"lng":-82.420398,"addr":"","type":"mosque"},{"id":"xx352300_-807504","name":"Muslim Education Center","lat":35.230003,"lng":-80.750448,"addr":"Shamrock Drive","type":"mosque"},{"id":"xx351905_-807740","name":"Al Zahra Islamic Center of Charlotte","lat":35.190524,"lng":-80.774028,"addr":"Monroe Road","type":"yes"},{"id":"xx360297_-829531","name":"Saint James Lutheran Church","lat":36.029748,"lng":-82.953133,"addr":"Saint James Road","type":"yes"},{"id":"xx352300_-807505","name":"Muslim Education Center","lat":35.229973,"lng":-80.750487,"addr":"Shamrock Drive","type":"mosque"},{"id":"xx392958_-803506","name":"Saint James Catholic Church","lat":39.295795,"lng":-80.35065,"addr":"Pride Avenue","type":"church"},{"id":"xx380737_-844752","name":"Masjid Bilal","lat":38.073682,"lng":-84.475231,"addr":"Russell Cave Road","type":"yes"},{"id":"xx380737_-844753","name":"Masjid Bilal","lat":38.073666,"lng":-84.475257,"addr":"Russell Cave Road","type":"yes"},{"id":"xx399405_-831194","name":"Masjid Abu Bakr","lat":39.940488,"lng":-83.119371,"addr":"","type":"yes"},{"id":"xx381234_-845264","name":"Muslim Cemetery of Central Kentucky","lat":38.123372,"lng":-84.526403,"addr":"","type":"mosque"},{"id":"xx355646_-825039","name":"Islamic Center Of Asheville","lat":35.564602,"lng":-82.503865,"addr":"Old Fairview Road","type":"yes"},{"id":"xx350730_-809890","name":"James Chapel","lat":35.073037,"lng":-80.98895,"addr":"","type":"yes"},{"id":"xx363158_-832517","name":"James Chapel","lat":36.315767,"lng":-83.251708,"addr":"","type":"yes"},{"id":"xx398543_-829239","name":"Islamic place","lat":39.854299,"lng":-82.923871,"addr":"","type":"mosque"},{"id":"xx383768_-816821","name":"Saint James Episcopal Church","lat":38.376753,"lng":-81.682097,"addr":"","type":"yes"},{"id":"xx383767_-816821","name":"Saint James Episcopal Church","lat":38.376732,"lng":-81.682115,"addr":"","type":"yes"},{"id":"xx399925_-807302","name":"Saint James Catholic Church","lat":39.992455,"lng":-80.730244,"addr":"Logan Street","type":"yes"},{"id":"xx399924_-807302","name":"Saint James Catholic Church","lat":39.992432,"lng":-80.730244,"addr":"Logan Street","type":"yes"},{"id":"xx355516_-804079","name":"St. James Lutheran Church","lat":35.551628,"lng":-80.407943,"addr":"","type":"yes"},{"id":"xx355516_-804080","name":"St. James Lutheran Church","lat":35.551615,"lng":-80.407963,"addr":"","type":"yes"},{"id":"xx399431_-820053","name":"Saint James Episcopal Church","lat":39.943106,"lng":-82.005334,"addr":"North 6th Street","type":"yes"},{"id":"xx397454_-842294","name":"Fazl-i-Umar Mosque","lat":39.745437,"lng":-84.229446,"addr":"Randolph Street","type":"yes"},{"id":"xx386810_-840639","name":"Saint James Catholic Church","lat":38.680983,"lng":-84.063872,"addr":"","type":"place_of_worship"},{"id":"xx397454_-842295","name":"Fazl-i-Umar Mosque","lat":39.745437,"lng":-84.229479,"addr":"Randolph Street","type":"yes"},{"id":"xx398543_-829236","name":"Islamic place","lat":39.854329,"lng":-82.923566,"addr":"","type":"mosque"},{"id":"xx352259_-806800","name":"Islamic place","lat":35.225919,"lng":-80.680012,"addr":"","type":"mosque"},{"id":"xx398544_-829237","name":"Islamic place","lat":39.854447,"lng":-82.923685,"addr":"","type":"mosque"},{"id":"xx352259_-806803","name":"Islamic place","lat":35.225943,"lng":-80.680315,"addr":"","type":"mosque"},{"id":"xx398540_-829242","name":"Islamic place","lat":39.853971,"lng":-82.924158,"addr":"","type":"mosque"},{"id":"xx360493_-802214","name":"Dr, James C. Hash, Sr. & Mrs. Joyce Hash Family Worship Center","lat":36.049301,"lng":-80.221367,"addr":"","type":"yes"},{"id":"xx352070_-807467","name":"Islamic place","lat":35.206967,"lng":-80.746684,"addr":"","type":"mosque"},{"id":"xx352569_-807402","name":"Islamic Society of Greater Charlotte","lat":35.256889,"lng":-80.740156,"addr":"","type":"mosque"},{"id":"xx352297_-807501","name":"MEC Charlotte","lat":35.229659,"lng":-80.75007,"addr":"","type":"mosque"},{"id":"xx352071_-807470","name":"Islamic place","lat":35.207104,"lng":-80.746951,"addr":"","type":"mosque"},{"id":"xx352571_-807404","name":"Islamic Society of Greater Charlotte","lat":35.257075,"lng":-80.740366,"addr":"","type":"mosque"},{"id":"xx352297_-807505","name":"MEC Charlotte","lat":35.229676,"lng":-80.750501,"addr":"","type":"mosque"},{"id":"xx380737_-844754","name":"Islamic place","lat":38.073734,"lng":-84.475408,"addr":"","type":"mosque"},{"id":"xx380738_-844756","name":"Islamic place","lat":38.0738,"lng":-84.475586,"addr":"","type":"mosque"},{"id":"xx394994_-805621","name":"Saint James","lat":39.499415,"lng":-80.562098,"addr":"Smithfield","type":"church"},{"id":"xx365482_-831847","name":"Saint James the Apostle Catholic Church","lat":36.548197,"lng":-83.184668,"addr":"Main Street","type":"yes"},{"id":"xx359825_-839234","name":"Saint James Episcopal Church","lat":35.982545,"lng":-83.923369,"addr":"North Broadway","type":"yes"},{"id":"xx359702_-800527","name":"Community Mosque of High Point","lat":35.970154,"lng":-80.052681,"addr":"","type":"yes"},{"id":"xx362854_-824051","name":"Islamic Center of Johnson City","lat":36.285411,"lng":-82.405069,"addr":"Antioch Road","type":"yes"},{"id":"xx362855_-824051","name":"Islamic Center of Johnson City","lat":36.285457,"lng":-82.405104,"addr":"Antioch Road","type":"yes"},{"id":"xx377995_-811697","name":"Islamic Center of Beckley","lat":37.799502,"lng":-81.169711,"addr":"","type":"yes"}]