[{"id":"xx386011_348385","name":"Islamic place","lat":38.601078,"lng":34.838474,"addr":"","type":"mosque"},{"id":"xx365998_304376","name":"Islamic place","lat":36.599781,"lng":30.437566,"addr":"","type":"grave_yard"},{"id":"xx397545_321947","name":"Hacı Tuğrul Baba Türbesi","lat":39.754518,"lng":32.194684,"addr":"","type":"mausoleum"},{"id":"xx399371_328372","name":"MKEK Cami","lat":39.937119,"lng":32.837198,"addr":"Celal Bayar Blv.","type":"place_of_worship"},{"id":"xx378689_325022","name":"Siyavüş Sultan Türbesi","lat":37.868879,"lng":32.502155,"addr":"Konya","type":"mosque"},{"id":"xx399637_327298","name":"Harb-İş 5 Camii","lat":39.963665,"lng":32.729841,"addr":"","type":"place_of_worship"},{"id":"xx365761_305368","name":"Azam hoca camii","lat":36.576056,"lng":30.536821,"addr":"Çaybaşı Cd.","type":"mosque"},{"id":"xx399763_328215","name":"Mescit","lat":39.976257,"lng":32.821506,"addr":"","type":"place_of_worship"},{"id":"xx399982_328657","name":"Üçgül Mescidi","lat":39.998158,"lng":32.865727,"addr":"Şehit Tayfun Sümer Sokak","type":"place_of_worship"},{"id":"xx399848_328719","name":"R. Ganime Cebeci Cami","lat":39.984774,"lng":32.87186,"addr":"Kaya Sokak","type":"place_of_worship"},{"id":"xx399995_328621","name":"Osmanlı Mescid-i Şerifi","lat":39.999498,"lng":32.862071,"addr":"","type":"place_of_worship"},{"id":"xx399822_328737","name":"Eleşkirt Cami","lat":39.982194,"lng":32.873655,"addr":"Eleşkirt Sk","type":"place_of_worship"},{"id":"xx367217_305623","name":"Beldibi Mezarlığı","lat":36.721674,"lng":30.562324,"addr":"","type":"grave_yard"},{"id":"xx399551_325887","name":"Hacı Ali Ve Emine Yücel Cami","lat":39.955143,"lng":32.58875,"addr":"Sincan/Ankara","type":"mosque"},{"id":"xx376707_319972","name":"Mescit","lat":37.670658,"lng":31.99718,"addr":"","type":"place_of_worship"},{"id":"xx399373_328982","name":"Öztoprak Cami","lat":39.937252,"lng":32.89824,"addr":"Mamak/Ankara","type":"place_of_worship"},{"id":"xx399343_328938","name":"Hacı Mehmet Kantekin Camii","lat":39.934257,"lng":32.8938,"addr":"Mamak/Ankara","type":"place_of_worship"},{"id":"xx399390_328839","name":"Berat Cami","lat":39.939041,"lng":32.883902,"addr":"Mamak/Ankara","type":"place_of_worship"},{"id":"xx399093_328505","name":"TBMM Camii","lat":39.909314,"lng":32.850516,"addr":"","type":"place_of_worship"},{"id":"xx369223_306661","name":"Mescit","lat":36.922261,"lng":30.666119,"addr":"","type":"place_of_worship"},{"id":"xx368952_306939","name":"Kudsiye Camii","lat":36.895209,"lng":30.693939,"addr":"Tonguç Caddesi","type":"mosque"},{"id":"xx377711_300078","name":"Islamic place","lat":37.771121,"lng":30.007829,"addr":"","type":"grave_yard"},{"id":"xx389122_316380","name":"Islamic place","lat":38.912242,"lng":31.638047,"addr":"","type":"grave_yard"},{"id":"xx367974_345392","name":"Şehit Kübra Doğanay KAIHL","lat":36.797378,"lng":34.539224,"addr":"37","type":"school"},{"id":"xx365555_319827","name":"Ali Rıza Gündoğmuş Camii","lat":36.555461,"lng":31.982727,"addr":"Kuloğlu Caddesi","type":"mosque"},{"id":"xx365464_305487","name":"Islamic place","lat":36.546439,"lng":30.548727,"addr":"Antalya","type":"mosque"},{"id":"xx365615_305547","name":"Islamic place","lat":36.561525,"lng":30.554661,"addr":"Antalya","type":"grave_yard"},{"id":"xx373957_309346","name":"Mosque","lat":37.395736,"lng":30.934607,"addr":"","type":"place_of_worship"},{"id":"xx398906_327825","name":"Mescit","lat":39.890643,"lng":32.78252,"addr":"","type":"place_of_worship"},{"id":"xx399316_328212","name":"Emek Köşe Camii","lat":39.931588,"lng":32.82115,"addr":"","type":"place_of_worship"},{"id":"xx397634_305128","name":"Akarbaşı Yunus Emre Mescidi","lat":39.763403,"lng":30.512804,"addr":"","type":"place_of_worship"},{"id":"xx399483_327694","name":"ATB Mescidi","lat":39.948254,"lng":32.76945,"addr":"Ankara Ticaret Borsası","type":"place_of_worship"},{"id":"xx368296_305986","name":"Mescit","lat":36.829633,"lng":30.598626,"addr":"","type":"mosque"},{"id":"xx368083_319258","name":"Islamic place","lat":36.808276,"lng":31.925835,"addr":"","type":"grave_yard"},{"id":"xx391452_341615","name":"Cacabey Medresesi","lat":39.145166,"lng":34.161512,"addr":"","type":"place_of_worship"},{"id":"xx370765_315839","name":"Kayaağıl Kumruluoğlu Camii","lat":37.076509,"lng":31.583903,"addr":"","type":"place_of_worship"},{"id":"xx368928_306917","name":"Özsoy Camii","lat":36.892791,"lng":30.691715,"addr":"Antalya","type":"mosque"},{"id":"xx399846_328687","name":"Ulus Sitesi Mescidi","lat":39.9846,"lng":32.868685,"addr":"","type":"place_of_worship"},{"id":"xx397913_328500","name":"Mahmut Üzüncü Camii","lat":39.791336,"lng":32.849964,"addr":"","type":"place_of_worship"},{"id":"xx397967_328405","name":"Yıldız Camii","lat":39.796692,"lng":32.840461,"addr":"","type":"place_of_worship"},{"id":"xx399657_327823","name":"Demsa Evleri Camii","lat":39.965708,"lng":32.782336,"addr":"","type":"place_of_worship"},{"id":"xx399679_327878","name":"Serçe Antik Tesbih","lat":39.967918,"lng":32.787785,"addr":"","type":"mosque"},{"id":"xx368231_346099","name":"Hacı Hüseyin Bulduk Cami","lat":36.823125,"lng":34.609913,"addr":"","type":"place_of_worship"},{"id":"xx363640_302862","name":"Islamic place","lat":36.364025,"lng":30.286212,"addr":"","type":"place_of_worship"},{"id":"xx390214_311982","name":"Ağılcık Köy Camii","lat":39.021409,"lng":31.198166,"addr":"","type":"place_of_worship"},{"id":"xx399847_327386","name":"Hasan Tamer Mescidi","lat":39.984688,"lng":32.738582,"addr":"1467. Cadde","type":"place_of_worship"},{"id":"xx376953_319392","name":"Yazyurdu Mezarlığı","lat":37.69529,"lng":31.939155,"addr":"","type":"grave_yard"},{"id":"xx374723_348613","name":"Şekerpınarı Camii","lat":37.472298,"lng":34.861303,"addr":"","type":"place_of_worship"},{"id":"xx390724_312165","name":"Türkmenakören Köy Camii","lat":39.072446,"lng":31.216479,"addr":"","type":"place_of_worship"},{"id":"xx390823_311441","name":"Yarımca Köy Camii","lat":39.082336,"lng":31.144086,"addr":"","type":"place_of_worship"},{"id":"xx368746_348325","name":"Huzurkent Mezarlığı","lat":36.874617,"lng":34.832451,"addr":"","type":"mosque"},{"id":"xx386237_344694","name":"Islamic place","lat":38.623704,"lng":34.469398,"addr":"","type":"place_of_worship"},{"id":"xx386347_344847","name":"Islamic place","lat":38.634692,"lng":34.484684,"addr":"","type":"place_of_worship"},{"id":"xx371795_349068","name":"Çokak Mahallesi Camii","lat":37.179456,"lng":34.906815,"addr":"Mersin","type":"place_of_worship"},{"id":"xx368447_346004","name":"Güneykent Mezarlığı Mescit","lat":36.844667,"lng":34.600443,"addr":"","type":"place_of_worship"},{"id":"xx399874_305849","name":"Sakarıılıca Mah. Kaplıca Camisi","lat":39.987439,"lng":30.584885,"addr":"","type":"place_of_worship"},{"id":"xx399523_326180","name":"Hoca Ahmet Yesevi Camii","lat":39.952317,"lng":32.617998,"addr":"","type":"place_of_worship"},{"id":"xx363395_340085","name":"Sökün Köyü Eski Cami","lat":36.339529,"lng":34.008497,"addr":"Mersin","type":"place_of_worship"},{"id":"xx369197_348957","name":"Niyazi Efendi Mescidi","lat":36.919691,"lng":34.895669,"addr":"Alparslan Türkeş Bulvarı","type":"place_of_worship"},{"id":"xx365365_335563","name":"Tuğrul Köyü Camii","lat":36.536503,"lng":33.55629,"addr":"","type":"place_of_worship"},{"id":"xx369197_349012","name":"Güzeyloğlu Camii","lat":36.91967,"lng":34.90115,"addr":"Mersin","type":"place_of_worship"},{"id":"xx367783_345396","name":"Çiftlikköy Eski Camii","lat":36.778317,"lng":34.539613,"addr":"","type":"place_of_worship"},{"id":"xx377877_305430","name":"Islamic place","lat":37.787665,"lng":30.542971,"addr":"","type":"place_of_worship"},{"id":"xx399668_327463","name":"Ostim Bosna İş Merkezi Camii","lat":39.966766,"lng":32.746315,"addr":"","type":"place_of_worship"},{"id":"xx373462_349121","name":"Belemedik Tabiat Mescit","lat":37.346158,"lng":34.912109,"addr":"","type":"place_of_worship"},{"id":"xx379345_324363","name":"Göztepe Konutlar Camii","lat":37.9345,"lng":32.436257,"addr":"Huşu Sokak","type":"place_of_worship"},{"id":"xx399847_325981","name":"Abdulkadir Geylani Cami","lat":39.984684,"lng":32.598061,"addr":"","type":"place_of_worship"},{"id":"xx366418_328858","name":"Ermenek Akmescid","lat":36.641794,"lng":32.885765,"addr":"","type":"place_of_worship"},{"id":"xx374573_318336","name":"Saadetler Cami","lat":37.457285,"lng":31.83361,"addr":"","type":"place_of_worship"},{"id":"xx367858_345881","name":"Forum AVM Mescit","lat":36.785762,"lng":34.588079,"addr":"Forum AVM","type":"place_of_worship"},{"id":"xx399460_327199","name":"Islamic place","lat":39.945952,"lng":32.719907,"addr":"","type":"place_of_worship"},{"id":"xx366884_326095","name":"Turcalar mahallesi Fatih camii","lat":36.688383,"lng":32.609476,"addr":"","type":"place_of_worship"},{"id":"xx382532_343039","name":"Mlscid","lat":38.253224,"lng":34.303886,"addr":"","type":"place_of_worship"},{"id":"xx382473_335583","name":"Türkistanlılar Camii","lat":38.247331,"lng":33.558329,"addr":"","type":"place_of_worship"},{"id":"xx366081_343179","name":"Nur Mescidi","lat":36.608111,"lng":34.317937,"addr":"Gençlik Caddesi","type":"place_of_worship"},{"id":"xx368829_303696","name":"Seklik Camii","lat":36.88294,"lng":30.369647,"addr":"","type":"place_of_worship"},{"id":"xx398841_328222","name":"Öveçler Gülser Kur'an Kursu","lat":39.884144,"lng":32.822187,"addr":"","type":"school"},{"id":"xx369006_305435","name":"Islamic place","lat":36.900558,"lng":30.543466,"addr":"","type":"place_of_worship"},{"id":"xx369587_308532","name":"Islamic place","lat":36.95874,"lng":30.853216,"addr":"","type":"place_of_worship"},{"id":"xx380794_313521","name":"Hacı Ahmet Ateş Camii","lat":38.079396,"lng":31.352069,"addr":"","type":"place_of_worship"},{"id":"xx372813_300797","name":"Islamic place","lat":37.281329,"lng":30.079746,"addr":"","type":"place_of_worship"},{"id":"xx387208_348423","name":"Islamic place","lat":38.720784,"lng":34.842278,"addr":"","type":"mosque"},{"id":"xx387189_348402","name":"Alaaddin Camii","lat":38.718928,"lng":34.840196,"addr":"Nevşehir","type":"mosque"},{"id":"xx386475_348315","name":"Afat Evler Camii","lat":38.647457,"lng":34.831524,"addr":"","type":"mosque"},{"id":"xx387183_348482","name":"Merkez Cami","lat":38.718256,"lng":34.848167,"addr":"","type":"mosque"},{"id":"xx364831_321000","name":"Islamic place","lat":36.483072,"lng":32.100042,"addr":"","type":"mosque"},{"id":"xx398913_328034","name":"Karakuskunlar Köy Mezarlığı","lat":39.891316,"lng":32.803406,"addr":"Çankaya/Ankara","type":"mosque"},{"id":"xx365903_305219","name":"Aslanbucak Mezarlığı","lat":36.590261,"lng":30.521909,"addr":"","type":"mosque"},{"id":"xx365416_319982","name":"Kuyularönü Cami","lat":36.541625,"lng":31.998182,"addr":"Alanya/Antalya","type":"mosque"},{"id":"xx365451_319984","name":"Islamic place","lat":36.545148,"lng":31.998437,"addr":"","type":"mosque"},{"id":"xx365446_319972","name":"Fevziye Cami","lat":36.544608,"lng":31.997181,"addr":"Alanya/Antalya","type":"mosque"},{"id":"xx365459_319929","name":"Bostancilar Camii","lat":36.545877,"lng":31.992879,"addr":"","type":"mosque"},{"id":"xx365459_319877","name":"Eski Hal Cami","lat":36.545896,"lng":31.987749,"addr":"Antalya","type":"mosque"},{"id":"xx365527_319836","name":"Islamic place","lat":36.552664,"lng":31.983611,"addr":"","type":"mosque"},{"id":"xx365496_319918","name":"Kazım Bulut Cami","lat":36.549559,"lng":31.991817,"addr":"Antalya","type":"mosque"},{"id":"xx365494_319894","name":"Çelikler Süleymaniye Cami","lat":36.549378,"lng":31.989354,"addr":"Galatasaray Caddesi","type":"mosque"},{"id":"xx365406_319954","name":"Yengelioğlu Cami","lat":36.540557,"lng":31.995436,"addr":"Sultan Alaaddin Caddesi","type":"mosque"},{"id":"xx365392_319979","name":"Islamic place","lat":36.539218,"lng":31.99788,"addr":"","type":"mosque"},{"id":"xx365369_319981","name":"Islamic place","lat":36.536924,"lng":31.998123,"addr":"","type":"mosque"},{"id":"xx365350_319928","name":"Süleymaniye Camii","lat":36.534987,"lng":31.992845,"addr":"","type":"mosque"},{"id":"xx365351_319973","name":"Andızlı Camii","lat":36.535062,"lng":31.997279,"addr":"","type":"mosque"},{"id":"xx365534_319940","name":"Belen Cami","lat":36.553396,"lng":31.993957,"addr":"Alanya","type":"mosque"},{"id":"xx365546_320001","name":"El Aksa Camii","lat":36.554558,"lng":32.000084,"addr":"Antalya","type":"mosque"},{"id":"xx365520_320068","name":"Hacet Cami","lat":36.552011,"lng":32.006786,"addr":"Alanya/Antalya","type":"mosque"},{"id":"xx365479_320011","name":"Nezahat Tokuş Cami","lat":36.547932,"lng":32.001057,"addr":"Alanya/Antalya","type":"mosque"},{"id":"xx365464_320072","name":"Islamic place","lat":36.546413,"lng":32.00722,"addr":"","type":"mosque"},{"id":"xx365441_320096","name":"Islamic place","lat":36.544115,"lng":32.009566,"addr":"","type":"mosque"},{"id":"xx365445_320144","name":"Cami","lat":36.544453,"lng":32.014382,"addr":"","type":"mosque"},{"id":"xx365439_320138","name":"Islamic place","lat":36.54391,"lng":32.013778,"addr":"","type":"mosque"},{"id":"xx386200_348599","name":"Islamic place","lat":38.619969,"lng":34.859904,"addr":"","type":"mosque"},{"id":"xx368865_307059","name":"Tekeli Mehmet Paşa Camii","lat":36.886504,"lng":30.705854,"addr":"","type":"mosque"},{"id":"xx368915_307026","name":"Muratpaşa Camii","lat":36.891491,"lng":30.702574,"addr":"Antalya","type":"mosque"},{"id":"xx369074_306964","name":"Sanayi Camii","lat":36.907407,"lng":30.696436,"addr":"Antalya","type":"mosque"},{"id":"xx369091_307087","name":"Aydınlık Camii","lat":36.909116,"lng":30.708668,"addr":"Antalya","type":"mosque"},{"id":"xx369082_307110","name":"Şehadet Cami","lat":36.908174,"lng":30.710993,"addr":"Antalya","type":"mosque"},{"id":"xx369114_307019","name":"Fatih Sultan Mehmet Camii","lat":36.911406,"lng":30.701948,"addr":"Antalya","type":"mosque"},{"id":"xx368960_306751","name":"Osman Gazi Camii","lat":36.896043,"lng":30.675065,"addr":"Antalya","type":"mosque"},{"id":"xx369020_306842","name":"Çallıoğlu Camii","lat":36.901991,"lng":30.68422,"addr":"Antalya","type":"mosque"},{"id":"xx368884_307063","name":"Balbey Camii","lat":36.888399,"lng":30.706308,"addr":"","type":"mosque"},{"id":"xx369103_306931","name":"Yükseliş Camiİ","lat":36.910267,"lng":30.693065,"addr":"Antalya","type":"mosque"},{"id":"xx369006_306872","name":"Karakuyullu Camii","lat":36.900585,"lng":30.687199,"addr":"","type":"mosque"},{"id":"xx369046_306892","name":"Bilal-i Habeşi Camii","lat":36.904618,"lng":30.689172,"addr":"","type":"mosque"},{"id":"xx368929_306681","name":"Meltem Camii","lat":36.892919,"lng":30.668054,"addr":"","type":"mosque"},{"id":"xx368913_306809","name":"Fatih Camii","lat":36.891296,"lng":30.68093,"addr":"Antalya","type":"mosque"},{"id":"xx369170_306701","name":"Kanuni Sultan Süleyman Cami","lat":36.916992,"lng":30.670086,"addr":"Antalya","type":"mosque"},{"id":"xx369168_307102","name":"Emek Mahallesi Camii","lat":36.916799,"lng":30.710204,"addr":"Antalya","type":"mosque"},{"id":"xx369156_306990","name":"Emirler Hacı Mehmet Cami","lat":36.915555,"lng":30.698952,"addr":"Antalya","type":"mosque"},{"id":"xx369177_307260","name":"Yunus Emre Camii","lat":36.917749,"lng":30.725956,"addr":"Antalya","type":"mosque"},{"id":"xx374915_307005","name":"Islamic place","lat":37.491512,"lng":30.700464,"addr":"","type":"mosque"},{"id":"xx362488_300062","name":"Islamic place","lat":36.248833,"lng":30.006185,"addr":"","type":"mosque"},{"id":"xx362353_300020","name":"Islamic place","lat":36.23532,"lng":30.001959,"addr":"","type":"mosque"},{"id":"xx367876_314487","name":"Selime Hatun Cami","lat":36.787585,"lng":31.448682,"addr":"İbrahim Sözen Cd.","type":"mosque"},{"id":"xx367795_314630","name":"Sanayi Cami","lat":36.779466,"lng":31.463013,"addr":"","type":"mosque"},{"id":"xx367858_314456","name":"Hisar Büyük Cami","lat":36.785756,"lng":31.445598,"addr":"","type":"mosque"},{"id":"xx367872_314553","name":"Hacı Mehmet Turgay Cami","lat":36.787157,"lng":31.455334,"addr":"","type":"mosque"},{"id":"xx367844_314539","name":"Hocaoğlu Cami","lat":36.784357,"lng":31.45389,"addr":"","type":"mosque"},{"id":"xx367777_314538","name":"Manavgat Külliye Cami","lat":36.777727,"lng":31.453789,"addr":"Manavgat","type":"mosque"},{"id":"xx386326_349102","name":"Cami Kebir","lat":38.632564,"lng":34.91023,"addr":"","type":"mosque"},{"id":"xx386305_349151","name":"Duayeri Cami","lat":38.630531,"lng":34.915099,"addr":"","type":"mosque"},{"id":"xx386298_349100","name":"Dutlu Camii","lat":38.629821,"lng":34.909998,"addr":"","type":"mosque"},{"id":"xx398642_336700","name":"Islamic place","lat":39.864187,"lng":33.67,"addr":"","type":"mosque"},{"id":"xx396722_336089","name":"Islamic place","lat":39.672228,"lng":33.60894,"addr":"","type":"mosque"},{"id":"xx387173_348424","name":"Orta Mahalle Camiİ","lat":38.717261,"lng":34.842376,"addr":"","type":"mosque"},{"id":"xx382132_307407","name":"Islamic place","lat":38.213151,"lng":30.740651,"addr":"","type":"mosque"},{"id":"xx385587_349865","name":"Islamic place","lat":38.558693,"lng":34.986506,"addr":"","type":"mosque"},{"id":"xx385597_349864","name":"Islamic place","lat":38.55973,"lng":34.986449,"addr":"","type":"mosque"},{"id":"xx386107_349792","name":"Islamic place","lat":38.610744,"lng":34.979164,"addr":"","type":"mosque"},{"id":"xx386323_349408","name":"Evka Camii","lat":38.632333,"lng":34.940807,"addr":"Nevşehir","type":"mosque"},{"id":"xx384621_347512","name":"Yeni Cami","lat":38.462128,"lng":34.751178,"addr":"","type":"mosque"},{"id":"xx384515_346816","name":"Islamic place","lat":38.451464,"lng":34.681552,"addr":"","type":"mosque"},{"id":"xx384546_346789","name":"Islamic place","lat":38.454614,"lng":34.67893,"addr":"","type":"mosque"},{"id":"xx384530_346782","name":"Özlüce Köyü Eski Camii","lat":38.453036,"lng":34.678197,"addr":"","type":"mosque"},{"id":"xx384203_348183","name":"Islamic place","lat":38.420334,"lng":34.818313,"addr":"","type":"mosque"},{"id":"xx384173_348185","name":"Til Mahallesi Yeni Camii","lat":38.417273,"lng":34.818544,"addr":"Nevşehir","type":"mosque"},{"id":"xx382471_349541","name":"Islamic place","lat":38.247125,"lng":34.954057,"addr":"","type":"mosque"},{"id":"xx381325_349676","name":"Islamic place","lat":38.132452,"lng":34.967576,"addr":"","type":"mosque"},{"id":"xx382447_349513","name":"Islamic place","lat":38.244706,"lng":34.951314,"addr":"","type":"mosque"},{"id":"xx383007_348863","name":"Islamic place","lat":38.300734,"lng":34.886337,"addr":"","type":"mosque"},{"id":"xx384124_349174","name":"Cami","lat":38.41239,"lng":34.917426,"addr":"","type":"mosque"},{"id":"xx382554_347031","name":"Islamic place","lat":38.255374,"lng":34.703109,"addr":"","type":"mosque"},{"id":"xx381341_346753","name":"Islamic place","lat":38.134097,"lng":34.675265,"addr":"","type":"mosque"},{"id":"xx381750_346761","name":"Yıldıztepe Merkez Cami","lat":38.175005,"lng":34.676051,"addr":"","type":"mosque"},{"id":"xx382174_347008","name":"Islamic place","lat":38.21736,"lng":34.700834,"addr":"","type":"mosque"},{"id":"xx380942_346739","name":"Islamic place","lat":38.094153,"lng":34.673852,"addr":"","type":"mosque"},{"id":"xx381727_346735","name":"Islamic place","lat":38.172672,"lng":34.673506,"addr":"","type":"mosque"},{"id":"xx382222_347795","name":"Islamic place","lat":38.222188,"lng":34.779515,"addr":"","type":"mosque"},{"id":"xx383068_346899","name":"Islamic place","lat":38.306815,"lng":34.689939,"addr":"","type":"mosque"},{"id":"xx382284_347758","name":"Islamic place","lat":38.22835,"lng":34.775782,"addr":"","type":"mosque"},{"id":"xx383031_346888","name":"Islamic place","lat":38.303069,"lng":34.688757,"addr":"","type":"mosque"},{"id":"xx384697_348398","name":"Islamic place","lat":38.469746,"lng":34.839838,"addr":"","type":"mosque"},{"id":"xx384920_349470","name":"Taşkınpaşa Cami","lat":38.491971,"lng":34.947028,"addr":"","type":"mosque"},{"id":"xx385220_349400","name":"Islamic place","lat":38.521997,"lng":34.939984,"addr":"","type":"mosque"},{"id":"xx385218_349390","name":"Islamic place","lat":38.521757,"lng":34.939038,"addr":"","type":"mosque"},{"id":"xx385501_347495","name":"Islamic place","lat":38.550061,"lng":34.749467,"addr":"","type":"mosque"},{"id":"xx385478_347594","name":"Islamic place","lat":38.547835,"lng":34.759401,"addr":"","type":"mosque"},{"id":"xx382321_349575","name":"Islamic place","lat":38.232053,"lng":34.957535,"addr":"","type":"place_of_worship"},{"id":"xx382409_349440","name":"Edikli Yeni Camii","lat":38.240919,"lng":34.943974,"addr":"","type":"mosque"},{"id":"xx382421_349571","name":"Islamic place","lat":38.242125,"lng":34.957064,"addr":"","type":"place_of_worship"},{"id":"xx382389_349563","name":"Islamic place","lat":38.238868,"lng":34.956291,"addr":"","type":"mosque"},{"id":"xx378983_346301","name":"Islamic place","lat":37.898258,"lng":34.630079,"addr":"","type":"mosque"},{"id":"xx375538_349508","name":"Kamışlı Mahallesi Merkez Camii","lat":37.553787,"lng":34.950821,"addr":"Adana","type":"mosque"},{"id":"xx375111_347701","name":"Halil Yetiş Cami","lat":37.51106,"lng":34.770131,"addr":"","type":"mosque"},{"id":"xx378513_346363","name":"Islamic place","lat":37.851276,"lng":34.636288,"addr":"","type":"mosque"},{"id":"xx378012_347646","name":"Islamic place","lat":37.801169,"lng":34.764555,"addr":"","type":"mosque"},{"id":"xx376656_347482","name":"Islamic place","lat":37.665569,"lng":34.748216,"addr":"","type":"mosque"},{"id":"xx378028_349656","name":"Islamic place","lat":37.802822,"lng":34.96561,"addr":"","type":"mosque"},{"id":"xx379598_348585","name":"Islamic place","lat":37.959814,"lng":34.858499,"addr":"","type":"mosque"},{"id":"xx378126_349469","name":"Islamic place","lat":37.812597,"lng":34.946889,"addr":"","type":"mosque"},{"id":"xx379214_348971","name":"Islamic place","lat":37.921375,"lng":34.89709,"addr":"","type":"mosque"},{"id":"xx374492_346254","name":"Madenköy Mahallesi Camii","lat":37.449196,"lng":34.625365,"addr":"Niğde","type":"mosque"},{"id":"xx361042_329696","name":"Denizci Mehmet Camii","lat":36.104197,"lng":32.969622,"addr":"","type":"mosque"},{"id":"xx360718_328347","name":"Kıbrıs Camii","lat":36.071807,"lng":32.834658,"addr":"Mersin","type":"mosque"},{"id":"xx360756_328401","name":"Akdeniz Cami","lat":36.075559,"lng":32.840107,"addr":"1306. Sokak","type":"mosque"},{"id":"xx360799_328298","name":"Anamur Merkez Camii","lat":36.079859,"lng":32.829785,"addr":"Mersin","type":"mosque"},{"id":"xx362585_323187","name":"Bakılar Mah. Akça Cami","lat":36.258478,"lng":32.3187,"addr":"","type":"mosque"},{"id":"xx362502_323025","name":"Islamic place","lat":36.250197,"lng":32.302547,"addr":"","type":"mosque"},{"id":"xx361756_324478","name":"Cami","lat":36.175618,"lng":32.447798,"addr":"","type":"mosque"},{"id":"xx363126_329345","name":"Çukurabanoz Yayla Camii","lat":36.31256,"lng":32.934489,"addr":"Mersin","type":"mosque"},{"id":"xx362989_329173","name":"Çukurabanoz Mahallesi Camii","lat":36.298867,"lng":32.9173,"addr":"Mersin","type":"mosque"},{"id":"xx366399_328907","name":"Islamic place","lat":36.639865,"lng":32.890736,"addr":"","type":"mosque"},{"id":"xx366239_329185","name":"Islamic place","lat":36.623892,"lng":32.918526,"addr":"","type":"mosque"},{"id":"xx366268_326271","name":"Gülpazar Camii","lat":36.626824,"lng":32.627074,"addr":"Karaman","type":"mosque"},{"id":"xx366235_327935","name":"Islamic place","lat":36.623476,"lng":32.793524,"addr":"","type":"mosque"},{"id":"xx369834_313748","name":"Camii","lat":36.983355,"lng":31.374818,"addr":"","type":"mosque"},{"id":"xx370735_315827","name":"Ormana Merkez Camii","lat":37.073531,"lng":31.582693,"addr":"","type":"mosque"},{"id":"xx371862_316845","name":"Islamic place","lat":37.186249,"lng":31.684523,"addr":"","type":"mosque"},{"id":"xx372236_316383","name":"Islamic place","lat":37.223592,"lng":31.638257,"addr":"","type":"mosque"},{"id":"xx390093_349846","name":"Islamic place","lat":39.009262,"lng":34.984588,"addr":"","type":"mosque"},{"id":"xx390073_349833","name":"Mezarlık","lat":39.007309,"lng":34.983274,"addr":"","type":"mosque"},{"id":"xx374085_338386","name":"Ağızboğaz Mahallesi Camii","lat":37.408549,"lng":33.838645,"addr":"Karaman","type":"mosque"},{"id":"xx374529_338424","name":"Böğecik Mahallesi Camii","lat":37.452896,"lng":33.842437,"addr":"Karaman","type":"mosque"},{"id":"xx379207_339112","name":"Islamic place","lat":37.920739,"lng":33.911244,"addr":"","type":"mosque"},{"id":"xx378472_338565","name":"Islamic place","lat":37.847154,"lng":33.856522,"addr":"","type":"mosque"},{"id":"xx378994_338418","name":"Islamic place","lat":37.899431,"lng":33.841771,"addr":"","type":"mosque"},{"id":"xx379010_338428","name":"Emirgazi Mezarlığı","lat":37.90099,"lng":33.842834,"addr":"","type":"mosque"},{"id":"xx379184_339122","name":"Islamic place","lat":37.918395,"lng":33.912183,"addr":"","type":"mosque"},{"id":"xx376415_333226","name":"Islamic place","lat":37.641526,"lng":33.322555,"addr":"","type":"mosque"},{"id":"xx377107_335616","name":"Islamic place","lat":37.710743,"lng":33.561628,"addr":"","type":"mosque"},{"id":"xx375296_338468","name":"Islamic place","lat":37.529561,"lng":33.846771,"addr":"","type":"mosque"},{"id":"xx377274_335499","name":"Mezarlık","lat":37.727419,"lng":33.549891,"addr":"","type":"mosque"},{"id":"xx372598_338742","name":"Ulu Camii","lat":37.259843,"lng":33.874206,"addr":"Karaman","type":"mosque"},{"id":"xx377082_335512","name":"Mezarlık","lat":37.708198,"lng":33.551192,"addr":"","type":"mosque"},{"id":"xx377200_335504","name":"Islamic place","lat":37.720026,"lng":33.550396,"addr":"","type":"mosque"},{"id":"xx371899_338002","name":"Islamic place","lat":37.18986,"lng":33.800175,"addr":"","type":"mosque"},{"id":"xx377220_335405","name":"Islamic place","lat":37.721999,"lng":33.540543,"addr":"","type":"mosque"},{"id":"xx377193_335379","name":"Mezarlık","lat":37.719339,"lng":33.537893,"addr":"","type":"mosque"},{"id":"xx377145_335478","name":"Sultan Selim Camii","lat":37.714504,"lng":33.547763,"addr":"","type":"mosque"},{"id":"xx377082_335400","name":"Bilal Habeşi Cami","lat":37.708209,"lng":33.540021,"addr":"","type":"mosque"},{"id":"xx372194_338409","name":"Islamic place","lat":37.219373,"lng":33.840859,"addr":"","type":"mosque"},{"id":"xx377174_335471","name":"Reşadiye Cami","lat":37.717351,"lng":33.547104,"addr":"","type":"mosque"},{"id":"xx377130_335453","name":"Hacı Ömerli Cami","lat":37.712993,"lng":33.545266,"addr":"","type":"mosque"},{"id":"xx363938_339337","name":"Göksu Camii","lat":36.393808,"lng":33.933724,"addr":"Sayağzı mahallesi","type":"mosque"},{"id":"xx363943_340500","name":"Karadedeli Camii","lat":36.394251,"lng":34.049985,"addr":"Mersin","type":"mosque"},{"id":"xx363800_340094","name":"Hüdede Cami","lat":36.379978,"lng":34.00937,"addr":"Mersin","type":"mosque"},{"id":"xx363834_340234","name":"Esenbel Camii","lat":36.383439,"lng":34.02343,"addr":"Mersin","type":"mosque"},{"id":"xx387101_348620","name":"Ahmet Hamdi Akseki Camii","lat":38.710108,"lng":34.862015,"addr":"Nevşehir","type":"mosque"},{"id":"xx387313_349200","name":"Islamic place","lat":38.731274,"lng":34.92001,"addr":"","type":"mosque"},{"id":"xx370631_312723","name":"Islamic place","lat":37.063069,"lng":31.27227,"addr":"","type":"place_of_worship"},{"id":"xx366515_334255","name":"Fatih Camii","lat":36.651548,"lng":33.42546,"addr":"Mersin","type":"mosque"},{"id":"xx360812_328945","name":"Mamure Cami","lat":36.081211,"lng":32.894475,"addr":"","type":"mosque"},{"id":"xx399863_346728","name":"Islamic place","lat":39.986333,"lng":34.672818,"addr":"","type":"mosque"},{"id":"xx399838_346713","name":"Islamic place","lat":39.98383,"lng":34.671269,"addr":"","type":"mosque"},{"id":"xx399641_345652","name":"Islamic place","lat":39.964061,"lng":34.565159,"addr":"","type":"mosque"},{"id":"xx376510_304907","name":"Islamic place","lat":37.650972,"lng":30.490724,"addr":"","type":"mosque"},{"id":"xx376542_304948","name":"Islamic place","lat":37.654199,"lng":30.494766,"addr":"","type":"mosque"},{"id":"xx375326_304839","name":"Islamic place","lat":37.532574,"lng":30.483886,"addr":"","type":"mosque"},{"id":"xx378008_310723","name":"Islamic place","lat":37.800845,"lng":31.072299,"addr":"","type":"mosque"},{"id":"xx377457_311729","name":"Islamic place","lat":37.745673,"lng":31.172929,"addr":"","type":"mosque"},{"id":"xx377484_311738","name":"Islamic place","lat":37.748406,"lng":31.173798,"addr":"","type":"mosque"},{"id":"xx377757_310432","name":"Islamic place","lat":37.775744,"lng":31.043189,"addr":"","type":"mosque"},{"id":"xx377647_310290","name":"Islamic place","lat":37.764669,"lng":31.02896,"addr":"","type":"mosque"},{"id":"xx376240_311290","name":"Islamic place","lat":37.623994,"lng":31.128981,"addr":"","type":"mosque"},{"id":"xx380137_320167","name":"Islamic place","lat":38.013664,"lng":32.016711,"addr":"","type":"mosque"},{"id":"xx380201_320077","name":"Rahmet camii","lat":38.020102,"lng":32.007658,"addr":"","type":"mosque"},{"id":"xx375598_324447","name":"Islamic place","lat":37.559786,"lng":32.444683,"addr":"","type":"mosque"},{"id":"xx374658_305608","name":"Cami","lat":37.465778,"lng":30.560817,"addr":"","type":"mosque"},{"id":"xx368329_320656","name":"Islamic place","lat":36.832876,"lng":32.065585,"addr":"","type":"mosque"},{"id":"xx369077_321487","name":"Islamic place","lat":36.907716,"lng":32.14874,"addr":"","type":"mosque"},{"id":"xx368314_320239","name":"Camii","lat":36.831423,"lng":32.023948,"addr":"","type":"mosque"},{"id":"xx368196_345950","name":"Veysel Karani Cami","lat":36.819563,"lng":34.595049,"addr":"Mersin","type":"mosque"},{"id":"xx390353_306892","name":"Islamic place","lat":39.035318,"lng":30.689218,"addr":"","type":"mosque"},{"id":"xx390924_308290","name":"Islamic place","lat":39.09235,"lng":30.828976,"addr":"","type":"mosque"},{"id":"xx392465_308300","name":"Islamic place","lat":39.24647,"lng":30.830014,"addr":"","type":"mosque"},{"id":"xx389976_307452","name":"Islamic place","lat":38.997593,"lng":30.745199,"addr":"","type":"mosque"},{"id":"xx388581_307593","name":"Tepecik Camii","lat":38.858071,"lng":30.759312,"addr":"","type":"mosque"},{"id":"xx388893_307325","name":"Islamic place","lat":38.889263,"lng":30.732516,"addr":"","type":"mosque"},{"id":"xx388603_307492","name":"Islamic place","lat":38.860266,"lng":30.749158,"addr":"","type":"mosque"},{"id":"xx388896_307298","name":"Islamic place","lat":38.8896,"lng":30.729759,"addr":"","type":"mosque"},{"id":"xx388929_307321","name":"Islamic place","lat":38.892949,"lng":30.732139,"addr":"","type":"mosque"},{"id":"xx388633_307504","name":"Islamic place","lat":38.863275,"lng":30.750434,"addr":"","type":"mosque"},{"id":"xx389217_306979","name":"Islamic place","lat":38.921679,"lng":30.697878,"addr":"","type":"mosque"},{"id":"xx389193_306990","name":"Islamic place","lat":38.919266,"lng":30.699039,"addr":"","type":"mosque"},{"id":"xx388533_306945","name":"Islamic place","lat":38.853339,"lng":30.694513,"addr":"","type":"mosque"},{"id":"xx389708_306150","name":"Islamic place","lat":38.970823,"lng":30.615035,"addr":"","type":"mosque"},{"id":"xx383055_306362","name":"Karaadilli Mezarlığı","lat":38.30551,"lng":30.636247,"addr":"","type":"mosque"},{"id":"xx383511_307216","name":"Islamic place","lat":38.351068,"lng":30.721583,"addr":"","type":"mosque"},{"id":"xx382115_304545","name":"Islamic place","lat":38.211458,"lng":30.454452,"addr":"","type":"mosque"},{"id":"xx383694_307419","name":"Islamic place","lat":38.369434,"lng":30.741858,"addr":"","type":"mosque"},{"id":"xx382595_306439","name":"Islamic place","lat":38.259482,"lng":30.643854,"addr":"","type":"mosque"},{"id":"xx387745_307391","name":"Islamic place","lat":38.774468,"lng":30.73909,"addr":"","type":"mosque"},{"id":"xx382564_303900","name":"Islamic place","lat":38.25635,"lng":30.389958,"addr":"","type":"mosque"},{"id":"xx387765_307513","name":"Islamic place","lat":38.776517,"lng":30.751278,"addr":"","type":"mosque"},{"id":"xx392073_306078","name":"Kümbet Mahalle Mezarlığı","lat":39.207333,"lng":30.607779,"addr":"","type":"mosque"},{"id":"xx392275_307041","name":"Islamic place","lat":39.227471,"lng":30.704112,"addr":"","type":"mosque"},{"id":"xx398751_301980","name":"Islamic place","lat":39.875131,"lng":30.198002,"addr":"","type":"mosque"},{"id":"xx398273_303247","name":"Islamic place","lat":39.827295,"lng":30.324695,"addr":"","type":"mosque"},{"id":"xx398297_303188","name":"Islamic place","lat":39.829729,"lng":30.318847,"addr":"","type":"mosque"},{"id":"xx368861_307073","name":"İmaret Camii","lat":36.886086,"lng":30.707275,"addr":"","type":"mosque"},{"id":"xx399183_303305","name":"Islamic place","lat":39.918333,"lng":30.330503,"addr":"","type":"mosque"},{"id":"xx397695_305011","name":"Vişnelik Beyazıt Camii","lat":39.769463,"lng":30.501096,"addr":"","type":"mosque"},{"id":"xx397752_303554","name":"Islamic place","lat":39.775206,"lng":30.355358,"addr":"","type":"mosque"},{"id":"xx397618_303667","name":"Islamic place","lat":39.761794,"lng":30.366742,"addr":"","type":"mosque"},{"id":"xx398585_303834","name":"Islamic place","lat":39.858482,"lng":30.383413,"addr":"","type":"mosque"},{"id":"xx398253_304206","name":"Islamic place","lat":39.825279,"lng":30.420618,"addr":"","type":"mosque"},{"id":"xx399930_303852","name":"Islamic place","lat":39.992992,"lng":30.385227,"addr":"","type":"mosque"},{"id":"xx396317_305086","name":"Islamic place","lat":39.631748,"lng":30.508638,"addr":"","type":"mosque"},{"id":"xx396387_303660","name":"Islamic place","lat":39.638677,"lng":30.36597,"addr":"","type":"mosque"},{"id":"xx396743_304886","name":"Islamic place","lat":39.674256,"lng":30.48863,"addr":"","type":"mosque"},{"id":"xx396489_304589","name":"Islamic place","lat":39.648899,"lng":30.458913,"addr":"","type":"mosque"},{"id":"xx396675_304962","name":"Islamic place","lat":39.667472,"lng":30.496188,"addr":"","type":"mosque"},{"id":"xx398634_304731","name":"Islamic place","lat":39.863419,"lng":30.473093,"addr":"","type":"mosque"},{"id":"xx398767_304904","name":"Islamic place","lat":39.876678,"lng":30.49036,"addr":"","type":"mosque"},{"id":"xx398028_305057","name":"Esentepe Mezarlığı","lat":39.802751,"lng":30.50566,"addr":"","type":"mosque"},{"id":"xx398946_304612","name":"Islamic place","lat":39.894615,"lng":30.461222,"addr":"","type":"mosque"},{"id":"xx398231_305034","name":"Sakintepe Camii","lat":39.823132,"lng":30.503422,"addr":"Eskişehir","type":"Community_Services"},{"id":"xx398008_305103","name":"Hacı Kadir Camii","lat":39.800826,"lng":30.510267,"addr":"Eğitimciler Caddesi","type":"mosque"},{"id":"xx399324_304489","name":"Islamic place","lat":39.93235,"lng":30.448863,"addr":"","type":"mosque"},{"id":"xx399156_304817","name":"Islamic place","lat":39.91556,"lng":30.481664,"addr":"","type":"mosque"},{"id":"xx398382_305504","name":"Islamic place","lat":39.838243,"lng":30.550361,"addr":"","type":"mosque"},{"id":"xx399110_305185","name":"Islamic place","lat":39.910989,"lng":30.518535,"addr":"","type":"mosque"},{"id":"xx398700_307550","name":"Islamic place","lat":39.870004,"lng":30.755042,"addr":"","type":"mosque"},{"id":"xx398704_307543","name":"Islamic place","lat":39.870415,"lng":30.754304,"addr":"","type":"mosque"},{"id":"xx398721_307558","name":"Islamic place","lat":39.87212,"lng":30.755819,"addr":"","type":"mosque"},{"id":"xx397957_305345","name":"İlahiyat Camii","lat":39.79571,"lng":30.534489,"addr":"","type":"mosque"},{"id":"xx398420_309900","name":"Islamic place","lat":39.842037,"lng":30.989983,"addr":"","type":"mosque"},{"id":"xx393285_307931","name":"Islamic place","lat":39.328512,"lng":30.79309,"addr":"","type":"mosque"},{"id":"xx393279_307953","name":"Islamic place","lat":39.32793,"lng":30.795258,"addr":"","type":"mosque"},{"id":"xx394509_306140","name":"Şücaaddin Veli Türbesi","lat":39.450894,"lng":30.613976,"addr":"","type":"mosque"},{"id":"xx394508_306149","name":"Islamic place","lat":39.450849,"lng":30.614942,"addr":"","type":"mosque"},{"id":"xx396358_307531","name":"Islamic place","lat":39.635763,"lng":30.75313,"addr":"","type":"mosque"},{"id":"xx394765_306236","name":"Islamic place","lat":39.476535,"lng":30.623622,"addr":"","type":"mosque"},{"id":"xx394942_309848","name":"Islamic place","lat":39.494159,"lng":30.98476,"addr":"","type":"mosque"},{"id":"xx394422_306946","name":"Islamic place","lat":39.442231,"lng":30.694608,"addr":"","type":"mosque"},{"id":"xx387598_305349","name":"Islamic place","lat":38.759844,"lng":30.534908,"addr":"","type":"mosque"},{"id":"xx387631_305422","name":"Hastane Cami","lat":38.763118,"lng":30.542198,"addr":"Afyonkarahisar","type":"mosque"},{"id":"xx398667_325840","name":"Mezarlık","lat":39.866669,"lng":32.583997,"addr":"","type":"mosque"},{"id":"xx398835_325546","name":"Islamic place","lat":39.883497,"lng":32.55462,"addr":"","type":"mosque"},{"id":"xx390137_311593","name":"Emirdağ İlçe Mezarlığı","lat":39.013742,"lng":31.15933,"addr":"","type":"mosque"},{"id":"xx390227_311995","name":"Ağılcık Köy Mezarlığı","lat":39.022657,"lng":31.199502,"addr":"","type":"mosque"},{"id":"xx390382_311788","name":"Islamic place","lat":39.038204,"lng":31.178837,"addr":"","type":"mosque"},{"id":"xx390356_311609","name":"Bilali Habeşi Camii","lat":39.035608,"lng":31.160891,"addr":"","type":"mosque"},{"id":"xx390252_310318","name":"Islamic place","lat":39.025215,"lng":31.031804,"addr":"","type":"mosque"},{"id":"xx390562_310822","name":"Yeni Cami","lat":39.056164,"lng":31.082241,"addr":"","type":"mosque"},{"id":"xx385330_330018","name":"Islamic place","lat":38.533047,"lng":33.001801,"addr":"","type":"mosque"},{"id":"xx377856_305643","name":"Islamic place","lat":37.785578,"lng":30.564332,"addr":"","type":"mosque"},{"id":"xx383078_328689","name":"Ali Paşa Cami","lat":38.307763,"lng":32.868864,"addr":"","type":"mosque"},{"id":"xx383072_328709","name":"Islamic place","lat":38.307209,"lng":32.870929,"addr":"","type":"mosque"},{"id":"xx390179_342626","name":"Islamic place","lat":39.017902,"lng":34.26264,"addr":"","type":"mosque"},{"id":"xx387208_348472","name":"Yeşilbaş Cami","lat":38.720762,"lng":34.84724,"addr":"","type":"place_of_worship"},{"id":"xx387078_348556","name":"Eyyüp El Ensari Camii","lat":38.707846,"lng":34.855612,"addr":"Nevşehir","type":"mosque"},{"id":"xx366883_300260","name":"Islamic place","lat":36.688286,"lng":30.026,"addr":"","type":"mosque"},{"id":"xx366834_300032","name":"Islamic place","lat":36.683356,"lng":30.003202,"addr":"","type":"mosque"},{"id":"xx368572_300270","name":"Islamic place","lat":36.857234,"lng":30.02699,"addr":"","type":"mosque"},{"id":"xx368011_300365","name":"Cami","lat":36.801081,"lng":30.036457,"addr":"","type":"mosque"},{"id":"xx368603_300255","name":"Cami","lat":36.860268,"lng":30.025461,"addr":"","type":"mosque"},{"id":"xx363695_302126","name":"Islamic place","lat":36.369526,"lng":30.212573,"addr":"","type":"mosque"},{"id":"xx362738_300509","name":"İskele Camii","lat":36.27379,"lng":30.050872,"addr":"","type":"mosque"},{"id":"xx370472_306523","name":"Islamic place","lat":37.047206,"lng":30.652326,"addr":"","type":"mosque"},{"id":"xx389408_330067","name":"Ömeranli Mezerligi","lat":38.940803,"lng":33.006708,"addr":"","type":"mosque"},{"id":"xx385953_346799","name":"Kaldırım Mezarlığı","lat":38.595251,"lng":34.679932,"addr":"","type":"mosque"},{"id":"xx386262_347852","name":"Mezarlık","lat":38.626167,"lng":34.785249,"addr":"","type":"mosque"},{"id":"xx388341_329911","name":"Islamic place","lat":38.834143,"lng":32.991072,"addr":"","type":"mosque"},{"id":"xx387109_329098","name":"Islamic place","lat":38.71094,"lng":32.909834,"addr":"","type":"mosque"},{"id":"xx388816_329842","name":"Islamic place","lat":38.881555,"lng":32.984167,"addr":"","type":"mosque"},{"id":"xx388665_330388","name":"Islamic place","lat":38.866486,"lng":33.03877,"addr":"","type":"mosque"},{"id":"xx387156_329095","name":"Islamic place","lat":38.715594,"lng":32.909471,"addr":"","type":"mosque"},{"id":"xx386629_329159","name":"Islamic place","lat":38.662859,"lng":32.915864,"addr":"","type":"mosque"},{"id":"xx378695_325081","name":"Üçler Mezarlığı","lat":37.869471,"lng":32.508091,"addr":"","type":"mosque"},{"id":"xx379025_324928","name":"Fatih Camii","lat":37.90248,"lng":32.492784,"addr":"Konya","type":"mosque"},{"id":"xx378571_324643","name":"Ateş-i Bazı Veli Camii","lat":37.857135,"lng":32.464267,"addr":"Konya","type":"mosque"},{"id":"xx379066_325260","name":"Toptancılar Muaz Bin Cebel Cami","lat":37.906555,"lng":32.525961,"addr":"Konya","type":"mosque"},{"id":"xx379122_324992","name":"Şehitler Cami","lat":37.912203,"lng":32.499241,"addr":"Konya","type":"mosque"},{"id":"xx378704_325042","name":"Sultan Selim Camii","lat":37.870368,"lng":32.504174,"addr":"Konya","type":"mosque"},{"id":"xx378733_324929","name":"Alaeddin Keykubad Camii","lat":37.873323,"lng":32.492909,"addr":"Konya","type":"mosque"},{"id":"xx391441_341606","name":"Kapıcı Camii","lat":39.144063,"lng":34.16058,"addr":"","type":"mosque"},{"id":"xx391835_341725","name":"İmamı Azam Cami","lat":39.183535,"lng":34.172461,"addr":"Kırşehir","type":"mosque"},{"id":"xx391306_341922","name":"Mescid-i Kuba Cami","lat":39.130618,"lng":34.1922,"addr":"Kırşehir","type":"mosque"},{"id":"xx391542_341704","name":"Aşık Paşa Cami","lat":39.154213,"lng":34.170417,"addr":"Kırşehir","type":"mosque"},{"id":"xx391625_341602","name":"Mevlana Cami","lat":39.16245,"lng":34.160199,"addr":"Kırşehir","type":"mosque"},{"id":"xx391367_341613","name":"Hacı Cemal ve Eşi Kezban Ülgen Camii","lat":39.136745,"lng":34.161258,"addr":"","type":"mosque"},{"id":"xx391732_341693","name":"Kösefakılılı Hacı Ömer Durak Cami","lat":39.173241,"lng":34.169278,"addr":"Kırşehir","type":"mosque"},{"id":"xx391168_341621","name":"Islamic place","lat":39.116764,"lng":34.162106,"addr":"","type":"mosque"},{"id":"xx391447_341562","name":"Islamic place","lat":39.1447,"lng":34.156209,"addr":"","type":"mosque"},{"id":"xx391769_341610","name":"Osman Altıparmak Cami","lat":39.176852,"lng":34.160973,"addr":"Kırşehir","type":"mosque"},{"id":"xx395796_321668","name":"Polatlı Mezarlığı","lat":39.579574,"lng":32.166775,"addr":"","type":"mosque"},{"id":"xx386337_347307","name":"Taşlıbel Mezarlığı","lat":38.633684,"lng":34.730692,"addr":"","type":"mosque"},{"id":"xx386284_347375","name":"Fevzi Avlanmaz Camii","lat":38.628409,"lng":34.737512,"addr":"Nevşehir","type":"mosque"},{"id":"xx386399_347348","name":"Oğuzlar Gaznevi Camii","lat":38.639906,"lng":34.73477,"addr":"Nevşehir","type":"mosque"},{"id":"xx378800_324558","name":"Ebubekir camii","lat":37.880022,"lng":32.455822,"addr":"Konya","type":"mosque"},{"id":"xx378829_324578","name":"Çınar Camii","lat":37.882898,"lng":32.457757,"addr":"","type":"mosque"},{"id":"xx371999_306519","name":"Islamic place","lat":37.199942,"lng":30.651926,"addr":"","type":"mosque"},{"id":"xx371765_306377","name":"Islamic place","lat":37.176497,"lng":30.637747,"addr":"","type":"mosque"},{"id":"xx388528_305008","name":"Fethibey Mezarlığı","lat":38.852825,"lng":30.500784,"addr":"","type":"mosque"},{"id":"xx388224_304781","name":"Islamic place","lat":38.822397,"lng":30.478117,"addr":"","type":"mosque"},{"id":"xx385467_306428","name":"Islamic place","lat":38.546665,"lng":30.64277,"addr":"","type":"mosque"},{"id":"xx388042_304945","name":"Islamic place","lat":38.804171,"lng":30.494467,"addr":"","type":"mosque"},{"id":"xx388357_304313","name":"Islamic place","lat":38.83566,"lng":30.43131,"addr":"","type":"mosque"},{"id":"xx387541_305679","name":"Eşrefpaşa Cami","lat":38.754069,"lng":30.56795,"addr":"Afyonkarahisar","type":"mosque"},{"id":"xx381214_307154","name":"Islamic place","lat":38.121357,"lng":30.715388,"addr":"","type":"mosque"},{"id":"xx387722_305994","name":"Islamic place","lat":38.772201,"lng":30.599425,"addr":"","type":"mosque"},{"id":"xx387350_305677","name":"Kocatepe Cami","lat":38.734969,"lng":30.56765,"addr":"Afyonkarahisar","type":"mosque"},{"id":"xx383472_314749","name":"Islamic place","lat":38.347223,"lng":31.474854,"addr":"","type":"mosque"},{"id":"xx383882_313847","name":"Islamic place","lat":38.388235,"lng":31.384696,"addr":"","type":"mosque"},{"id":"xx384485_313143","name":"Islamic place","lat":38.448543,"lng":31.314346,"addr":"","type":"mosque"},{"id":"xx383804_314233","name":"Islamic place","lat":38.380399,"lng":31.423334,"addr":"","type":"mosque"},{"id":"xx390880_319980","name":"Islamic place","lat":39.088023,"lng":31.997958,"addr":"","type":"mosque"},{"id":"xx389044_319997","name":"Islamic place","lat":38.90442,"lng":31.999662,"addr":"","type":"mosque"},{"id":"xx390935_311770","name":"Islamic place","lat":39.09351,"lng":31.176955,"addr":"","type":"mosque"},{"id":"xx374255_348696","name":"Topbaşlar Camii","lat":37.425467,"lng":34.869558,"addr":"Adana","type":"mosque"},{"id":"xx398150_348001","name":"Namazgah Cami","lat":39.815034,"lng":34.800077,"addr":"Yozgat","type":"mosque"},{"id":"xx397973_347627","name":"Islamic place","lat":39.797318,"lng":34.762726,"addr":"","type":"mosque"},{"id":"xx398108_347924","name":"Şeyh Osman Cami","lat":39.810803,"lng":34.792358,"addr":"Yozgat","type":"mosque"},{"id":"xx373574_300612","name":"Islamic place","lat":37.357406,"lng":30.061158,"addr":"","type":"mosque"},{"id":"xx367929_314419","name":"Çağlayan Cami","lat":36.792945,"lng":31.441889,"addr":"","type":"mosque"},{"id":"xx369668_310494","name":"Camii","lat":36.966798,"lng":31.04936,"addr":"","type":"mosque"},{"id":"xx386424_349081","name":"Arpacızade Camii","lat":38.642429,"lng":34.908086,"addr":"","type":"mosque"},{"id":"xx386253_349132","name":"Hacı Kübra Hasan Efendi Cami","lat":38.6253,"lng":34.913232,"addr":"","type":"mosque"},{"id":"xx386331_349114","name":"Sağır Mescid Cami","lat":38.633079,"lng":34.911386,"addr":"","type":"mosque"},{"id":"xx386232_349117","name":"mezarlık","lat":38.623191,"lng":34.911749,"addr":"","type":"mosque"},{"id":"xx386282_348689","name":"Islamic place","lat":38.628184,"lng":34.868915,"addr":"","type":"mosque"},{"id":"xx395100_312502","name":"Islamic place","lat":39.510015,"lng":31.250227,"addr":"","type":"mosque"},{"id":"xx395987_321464","name":"Islamic place","lat":39.598747,"lng":32.146409,"addr":"","type":"mosque"},{"id":"xx394159_320383","name":"Islamic place","lat":39.415897,"lng":32.038254,"addr":"","type":"mosque"},{"id":"xx394444_320803","name":"Islamic place","lat":39.444388,"lng":32.080323,"addr":"","type":"mosque"},{"id":"xx394453_321215","name":"Karahamzalı Camii","lat":39.445272,"lng":32.121474,"addr":"","type":"mosque"},{"id":"xx399612_328801","name":"Pazar Cami Şerifi","lat":39.961162,"lng":32.880143,"addr":"Altındağ/Ankara","type":"mosque"},{"id":"xx381040_305536","name":"Islamic place","lat":38.104019,"lng":30.553633,"addr":"","type":"mosque"},{"id":"xx381063_305496","name":"Hıdır Çelebi Cami","lat":38.106271,"lng":30.549565,"addr":"","type":"mosque"},{"id":"xx398375_334956","name":"ATATEPE CAMİ","lat":39.837467,"lng":33.49559,"addr":"","type":"mosque"},{"id":"xx396910_331093","name":"Islamic place","lat":39.69097,"lng":33.109278,"addr":"","type":"mosque"},{"id":"xx396625_330820","name":"Islamic place","lat":39.662475,"lng":33.081994,"addr":"","type":"mosque"},{"id":"xx396883_331108","name":"Islamic place","lat":39.688279,"lng":33.110832,"addr":"","type":"mosque"},{"id":"xx397233_331672","name":"Islamic place","lat":39.723312,"lng":33.167167,"addr":"","type":"mosque"},{"id":"xx382838_305446","name":"Islamic place","lat":38.283771,"lng":30.544604,"addr":"","type":"mosque"},{"id":"xx382742_304965","name":"Islamic place","lat":38.274172,"lng":30.496548,"addr":"","type":"mosque"},{"id":"xx394276_300021","name":"Islamic place","lat":39.427634,"lng":30.002097,"addr":"","type":"mosque"},{"id":"xx384491_305398","name":"Islamic place","lat":38.449087,"lng":30.539797,"addr":"","type":"mosque"},{"id":"xx361064_325619","name":"Yakacık Cami","lat":36.106374,"lng":32.561873,"addr":"","type":"mosque"},{"id":"xx360726_328663","name":"Marulyalı Camii","lat":36.072566,"lng":32.866284,"addr":"1704. Sokak","type":"mosque"},{"id":"xx360590_328458","name":"Akın Camii","lat":36.059017,"lng":32.84582,"addr":"1427. Sokak","type":"mosque"},{"id":"xx360797_328370","name":"Göktaş Camii","lat":36.079724,"lng":32.837045,"addr":"Akdeniz Caddesi","type":"mosque"},{"id":"xx386987_345753","name":"Islamic place","lat":38.698718,"lng":34.575342,"addr":"","type":"mosque"},{"id":"xx388057_345095","name":"Islamic place","lat":38.805701,"lng":34.509481,"addr":"","type":"mosque"},{"id":"xx386799_345342","name":"Islamic place","lat":38.679943,"lng":34.534199,"addr":"","type":"mosque"},{"id":"xx387963_345967","name":"Islamic place","lat":38.796261,"lng":34.596662,"addr":"","type":"mosque"},{"id":"xx388107_348398","name":"Camii Kebir Camii","lat":38.810677,"lng":34.839831,"addr":"","type":"mosque"},{"id":"xx388084_348375","name":"Islamic place","lat":38.808389,"lng":34.837463,"addr":"","type":"mosque"},{"id":"xx387977_348889","name":"Çatalyol Camii","lat":38.797702,"lng":34.88892,"addr":"","type":"mosque"},{"id":"xx387921_348840","name":"Islamic place","lat":38.792075,"lng":34.883952,"addr":"","type":"mosque"},{"id":"xx387916_348876","name":"Islamic place","lat":38.7916,"lng":34.887599,"addr":"","type":"mosque"},{"id":"xx388100_348607","name":"Mezarlık","lat":38.810032,"lng":34.860737,"addr":"","type":"mosque"},{"id":"xx381813_346444","name":"Islamic place","lat":38.181275,"lng":34.644408,"addr":"","type":"mosque"},{"id":"xx381755_344855","name":"Islamic place","lat":38.175509,"lng":34.48546,"addr":"","type":"mosque"},{"id":"xx381492_344945","name":"Islamic place","lat":38.149237,"lng":34.494465,"addr":"","type":"mosque"},{"id":"xx381771_346372","name":"Islamic place","lat":38.177148,"lng":34.637193,"addr":"","type":"mosque"},{"id":"xx381924_345034","name":"Islamic place","lat":38.192357,"lng":34.503399,"addr":"","type":"mosque"},{"id":"xx382078_344651","name":"Islamic place","lat":38.207827,"lng":34.465061,"addr":"","type":"mosque"},{"id":"xx381756_344814","name":"Mezarlık","lat":38.175574,"lng":34.481416,"addr":"","type":"mosque"},{"id":"xx380247_347680","name":"Aktaş Kilise Camii","lat":38.024726,"lng":34.767998,"addr":"","type":"mosque"},{"id":"xx382450_344904","name":"Mehmet Akif Ersoy Camii","lat":38.245025,"lng":34.490377,"addr":"Niğde","type":"mosque"},{"id":"xx382359_344844","name":"Islamic place","lat":38.235863,"lng":34.484354,"addr":"","type":"mosque"},{"id":"xx383127_345045","name":"İbadullah Camii","lat":38.312702,"lng":34.504539,"addr":"Niğde","type":"mosque"},{"id":"xx379737_346215","name":"Yeni Cami","lat":37.973728,"lng":34.621506,"addr":"","type":"mosque"},{"id":"xx383222_345158","name":"Fatih Camii","lat":38.322249,"lng":34.515772,"addr":"Kayırlı","type":"mosque"},{"id":"xx384314_345896","name":"Islamic place","lat":38.431447,"lng":34.589581,"addr":"","type":"mosque"},{"id":"xx384359_345169","name":"Kurugöl Merkez Camii","lat":38.435927,"lng":34.516944,"addr":"Nevşehir","type":"mosque"},{"id":"xx384337_345156","name":"Bedir Camii","lat":38.433661,"lng":34.515634,"addr":"Nevşehir","type":"mosque"},{"id":"xx384252_346591","name":"Islamic place","lat":38.425187,"lng":34.659103,"addr":"","type":"mosque"},{"id":"xx384301_345986","name":"Islamic place","lat":38.4301,"lng":34.598577,"addr":"","type":"mosque"},{"id":"xx384744_345073","name":"Ağıllı Mahallesi Camii","lat":38.474393,"lng":34.50726,"addr":"Nevşehir","type":"mosque"},{"id":"xx385172_345478","name":"Hafız Necip Usta Camii","lat":38.517183,"lng":34.547753,"addr":"Nevşehir","type":"mosque"},{"id":"xx384722_345038","name":"Ağıllı Mahallesi Yeni Camii","lat":38.47221,"lng":34.503817,"addr":"Nevşehir","type":"mosque"},{"id":"xx385002_346014","name":"Islamic place","lat":38.500192,"lng":34.601418,"addr":"","type":"mosque"},{"id":"xx385262_345522","name":"Islamic place","lat":38.52624,"lng":34.552233,"addr":"","type":"mosque"},{"id":"xx384718_345083","name":"Islamic place","lat":38.471845,"lng":34.508255,"addr":"","type":"mosque"},{"id":"xx385801_345106","name":"İnallı Eski Camii","lat":38.580062,"lng":34.510586,"addr":"Nevşehir","type":"mosque"},{"id":"xx385665_345689","name":"Islamic place","lat":38.566473,"lng":34.568911,"addr":"","type":"mosque"},{"id":"xx385752_345656","name":"Islamic place","lat":38.575241,"lng":34.565645,"addr":"","type":"mosque"},{"id":"xx385767_345121","name":"Islamic place","lat":38.576669,"lng":34.512087,"addr":"","type":"mosque"},{"id":"xx398951_300453","name":"Islamic place","lat":39.895066,"lng":30.045325,"addr":"","type":"mosque"},{"id":"xx399770_300010","name":"Islamic place","lat":39.97701,"lng":30.001009,"addr":"","type":"mosque"},{"id":"xx398994_300302","name":"Islamic place","lat":39.899414,"lng":30.030184,"addr":"","type":"mosque"},{"id":"xx399083_300365","name":"Islamic place","lat":39.908317,"lng":30.036527,"addr":"","type":"mosque"},{"id":"xx379300_323617","name":"Islamic place","lat":37.930024,"lng":32.361678,"addr":"","type":"mosque"},{"id":"xx379271_323641","name":"Islamic place","lat":37.927132,"lng":32.364137,"addr":"","type":"mosque"},{"id":"xx378966_323973","name":"Islamic place","lat":37.896566,"lng":32.397272,"addr":"","type":"mosque"},{"id":"xx379284_324199","name":"Ak  Cami","lat":37.92836,"lng":32.41986,"addr":"","type":"yes"},{"id":"xx386340_347023","name":"Cevher Dudayev Camii","lat":38.634014,"lng":34.702291,"addr":"Nevşehir","type":"mosque"},{"id":"xx375207_340469","name":"Karagözler Cami","lat":37.520728,"lng":34.0469,"addr":"","type":"mosque"},{"id":"xx375853_339372","name":"Islamic place","lat":37.585335,"lng":33.937214,"addr":"","type":"mosque"},{"id":"xx375153_340557","name":"Meydan Mezarlığı","lat":37.515324,"lng":34.055715,"addr":"","type":"mosque"},{"id":"xx372636_340469","name":"Islamic place","lat":37.263613,"lng":34.04692,"addr":"","type":"mosque"},{"id":"xx372683_340491","name":"Islamic place","lat":37.268277,"lng":34.049087,"addr":"","type":"mosque"},{"id":"xx372657_340352","name":"Islamic place","lat":37.265656,"lng":34.035162,"addr":"","type":"mosque"},{"id":"xx374848_340359","name":"Islamic place","lat":37.484842,"lng":34.035931,"addr":"","type":"mosque"},{"id":"xx372578_339415","name":"Islamic place","lat":37.257757,"lng":33.941537,"addr":"","type":"mosque"},{"id":"xx375161_340533","name":"Meydan Mezarlığı","lat":37.516058,"lng":34.053296,"addr":"","type":"mosque"},{"id":"xx374771_340619","name":"Abitler Mezarlığı","lat":37.477134,"lng":34.061888,"addr":"","type":"mosque"},{"id":"xx375294_340802","name":"Islamic place","lat":37.529374,"lng":34.080207,"addr":"","type":"mosque"},{"id":"xx381812_340237","name":"Islamic place","lat":38.181219,"lng":34.023698,"addr":"","type":"mosque"},{"id":"xx375017_339416","name":"Islamic place","lat":37.501723,"lng":33.941585,"addr":"","type":"mosque"},{"id":"xx378256_342461","name":"Zengen Cami","lat":37.825645,"lng":34.246143,"addr":"","type":"mosque"},{"id":"xx379464_339651","name":"Islamic place","lat":37.946355,"lng":33.965114,"addr":"","type":"mosque"},{"id":"xx380036_340138","name":"Islamic place","lat":38.003622,"lng":34.01376,"addr":"","type":"mosque"},{"id":"xx375270_340732","name":"Islamic place","lat":37.527034,"lng":34.073184,"addr":"","type":"mosque"},{"id":"xx380965_340742","name":"Islamic place","lat":38.09652,"lng":34.074152,"addr":"","type":"mosque"},{"id":"xx381658_340342","name":"Islamic place","lat":38.165802,"lng":34.034216,"addr":"","type":"mosque"},{"id":"xx380602_341514","name":"Islamic place","lat":38.060232,"lng":34.151402,"addr":"","type":"mosque"},{"id":"xx375951_339331","name":"Islamic place","lat":37.595118,"lng":33.933124,"addr":"","type":"mosque"},{"id":"xx381778_340624","name":"Islamic place","lat":38.177782,"lng":34.062401,"addr":"","type":"mosque"},{"id":"xx381733_340271","name":"Islamic place","lat":38.173331,"lng":34.027097,"addr":"","type":"mosque"},{"id":"xx379952_340062","name":"Islamic place","lat":37.995196,"lng":34.006154,"addr":"","type":"mosque"},{"id":"xx377235_338500","name":"Islamic place","lat":37.723514,"lng":33.849992,"addr":"","type":"mosque"},{"id":"xx383075_340677","name":"Islamic place","lat":38.307512,"lng":34.067671,"addr":"","type":"mosque"},{"id":"xx382261_341821","name":"Islamic place","lat":38.226085,"lng":34.182058,"addr":"","type":"mosque"},{"id":"xx382148_340607","name":"Islamic place","lat":38.214836,"lng":34.060742,"addr":"","type":"mosque"},{"id":"xx382226_341823","name":"Islamic place","lat":38.222552,"lng":34.182274,"addr":"","type":"mosque"},{"id":"xx382038_341713","name":"Islamic place","lat":38.203848,"lng":34.171349,"addr":"","type":"mosque"},{"id":"xx382223_341796","name":"Islamic place","lat":38.222337,"lng":34.179596,"addr":"","type":"mosque"},{"id":"xx382443_341362","name":"Karaören Mezarlığı","lat":38.244264,"lng":34.136173,"addr":"","type":"mosque"},{"id":"xx382035_341676","name":"Islamic place","lat":38.203538,"lng":34.167591,"addr":"","type":"mosque"},{"id":"xx383212_341547","name":"Islamic place","lat":38.321168,"lng":34.154706,"addr":"","type":"mosque"},{"id":"xx381759_341040","name":"Islamic place","lat":38.175897,"lng":34.104018,"addr":"","type":"mosque"},{"id":"xx381545_340957","name":"Islamic place","lat":38.15448,"lng":34.095684,"addr":"","type":"mosque"},{"id":"xx382432_341602","name":"Yuva mezarlığı","lat":38.243163,"lng":34.160233,"addr":"","type":"mosque"},{"id":"xx383566_340261","name":"Islamic place","lat":38.35663,"lng":34.026064,"addr":"","type":"mosque"},{"id":"xx383614_340104","name":"Islamic place","lat":38.361369,"lng":34.010387,"addr":"","type":"mosque"},{"id":"xx383667_340439","name":"Islamic place","lat":38.366666,"lng":34.043864,"addr":"","type":"mosque"},{"id":"xx383360_340116","name":"Islamic place","lat":38.336034,"lng":34.011591,"addr":"","type":"mosque"},{"id":"xx383609_340022","name":"Islamic place","lat":38.360927,"lng":34.002227,"addr":"","type":"mosque"},{"id":"xx385371_340405","name":"Islamic place","lat":38.53709,"lng":34.040526,"addr":"","type":"mosque"},{"id":"xx384186_339906","name":"Eras Camii","lat":38.418647,"lng":33.990603,"addr":"","type":"mosque"},{"id":"xx385244_341254","name":"Islamic place","lat":38.524365,"lng":34.1254,"addr":"","type":"mosque"},{"id":"xx384677_340547","name":"Islamic place","lat":38.46766,"lng":34.054724,"addr":"","type":"mosque"},{"id":"xx385602_340513","name":"Islamic place","lat":38.560209,"lng":34.051253,"addr":"","type":"mosque"},{"id":"xx385629_341045","name":"Islamic place","lat":38.562861,"lng":34.104522,"addr":"","type":"mosque"},{"id":"xx385038_341020","name":"Islamic place","lat":38.503835,"lng":34.102037,"addr":"","type":"mosque"},{"id":"xx384681_340553","name":"Islamic place","lat":38.468059,"lng":34.055319,"addr":"","type":"mosque"},{"id":"xx385384_340574","name":"Islamic place","lat":38.538396,"lng":34.057387,"addr":"","type":"mosque"},{"id":"xx385281_341245","name":"Islamic place","lat":38.528147,"lng":34.12446,"addr":"","type":"mosque"},{"id":"xx385328_340394","name":"Islamic place","lat":38.532794,"lng":34.039411,"addr":"","type":"mosque"},{"id":"xx385948_340585","name":"Islamic place","lat":38.594805,"lng":34.058462,"addr":"","type":"mosque"},{"id":"xx386632_339958","name":"Islamic place","lat":38.663208,"lng":33.995763,"addr":"","type":"mosque"},{"id":"xx385660_339976","name":"Islamic place","lat":38.566003,"lng":33.997578,"addr":"","type":"mosque"},{"id":"xx385849_341456","name":"Islamic place","lat":38.584917,"lng":34.145611,"addr":"","type":"mosque"},{"id":"xx385931_341087","name":"Islamic place","lat":38.593069,"lng":34.108667,"addr":"","type":"mosque"},{"id":"xx386639_339920","name":"Islamic place","lat":38.663928,"lng":33.992023,"addr":"","type":"mosque"},{"id":"xx386039_341315","name":"Islamic place","lat":38.603948,"lng":34.131472,"addr":"","type":"mosque"},{"id":"xx387272_340181","name":"Ortaköy Toki Cami","lat":38.727183,"lng":34.018093,"addr":"Ortaköy/Aksaray","type":"mosque"},{"id":"xx387439_339901","name":"Islamic place","lat":38.743882,"lng":33.990096,"addr":"","type":"mosque"},{"id":"xx388221_340950","name":"Islamic place","lat":38.822097,"lng":34.094999,"addr":"","type":"mosque"},{"id":"xx387584_340083","name":"Islamic place","lat":38.758372,"lng":34.00827,"addr":"","type":"mosque"},{"id":"xx387283_341644","name":"Islamic place","lat":38.728313,"lng":34.164441,"addr":"","type":"mosque"},{"id":"xx387613_339899","name":"Islamic place","lat":38.76128,"lng":33.989873,"addr":"","type":"mosque"},{"id":"xx387590_340111","name":"Islamic place","lat":38.758962,"lng":34.011062,"addr":"","type":"mosque"},{"id":"xx372824_338166","name":"Islamic place","lat":37.282408,"lng":33.816589,"addr":"","type":"mosque"},{"id":"xx368866_307045","name":"Yivli Minare Camii","lat":36.886615,"lng":30.7045,"addr":"","type":"mosque"},{"id":"xx399444_328580","name":"Hacı Bayram Veli Camii","lat":39.94437,"lng":32.857985,"addr":"Ankara","type":"mosque"},{"id":"xx362570_300032","name":"Islamic place","lat":36.257024,"lng":30.00324,"addr":"","type":"mosque"},{"id":"xx362411_300046","name":"Islamic place","lat":36.241072,"lng":30.004604,"addr":"","type":"mosque"},{"id":"xx392314_305753","name":"Islamic place","lat":39.231379,"lng":30.575339,"addr":"","type":"mosque"},{"id":"xx393483_304978","name":"Islamic place","lat":39.34828,"lng":30.497803,"addr":"","type":"mosque"},{"id":"xx397018_302866","name":"Islamic place","lat":39.701808,"lng":30.286572,"addr":"","type":"mosque"},{"id":"xx368836_307393","name":"Camii","lat":36.883649,"lng":30.739315,"addr":"","type":"mosque"},{"id":"xx369533_311221","name":"Islamic place","lat":36.953269,"lng":31.122087,"addr":"","type":"mosque"},{"id":"xx369189_311059","name":"Hacı Veli Camii","lat":36.918853,"lng":31.105868,"addr":"","type":"mosque"},{"id":"xx369263_310998","name":"Camii","lat":36.926266,"lng":31.099834,"addr":"","type":"mosque"},{"id":"xx369100_310977","name":"Yıldırım Beyazıt Camii","lat":36.910013,"lng":31.097678,"addr":"","type":"mosque"},{"id":"xx369142_311090","name":"Islamic place","lat":36.91417,"lng":31.109018,"addr":"","type":"mosque"},{"id":"xx369136_311647","name":"Islamic place","lat":36.91364,"lng":31.164708,"addr":"","type":"mosque"},{"id":"xx362948_301353","name":"Boldağ Camii","lat":36.294767,"lng":30.135325,"addr":"","type":"mosque"},{"id":"xx362952_301425","name":"Islamic place","lat":36.295207,"lng":30.142526,"addr":"","type":"mosque"},{"id":"xx363041_301454","name":"Islamic place","lat":36.304052,"lng":30.145433,"addr":"","type":"mosque"},{"id":"xx362978_301441","name":"Merkez Cami","lat":36.297844,"lng":30.144058,"addr":"","type":"mosque"},{"id":"xx362682_323154","name":"Merkez Cami","lat":36.268186,"lng":32.315417,"addr":"","type":"mosque"},{"id":"xx362674_323192","name":"Cami","lat":36.267363,"lng":32.319222,"addr":"","type":"mosque"},{"id":"xx367867_321220","name":"Islamic place","lat":36.786672,"lng":32.121982,"addr":"","type":"mosque"},{"id":"xx367812_321307","name":"Islamic place","lat":36.781215,"lng":32.130744,"addr":"","type":"mosque"},{"id":"xx386298_348598","name":"Bahçelievler Yeni Camii","lat":38.629847,"lng":34.859804,"addr":"","type":"mosque"},{"id":"xx385990_348451","name":"İbrahimpaşa Yeni Köyü Camii","lat":38.599043,"lng":34.845143,"addr":"Nevşehir","type":"mosque"},{"id":"xx386009_348386","name":"Islamic place","lat":38.600914,"lng":34.8386,"addr":"","type":"mosque"},{"id":"xx385992_348472","name":"Islamic place","lat":38.599238,"lng":34.847183,"addr":"","type":"mosque"},{"id":"xx380667_304632","name":"Islamic place","lat":38.066657,"lng":30.463219,"addr":"","type":"mosque"},{"id":"xx363445_333991","name":"Hacıpınarı Nur Camii","lat":36.34451,"lng":33.399076,"addr":"Mersin","type":"mosque"},{"id":"xx361453_333227","name":"Aydıncık Merkez Camii","lat":36.145284,"lng":33.322697,"addr":"Mersin","type":"mosque"},{"id":"xx364464_335266","name":"Zeyne Camii","lat":36.446362,"lng":33.526619,"addr":"","type":"mosque"},{"id":"xx365799_336432","name":"Sarıkavak Köyü Camii","lat":36.579887,"lng":33.643188,"addr":"","type":"mosque"},{"id":"xx364440_335237","name":"Islamic place","lat":36.443981,"lng":33.523741,"addr":"","type":"mosque"},{"id":"xx387584_305593","name":"Selimiye Cami","lat":38.758448,"lng":30.559272,"addr":"Afyonkarahisar","type":"mosque"},{"id":"xx392902_348465","name":"Karasenir Aşağı Camii","lat":39.290208,"lng":34.846493,"addr":"Nevşehir","type":"mosque"},{"id":"xx392252_346596","name":"Islamic place","lat":39.225215,"lng":34.659637,"addr":"","type":"mosque"},{"id":"xx391147_347864","name":"Islamic place","lat":39.114652,"lng":34.786405,"addr":"","type":"mosque"},{"id":"xx392093_348544","name":"Emek Mahallesi Camii","lat":39.209286,"lng":34.854374,"addr":"Nevşehir","type":"mosque"},{"id":"xx392909_346075","name":"Islamic place","lat":39.290911,"lng":34.607517,"addr":"","type":"mosque"},{"id":"xx391495_347392","name":"Kalecik Mahallesi Camii","lat":39.149523,"lng":34.739153,"addr":"Nevşehir","type":"mosque"},{"id":"xx391014_349804","name":"Islamic place","lat":39.101359,"lng":34.980392,"addr":"","type":"mosque"},{"id":"xx391448_347384","name":"Islamic place","lat":39.144791,"lng":34.738414,"addr":"","type":"mosque"},{"id":"xx390986_346987","name":"Islamic place","lat":39.098639,"lng":34.698652,"addr":"","type":"mosque"},{"id":"xx390763_347508","name":"Islamic place","lat":39.076324,"lng":34.750782,"addr":"","type":"mosque"},{"id":"xx389948_346600","name":"Islamic place","lat":38.994769,"lng":34.660043,"addr":"","type":"mosque"},{"id":"xx392916_348969","name":"Islamic place","lat":39.291582,"lng":34.896909,"addr":"","type":"mosque"},{"id":"xx392050_347106","name":"Islamic place","lat":39.204955,"lng":34.710583,"addr":"","type":"mosque"},{"id":"xx391125_347619","name":"Islamic place","lat":39.112547,"lng":34.761863,"addr":"","type":"mosque"},{"id":"xx391660_348530","name":"Islamic place","lat":39.16605,"lng":34.853016,"addr":"","type":"mosque"},{"id":"xx390994_349831","name":"Islamic place","lat":39.099413,"lng":34.983085,"addr":"","type":"mosque"},{"id":"xx390455_346635","name":"Islamic place","lat":39.04552,"lng":34.663543,"addr":"","type":"mosque"},{"id":"xx391468_347380","name":"Islamic place","lat":39.146798,"lng":34.737973,"addr":"","type":"mosque"},{"id":"xx390466_347732","name":"Islamic place","lat":39.046618,"lng":34.773192,"addr":"","type":"mosque"},{"id":"xx392264_348479","name":"Islamic place","lat":39.226386,"lng":34.847947,"addr":"","type":"mosque"},{"id":"xx392889_346128","name":"Islamic place","lat":39.288919,"lng":34.612845,"addr":"","type":"mosque"},{"id":"xx392190_348170","name":"Islamic place","lat":39.21896,"lng":34.81699,"addr":"","type":"mosque"},{"id":"xx392145_349953","name":"Fatih Camii","lat":39.214516,"lng":34.99531,"addr":"","type":"mosque"},{"id":"xx392076_348628","name":"Kaplıca Camii","lat":39.207592,"lng":34.862811,"addr":"Nevşehir","type":"mosque"},{"id":"xx392091_348478","name":"Mezarlık","lat":39.209107,"lng":34.847827,"addr":"","type":"mosque"},{"id":"xx388288_347352","name":"Islamic place","lat":38.828819,"lng":34.735189,"addr":"","type":"mosque"},{"id":"xx389790_347515","name":"Islamic place","lat":38.978992,"lng":34.75146,"addr":"","type":"mosque"},{"id":"xx391528_349129","name":"Islamic place","lat":39.152781,"lng":34.912917,"addr":"","type":"mosque"},{"id":"xx389310_348460","name":"Islamic place","lat":38.931045,"lng":34.845992,"addr":"","type":"mosque"},{"id":"xx389064_346708","name":"Islamic place","lat":38.906426,"lng":34.670763,"addr":"","type":"mosque"},{"id":"xx389754_347499","name":"Islamic place","lat":38.975376,"lng":34.749872,"addr":"","type":"mosque"},{"id":"xx389103_347799","name":"Islamic place","lat":38.910299,"lng":34.779865,"addr":"","type":"mosque"},{"id":"xx388756_347270","name":"Islamic place","lat":38.875624,"lng":34.727049,"addr":"","type":"mosque"},{"id":"xx389928_347674","name":"Islamic place","lat":38.992823,"lng":34.767385,"addr":"","type":"mosque"},{"id":"xx389687_347018","name":"Islamic place","lat":38.968652,"lng":34.701764,"addr":"","type":"mosque"},{"id":"xx389254_346866","name":"Islamic place","lat":38.92536,"lng":34.686551,"addr":"","type":"mosque"},{"id":"xx389881_348675","name":"Mezarlık","lat":38.988099,"lng":34.867451,"addr":"","type":"mosque"},{"id":"xx389259_345282","name":"Islamic place","lat":38.92589,"lng":34.528204,"addr":"","type":"mosque"},{"id":"xx389350_344808","name":"Islamic place","lat":38.935042,"lng":34.480805,"addr":"","type":"mosque"},{"id":"xx391290_346552","name":"Islamic place","lat":39.129012,"lng":34.655243,"addr":"","type":"mosque"},{"id":"xx388889_344219","name":"Islamic place","lat":38.888877,"lng":34.421853,"addr":"","type":"mosque"},{"id":"xx390631_343740","name":"Islamic place","lat":39.063067,"lng":34.37402,"addr":"","type":"mosque"},{"id":"xx388247_345454","name":"Islamic place","lat":38.824737,"lng":34.545443,"addr":"","type":"mosque"},{"id":"xx389430_345624","name":"Hacıbektaş Veli Dergahı","lat":38.943,"lng":34.562442,"addr":"","type":"yes"},{"id":"xx389369_345794","name":"Mezarlık","lat":38.9369,"lng":34.579398,"addr":"","type":"mosque"},{"id":"xx389869_345523","name":"Islamic place","lat":38.986885,"lng":34.552275,"addr":"","type":"mosque"},{"id":"xx388985_345153","name":"Islamic place","lat":38.898458,"lng":34.515259,"addr":"","type":"mosque"},{"id":"xx390787_345790","name":"Islamic place","lat":39.078746,"lng":34.579048,"addr":"","type":"mosque"},{"id":"xx390715_346213","name":"Islamic place","lat":39.071497,"lng":34.62134,"addr":"","type":"mosque"},{"id":"xx388700_345855","name":"Islamic place","lat":38.86995,"lng":34.585521,"addr":"","type":"mosque"},{"id":"xx389435_345477","name":"Islamic place","lat":38.943523,"lng":34.547659,"addr":"","type":"mosque"},{"id":"xx388554_346426","name":"Islamic place","lat":38.855356,"lng":34.642596,"addr":"","type":"mosque"},{"id":"xx390777_345790","name":"Islamic place","lat":39.077658,"lng":34.578995,"addr":"","type":"mosque"},{"id":"xx389619_345044","name":"Islamic place","lat":38.96188,"lng":34.504402,"addr":"","type":"mosque"},{"id":"xx391205_346514","name":"Islamic place","lat":39.120534,"lng":34.651382,"addr":"","type":"mosque"},{"id":"xx389680_344530","name":"Islamic place","lat":38.96797,"lng":34.45301,"addr":"","type":"mosque"},{"id":"xx390401_345850","name":"Islamic place","lat":39.040138,"lng":34.584995,"addr":"","type":"mosque"},{"id":"xx390563_343865","name":"Islamic place","lat":39.056286,"lng":34.386528,"addr":"","type":"mosque"},{"id":"xx389429_345629","name":"Hacı Bektaş-ı Veli Türbesi","lat":38.942889,"lng":34.562884,"addr":"","type":"mosque"},{"id":"xx388060_348618","name":"Islamic place","lat":38.806048,"lng":34.861752,"addr":"","type":"mosque"},{"id":"xx389618_345692","name":"Islamic place","lat":38.961785,"lng":34.569207,"addr":"","type":"mosque"},{"id":"xx388564_344149","name":"Islamic place","lat":38.856408,"lng":34.414908,"addr":"","type":"mosque"},{"id":"xx388038_348631","name":"Islamic place","lat":38.803841,"lng":34.863068,"addr":"","type":"mosque"},{"id":"xx381703_343499","name":"Islamic place","lat":38.170349,"lng":34.349926,"addr":"","type":"mosque"},{"id":"xx382382_343064","name":"H. Sabri Öğretici Cami","lat":38.238169,"lng":34.306408,"addr":"","type":"mosque"},{"id":"xx382723_343758","name":"Islamic place","lat":38.27226,"lng":34.375825,"addr":"","type":"mosque"},{"id":"xx381803_343970","name":"Mahmutlu Camii","lat":38.180258,"lng":34.396979,"addr":"","type":"mosque"},{"id":"xx381742_344374","name":"Islamic place","lat":38.174222,"lng":34.437407,"addr":"","type":"mosque"},{"id":"xx382780_343710","name":"Islamic place","lat":38.278035,"lng":34.370972,"addr":"","type":"mosque"},{"id":"xx382712_343733","name":"Merkez Yukarı Mahalle Cami","lat":38.271229,"lng":34.373307,"addr":"","type":"mosque"},{"id":"xx382074_344415","name":"Islamic place","lat":38.207412,"lng":34.441516,"addr":"","type":"mosque"},{"id":"xx382861_343857","name":"Islamic place","lat":38.286068,"lng":34.385707,"addr":"","type":"mosque"},{"id":"xx381984_344203","name":"Islamic place","lat":38.198433,"lng":34.420295,"addr":"","type":"mosque"},{"id":"xx382335_343425","name":"Islamic place","lat":38.233464,"lng":34.342503,"addr":"","type":"mosque"},{"id":"xx381691_344451","name":"Islamic place","lat":38.169072,"lng":34.445076,"addr":"","type":"mosque"},{"id":"xx383935_343545","name":"Hantepe Cami","lat":38.393528,"lng":34.354484,"addr":"","type":"mosque"},{"id":"xx383921_343470","name":"Islamic place","lat":38.392071,"lng":34.346968,"addr":"","type":"mosque"},{"id":"xx383841_344276","name":"Islamic place","lat":38.384106,"lng":34.427648,"addr":"","type":"mosque"},{"id":"xx383830_343389","name":"Islamic place","lat":38.383022,"lng":34.338865,"addr":"","type":"mosque"},{"id":"xx385320_343291","name":"Islamic place","lat":38.532014,"lng":34.329057,"addr":"","type":"mosque"},{"id":"xx383744_342908","name":"Islamic place","lat":38.374396,"lng":34.290805,"addr":"","type":"mosque"},{"id":"xx384219_343668","name":"Islamic place","lat":38.421916,"lng":34.366825,"addr":"","type":"mosque"},{"id":"xx384195_343641","name":"Islamic place","lat":38.4195,"lng":34.364093,"addr":"","type":"mosque"},{"id":"xx385339_343310","name":"Islamic place","lat":38.533854,"lng":34.330987,"addr":"","type":"mosque"},{"id":"xx383410_343147","name":"Islamic place","lat":38.341,"lng":34.314673,"addr":"","type":"mosque"},{"id":"xx383737_342801","name":"Islamic place","lat":38.373661,"lng":34.280061,"addr":"","type":"mosque"},{"id":"xx385022_343914","name":"Islamic place","lat":38.502226,"lng":34.391355,"addr":"","type":"mosque"},{"id":"xx384471_342340","name":"Islamic place","lat":38.447059,"lng":34.234023,"addr":"","type":"mosque"},{"id":"xx384220_343603","name":"Islamic place","lat":38.422034,"lng":34.36034,"addr":"","type":"mosque"},{"id":"xx385349_343232","name":"Islamic place","lat":38.534939,"lng":34.323159,"addr":"","type":"mosque"},{"id":"xx385033_343259","name":"Islamic place","lat":38.503282,"lng":34.325856,"addr":"","type":"mosque"},{"id":"xx384064_342145","name":"Islamic place","lat":38.406421,"lng":34.214491,"addr":"","type":"place_of_worship"},{"id":"xx383775_342863","name":"Islamic place","lat":38.377543,"lng":34.286348,"addr":"","type":"mosque"},{"id":"xx384949_343624","name":"Islamic place","lat":38.494905,"lng":34.362434,"addr":"","type":"mosque"},{"id":"xx384490_342722","name":"Islamic place","lat":38.449003,"lng":34.272187,"addr":"","type":"mosque"},{"id":"xx384536_343154","name":"Islamic place","lat":38.453605,"lng":34.315402,"addr":"","type":"mosque"},{"id":"xx385034_343254","name":"Islamic place","lat":38.503421,"lng":34.325354,"addr":"","type":"mosque"},{"id":"xx384900_343016","name":"Islamic place","lat":38.489963,"lng":34.301605,"addr":"","type":"mosque"},{"id":"xx384218_343645","name":"Islamic place","lat":38.421789,"lng":34.364526,"addr":"","type":"mosque"},{"id":"xx383402_343171","name":"Islamic place","lat":38.340209,"lng":34.31711,"addr":"","type":"mosque"},{"id":"xx385351_343992","name":"Islamic place","lat":38.535086,"lng":34.399194,"addr":"","type":"mosque"},{"id":"xx383600_344284","name":"Islamic place","lat":38.35997,"lng":34.428365,"addr":"","type":"mosque"},{"id":"xx383576_344392","name":"Islamic place","lat":38.357627,"lng":34.439195,"addr":"","type":"mosque"},{"id":"xx383534_343882","name":"Islamic place","lat":38.353447,"lng":34.388188,"addr":"","type":"mosque"},{"id":"xx380560_343322","name":"Islamic place","lat":38.05599,"lng":34.332192,"addr":"","type":"mosque"},{"id":"xx380276_343423","name":"Islamic place","lat":38.027639,"lng":34.342301,"addr":"","type":"mosque"},{"id":"xx379971_343710","name":"Islamic place","lat":37.997107,"lng":34.371045,"addr":"","type":"mosque"},{"id":"xx380545_343096","name":"Islamic place","lat":38.054488,"lng":34.309585,"addr":"","type":"mosque"},{"id":"xx380492_342977","name":"Islamic place","lat":38.049239,"lng":34.297702,"addr":"","type":"mosque"},{"id":"xx382934_342631","name":"Islamic place","lat":38.293443,"lng":34.263054,"addr":"","type":"mosque"},{"id":"xx383634_342144","name":"Islamic place","lat":38.363354,"lng":34.21436,"addr":"","type":"mosque"},{"id":"xx383147_342533","name":"Islamic place","lat":38.314716,"lng":34.253332,"addr":"","type":"mosque"},{"id":"xx379981_344303","name":"Islamic place","lat":37.998089,"lng":34.430275,"addr":"","type":"mosque"},{"id":"xx383568_342313","name":"Islamic place","lat":38.35675,"lng":34.231259,"addr":"","type":"mosque"},{"id":"xx383663_342137","name":"Islamic place","lat":38.366314,"lng":34.213748,"addr":"","type":"mosque"},{"id":"xx382929_342625","name":"Islamic place","lat":38.292895,"lng":34.262472,"addr":"","type":"mosque"},{"id":"xx383707_342211","name":"Islamic place","lat":38.370668,"lng":34.22105,"addr":"","type":"mosque"},{"id":"xx379963_344313","name":"Islamic place","lat":37.996342,"lng":34.431314,"addr":"","type":"mosque"},{"id":"xx385809_341969","name":"Islamic place","lat":38.580907,"lng":34.196872,"addr":"","type":"mosque"},{"id":"xx386054_342618","name":"Islamic place","lat":38.605394,"lng":34.261823,"addr":"","type":"mosque"},{"id":"xx385027_342108","name":"Islamic place","lat":38.502726,"lng":34.210836,"addr":"","type":"mosque"},{"id":"xx384903_342403","name":"Islamic place","lat":38.490255,"lng":34.240251,"addr":"","type":"mosque"},{"id":"xx385559_342102","name":"Islamic place","lat":38.555926,"lng":34.210157,"addr":"","type":"mosque"},{"id":"xx380657_349655","name":"Islamic place","lat":38.065738,"lng":34.965517,"addr":"","type":"mosque"},{"id":"xx380656_349680","name":"Islamic place","lat":38.065559,"lng":34.967995,"addr":"","type":"mosque"},{"id":"xx368635_310581","name":"Belek Merkez Camii","lat":36.863518,"lng":31.058069,"addr":"","type":"mosque"},{"id":"xx368634_310584","name":"Belek Mezarlığı","lat":36.863413,"lng":31.058385,"addr":"","type":"grave_yard"},{"id":"xx385835_348981","name":"Cami Kebir","lat":38.583548,"lng":34.898074,"addr":"","type":"mosque"},{"id":"xx385512_348719","name":"Ayvalı Mahallesi Yeni Camii","lat":38.55121,"lng":34.871932,"addr":"Nevşehir","type":"mosque"},{"id":"xx385871_348988","name":"Islamic place","lat":38.587134,"lng":34.898816,"addr":"","type":"mosque"},{"id":"xx385817_348906","name":"Islamic place","lat":38.581737,"lng":34.890638,"addr":"","type":"mosque"},{"id":"xx362790_304100","name":"Karaöz Camii","lat":36.279005,"lng":30.410042,"addr":"","type":"mosque"},{"id":"xx363402_303294","name":"Beykonak Belediyesi Kızıldere Mezarlıgı","lat":36.340247,"lng":30.329448,"addr":"","type":"mosque"},{"id":"xx363375_303291","name":"Islamic place","lat":36.337535,"lng":30.32909,"addr":"","type":"mosque"},{"id":"xx363211_303372","name":"Islamic place","lat":36.321055,"lng":30.33721,"addr":"","type":"mosque"},{"id":"xx362983_303473","name":"Islamic place","lat":36.29831,"lng":30.347263,"addr":"","type":"mosque"},{"id":"xx364120_304752","name":"Çıralı Camii","lat":36.411953,"lng":30.475187,"addr":"","type":"mosque"},{"id":"xx370312_305512","name":"Islamic place","lat":37.031195,"lng":30.551172,"addr":"","type":"mosque"},{"id":"xx363433_301842","name":"Islamic place","lat":36.343259,"lng":30.184167,"addr":"","type":"mosque"},{"id":"xx392296_336829","name":"Islamic place","lat":39.229605,"lng":33.682891,"addr":"","type":"mosque"},{"id":"xx392272_336804","name":"Islamic place","lat":39.227179,"lng":33.680367,"addr":"","type":"mosque"},{"id":"xx393625_339978","name":"Islamic place","lat":39.362521,"lng":33.997786,"addr":"","type":"mosque"},{"id":"xx393501_337385","name":"Islamic place","lat":39.350108,"lng":33.738491,"addr":"","type":"mosque"},{"id":"xx393466_337441","name":"Islamic place","lat":39.346609,"lng":33.744095,"addr":"","type":"mosque"},{"id":"xx393595_337274","name":"Islamic place","lat":39.359503,"lng":33.72744,"addr":"","type":"mosque"},{"id":"xx393598_340973","name":"Islamic place","lat":39.359814,"lng":34.097322,"addr":"","type":"mosque"},{"id":"xx391415_337154","name":"Islamic place","lat":39.141548,"lng":33.715357,"addr":"","type":"mosque"},{"id":"xx393628_340815","name":"Islamic place","lat":39.362836,"lng":34.081544,"addr":"","type":"mosque"},{"id":"xx391711_338104","name":"Islamic place","lat":39.171067,"lng":33.810408,"addr":"","type":"mosque"},{"id":"xx391728_338213","name":"Islamic place","lat":39.172801,"lng":33.821334,"addr":"","type":"mosque"},{"id":"xx390345_340487","name":"Islamic place","lat":39.034466,"lng":34.048689,"addr":"","type":"mosque"},{"id":"xx394379_340608","name":"Islamic place","lat":39.437947,"lng":34.060842,"addr":"","type":"mosque"},{"id":"xx391275_337994","name":"Islamic place","lat":39.12747,"lng":33.79939,"addr":"","type":"mosque"},{"id":"xx393116_335614","name":"Islamic place","lat":39.311629,"lng":33.561399,"addr":"","type":"mosque"},{"id":"xx389801_342617","name":"Islamic place","lat":38.980071,"lng":34.261656,"addr":"","type":"mosque"},{"id":"xx393450_336261","name":"Islamic place","lat":39.345038,"lng":33.626079,"addr":"","type":"mosque"},{"id":"xx398089_331100","name":"Islamic place","lat":39.808893,"lng":33.110047,"addr":"","type":"mosque"},{"id":"xx392119_337117","name":"Islamic place","lat":39.211907,"lng":33.711659,"addr":"","type":"mosque"},{"id":"xx394289_335977","name":"Islamic place","lat":39.428855,"lng":33.597749,"addr":"","type":"mosque"},{"id":"xx393931_335939","name":"Islamic place","lat":39.393131,"lng":33.593921,"addr":"","type":"mosque"},{"id":"xx390742_340090","name":"Islamic place","lat":39.074242,"lng":34.008982,"addr":"","type":"mosque"},{"id":"xx394616_335234","name":"Islamic place","lat":39.461621,"lng":33.523386,"addr":"","type":"mosque"},{"id":"xx396773_337117","name":"Islamic place","lat":39.677336,"lng":33.711686,"addr":"","type":"mosque"},{"id":"xx391821_345226","name":"Islamic place","lat":39.18205,"lng":34.522594,"addr":"","type":"mosque"},{"id":"xx391944_343344","name":"Islamic place","lat":39.194448,"lng":34.334366,"addr":"","type":"mosque"},{"id":"xx391727_343044","name":"Islamic place","lat":39.172728,"lng":34.304369,"addr":"","type":"mosque"},{"id":"xx391737_343041","name":"Islamic place","lat":39.173695,"lng":34.304091,"addr":"","type":"mosque"},{"id":"xx391015_343021","name":"Islamic place","lat":39.101519,"lng":34.302098,"addr":"","type":"mosque"},{"id":"xx391748_343015","name":"Islamic place","lat":39.174806,"lng":34.301463,"addr":"","type":"mosque"},{"id":"xx384391_321678","name":"Islamic place","lat":38.439072,"lng":32.167778,"addr":"","type":"mosque"},{"id":"xx385190_322679","name":"Islamic place","lat":38.518982,"lng":32.267912,"addr":"","type":"mosque"},{"id":"xx383196_322653","name":"Islamic place","lat":38.319601,"lng":32.265294,"addr":"","type":"mosque"},{"id":"xx382957_320320","name":"Islamic place","lat":38.295658,"lng":32.032019,"addr":"","type":"mosque"},{"id":"xx384392_321618","name":"Islamic place","lat":38.439211,"lng":32.161803,"addr":"","type":"mosque"},{"id":"xx383570_322746","name":"Islamic place","lat":38.356992,"lng":32.274592,"addr":"","type":"mosque"},{"id":"xx384390_321638","name":"Islamic place","lat":38.439016,"lng":32.163793,"addr":"","type":"mosque"},{"id":"xx383214_322659","name":"Islamic place","lat":38.321358,"lng":32.265889,"addr":"","type":"mosque"},{"id":"xx383560_322754","name":"Islamic place","lat":38.356007,"lng":32.275426,"addr":"","type":"mosque"},{"id":"xx385185_322684","name":"Islamic place","lat":38.518505,"lng":32.26842,"addr":"","type":"mosque"},{"id":"xx395912_333799","name":"Islamic place","lat":39.591235,"lng":33.379886,"addr":"","type":"mosque"},{"id":"xx395911_333850","name":"Islamic place","lat":39.591094,"lng":33.385047,"addr":"","type":"mosque"},{"id":"xx397897_335040","name":"Islamic place","lat":39.789686,"lng":33.504019,"addr":"","type":"mosque"},{"id":"xx393921_334048","name":"Islamic place","lat":39.392144,"lng":33.404836,"addr":"","type":"mosque"},{"id":"xx389640_341932","name":"Islamic place","lat":38.964021,"lng":34.193161,"addr":"","type":"mosque"},{"id":"xx397450_327478","name":"Camii","lat":39.744996,"lng":32.747817,"addr":"","type":"mosque"},{"id":"xx398058_328054","name":"Gölbaşı Mezarlığı","lat":39.805825,"lng":32.805389,"addr":"","type":"mosque"},{"id":"xx394353_331840","name":"Islamic place","lat":39.435279,"lng":33.183963,"addr":"","type":"mosque"},{"id":"xx395488_330231","name":"Islamic place","lat":39.548818,"lng":33.023116,"addr":"","type":"mosque"},{"id":"xx396022_344177","name":"Merkez Fatih Cami","lat":39.602244,"lng":34.417678,"addr":"","type":"mosque"},{"id":"xx396392_344700","name":"Molla Hüsrev Camii","lat":39.639185,"lng":34.470043,"addr":"Yozgat","type":"mosque"},{"id":"xx392927_342090","name":"Islamic place","lat":39.292705,"lng":34.208977,"addr":"","type":"mosque"},{"id":"xx396341_344984","name":"Yerköy Şehitlik","lat":39.63406,"lng":34.498378,"addr":"","type":"mosque"},{"id":"xx396389_344669","name":"Bedri Aydın Camii","lat":39.638908,"lng":34.466885,"addr":"Yozgat","type":"mosque"},{"id":"xx396430_344691","name":"Ofis Camii","lat":39.643009,"lng":34.469066,"addr":"Yozgat","type":"mosque"},{"id":"xx396320_344637","name":"Islamic place","lat":39.631968,"lng":34.46372,"addr":"","type":"mosque"},{"id":"xx396451_344585","name":"Islamic place","lat":39.645108,"lng":34.458467,"addr":"","type":"mosque"},{"id":"xx396234_344828","name":"Islamic place","lat":39.623355,"lng":34.482753,"addr":"","type":"mosque"},{"id":"xx396970_346679","name":"Islamic place","lat":39.697,"lng":34.667933,"addr":"","type":"mosque"},{"id":"xx396882_346539","name":"Islamic place","lat":39.68818,"lng":34.653872,"addr":"","type":"mosque"},{"id":"xx367228_303686","name":"Islamic place","lat":36.722793,"lng":30.368581,"addr":"","type":"mosque"},{"id":"xx366149_304463","name":"Islamic place","lat":36.614874,"lng":30.446254,"addr":"","type":"mosque"},{"id":"xx395606_340914","name":"Islamic place","lat":39.560607,"lng":34.091362,"addr":"","type":"mosque"},{"id":"xx396259_343825","name":"Islamic place","lat":39.62586,"lng":34.382501,"addr":"","type":"mosque"},{"id":"xx395617_340859","name":"Islamic place","lat":39.561669,"lng":34.085897,"addr":"","type":"mosque"},{"id":"xx399361_347935","name":"Islamic place","lat":39.93614,"lng":34.793536,"addr":"","type":"mosque"},{"id":"xx369924_308096","name":"Camii","lat":36.99239,"lng":30.809582,"addr":"","type":"mosque"},{"id":"xx376557_305304","name":"Medressa","lat":37.655674,"lng":30.530408,"addr":"","type":"mosque"},{"id":"xx376518_305335","name":"Islamic place","lat":37.651807,"lng":30.53346,"addr":"","type":"mosque"},{"id":"xx376490_305337","name":"Kemalettin Camii","lat":37.648995,"lng":30.533749,"addr":"","type":"mosque"},{"id":"xx376497_305373","name":"Islamic place","lat":37.649702,"lng":30.537264,"addr":"","type":"mosque"},{"id":"xx376443_305260","name":"Mosque","lat":37.64428,"lng":30.525981,"addr":"","type":"mosque"},{"id":"xx376525_305374","name":"Mosque","lat":37.652486,"lng":30.537445,"addr":"","type":"mosque"},{"id":"xx376527_305272","name":"Islamic place","lat":37.652736,"lng":30.527238,"addr":"","type":"mosque"},{"id":"xx376549_305302","name":"Islamic place","lat":37.654932,"lng":30.530236,"addr":"","type":"mosque"},{"id":"xx376542_305358","name":"Mosque","lat":37.654197,"lng":30.535824,"addr":"","type":"mosque"},{"id":"xx376488_305302","name":"Cami","lat":37.648752,"lng":30.530159,"addr":"","type":"mosque"},{"id":"xx379609_346657","name":"Islamic place","lat":37.960918,"lng":34.665696,"addr":"","type":"mosque"},{"id":"xx373657_321347","name":"Islamic place","lat":37.365663,"lng":32.134735,"addr":"","type":"mosque"},{"id":"xx381777_309743","name":"Islamic place","lat":38.177684,"lng":30.974331,"addr":"","type":"mosque"},{"id":"xx378745_308509","name":"Hızır Bey Camii","lat":37.874472,"lng":30.850885,"addr":"","type":"mosque"},{"id":"xx380367_309709","name":"Islamic place","lat":38.036704,"lng":30.970857,"addr":"","type":"mosque"},{"id":"xx390601_301079","name":"Islamic place","lat":39.060119,"lng":30.107893,"addr":"","type":"mosque"},{"id":"xx390339_301817","name":"Islamic place","lat":39.033926,"lng":30.181742,"addr":"","type":"mosque"},{"id":"xx384420_307924","name":"Mezarlık","lat":38.441962,"lng":30.792416,"addr":"","type":"mosque"},{"id":"xx385882_309634","name":"Islamic place","lat":38.588165,"lng":30.963362,"addr":"","type":"mosque"},{"id":"xx390351_301819","name":"Islamic place","lat":39.035088,"lng":30.181939,"addr":"","type":"mosque"},{"id":"xx390587_300267","name":"Islamic place","lat":39.058745,"lng":30.026683,"addr":"","type":"mosque"},{"id":"xx388565_302042","name":"Islamic place","lat":38.85653,"lng":30.204206,"addr":"","type":"mosque"},{"id":"xx391270_303907","name":"Islamic place","lat":39.126978,"lng":30.39068,"addr":"","type":"mosque"},{"id":"xx389853_302421","name":"Islamic place","lat":38.985287,"lng":30.242058,"addr":"","type":"mosque"},{"id":"xx390320_304230","name":"Islamic place","lat":39.032007,"lng":30.423038,"addr":"","type":"mosque"},{"id":"xx390456_304694","name":"Islamic place","lat":39.045594,"lng":30.469393,"addr":"","type":"mosque"},{"id":"xx389915_304504","name":"Islamic place","lat":38.991472,"lng":30.450402,"addr":"","type":"mosque"},{"id":"xx390314_304221","name":"Islamic place","lat":39.03141,"lng":30.422137,"addr":"","type":"mosque"},{"id":"xx394006_301026","name":"Islamic place","lat":39.400589,"lng":30.10263,"addr":"","type":"mosque"},{"id":"xx394019_301025","name":"Islamic place","lat":39.401916,"lng":30.102541,"addr":"","type":"mosque"},{"id":"xx383983_315430","name":"Mezarlık Tepe","lat":38.398265,"lng":31.54304,"addr":"","type":"mosque"},{"id":"xx382908_317199","name":"Mezarlık","lat":38.290829,"lng":31.719934,"addr":"","type":"mosque"},{"id":"xx383450_315132","name":"Islamic place","lat":38.344994,"lng":31.51323,"addr":"","type":"mosque"},{"id":"xx382684_315650","name":"Islamic place","lat":38.26844,"lng":31.564995,"addr":"","type":"mosque"},{"id":"xx382923_317193","name":"Islamic place","lat":38.292258,"lng":31.719297,"addr":"","type":"mosque"},{"id":"xx381712_316430","name":"Islamic place","lat":38.171152,"lng":31.642976,"addr":"","type":"mosque"},{"id":"xx371375_314688","name":"Islamic place","lat":37.13751,"lng":31.468844,"addr":"","type":"mosque"},{"id":"xx370385_313556","name":"Camii","lat":37.038463,"lng":31.355624,"addr":"","type":"mosque"},{"id":"xx371216_302938","name":"Islamic place","lat":37.12157,"lng":30.293812,"addr":"","type":"mosque"},{"id":"xx371199_303002","name":"Islamic place","lat":37.119894,"lng":30.300242,"addr":"","type":"mosque"},{"id":"xx370560_303431","name":"Islamic place","lat":37.056041,"lng":30.343096,"addr":"","type":"mosque"},{"id":"xx365749_304229","name":"Islamic place","lat":36.574914,"lng":30.422899,"addr":"","type":"mosque"},{"id":"xx371690_332283","name":"İmam-ı Azam Camii","lat":37.16897,"lng":33.228262,"addr":"","type":"mosque"},{"id":"xx371781_332029","name":"Mezarlık","lat":37.178125,"lng":33.202866,"addr":"","type":"mosque"},{"id":"xx371836_332291","name":"Karaman Şehir Mezarlığı","lat":37.183571,"lng":33.229144,"addr":"","type":"mosque"},{"id":"xx374394_331650","name":"Madenşehri Mahallesi Camii","lat":37.439441,"lng":33.164968,"addr":"Karaman","type":"mosque"},{"id":"xx371400_336112","name":"Islamic place","lat":37.140007,"lng":33.611169,"addr":"","type":"mosque"},{"id":"xx371391_336108","name":"Islamic place","lat":37.139127,"lng":33.610776,"addr":"","type":"mosque"},{"id":"xx372423_330430","name":"Mesarlik","lat":37.242297,"lng":33.043027,"addr":"","type":"mosque"},{"id":"xx371736_337414","name":"Islamic place","lat":37.173646,"lng":33.741428,"addr":"","type":"mosque"},{"id":"xx390929_336611","name":"Islamic place","lat":39.092866,"lng":33.661107,"addr":"","type":"mosque"},{"id":"xx390948_336329","name":"Islamic place","lat":39.094791,"lng":33.632934,"addr":"","type":"mosque"},{"id":"xx390671_336923","name":"Islamic place","lat":39.067052,"lng":33.692319,"addr":"","type":"mosque"},{"id":"xx391649_334539","name":"Islamic place","lat":39.164933,"lng":33.453867,"addr":"","type":"mosque"},{"id":"xx392073_333312","name":"Islamic place","lat":39.20731,"lng":33.331155,"addr":"","type":"mosque"},{"id":"xx366020_305566","name":"Huzur Cami","lat":36.601993,"lng":30.556576,"addr":"","type":"mosque"},{"id":"xx365986_305625","name":"Kemer Merkez Camii","lat":36.598635,"lng":30.562457,"addr":"","type":"mosque"},{"id":"xx387009_307977","name":"Mezarlık","lat":38.700917,"lng":30.79766,"addr":"","type":"mosque"},{"id":"xx387406_309248","name":"Islamic place","lat":38.740609,"lng":30.924819,"addr":"","type":"mosque"},{"id":"xx385924_310220","name":"Islamic place","lat":38.592357,"lng":31.022019,"addr":"","type":"mosque"},{"id":"xx385930_310226","name":"Sultan Alaaddin Camii","lat":38.593019,"lng":31.02256,"addr":"","type":"mosque"},{"id":"xx369303_348953","name":"Islamic place","lat":36.930322,"lng":34.895296,"addr":"","type":"mosque"},{"id":"xx389917_311090","name":"Islamic place","lat":38.991726,"lng":31.109012,"addr":"","type":"mosque"},{"id":"xx387148_310635","name":"Islamic place","lat":38.714805,"lng":31.063497,"addr":"","type":"mosque"},{"id":"xx366365_317841","name":"Islamic place","lat":36.636493,"lng":31.784103,"addr":"","type":"mosque"},{"id":"xx389336_335552","name":"Islamic place","lat":38.93363,"lng":33.555176,"addr":"","type":"mosque"},{"id":"xx388641_334847","name":"Islamic place","lat":38.864103,"lng":33.484699,"addr":"","type":"mosque"},{"id":"xx388632_334852","name":"Islamic place","lat":38.863248,"lng":33.485211,"addr":"","type":"mosque"},{"id":"xx388553_336989","name":"Islamic place","lat":38.855261,"lng":33.698877,"addr":"","type":"mosque"},{"id":"xx399315_332550","name":"Islamic place","lat":39.931486,"lng":33.254996,"addr":"","type":"mosque"},{"id":"xx394497_321246","name":"Islamic place","lat":39.449714,"lng":32.124593,"addr":"","type":"mosque"},{"id":"xx395312_308385","name":"Islamic place","lat":39.531158,"lng":30.838536,"addr":"","type":"mosque"},{"id":"xx394504_330706","name":"Islamic place","lat":39.450399,"lng":33.070581,"addr":"","type":"mosque"},{"id":"xx394527_330649","name":"Islamic place","lat":39.452673,"lng":33.064901,"addr":"","type":"mosque"},{"id":"xx364722_321276","name":"Fatih Sultan Mehmet Camii","lat":36.472169,"lng":32.127573,"addr":"Antalya","type":"mosque"},{"id":"xx392232_346631","name":"Islamic place","lat":39.223242,"lng":34.66307,"addr":"","type":"mosque"},{"id":"xx393356_348132","name":"Islamic place","lat":39.335617,"lng":34.813178,"addr":"","type":"mosque"},{"id":"xx392880_348461","name":"Islamic place","lat":39.288019,"lng":34.846114,"addr":"","type":"mosque"},{"id":"xx399984_328413","name":"Kuşcağız Fatih Camii","lat":39.998401,"lng":32.841343,"addr":"Aşık Veysel Caddesi","type":"mosque"},{"id":"xx399966_328385","name":"Dilek Cami","lat":39.996645,"lng":32.838476,"addr":"Ankara","type":"mosque"},{"id":"xx399983_328338","name":"Tuğba Cami","lat":39.998314,"lng":32.833822,"addr":"Keçiören/Ankara","type":"mosque"},{"id":"xx378214_305138","name":"Cami","lat":37.821382,"lng":30.513822,"addr":"","type":"mosque"},{"id":"xx374511_305885","name":"Hacısarılar Mezarlık","lat":37.451089,"lng":30.588522,"addr":"","type":"mosque"},{"id":"xx368282_345998","name":"Hazreti Hamza Camii","lat":36.828218,"lng":34.599783,"addr":"Mersin","type":"mosque"},{"id":"xx397644_318361","name":"Islamic place","lat":39.764427,"lng":31.836092,"addr":"","type":"mosque"},{"id":"xx377552_303335","name":"Islamic place","lat":37.75517,"lng":30.333513,"addr":"","type":"mosque"},{"id":"xx380752_301769","name":"Islamic place","lat":38.075171,"lng":30.176945,"addr":"","type":"mosque"},{"id":"xx383733_340293","name":"Ulu Cami","lat":38.373331,"lng":34.029281,"addr":"","type":"mosque"},{"id":"xx375656_327644","name":"Islamic place","lat":37.565574,"lng":32.764393,"addr":"","type":"mosque"},{"id":"xx399873_326427","name":"Mehmed Zahid Kotku Camii","lat":39.987251,"lng":32.642721,"addr":"","type":"mosque"},{"id":"xx383701_340270","name":"Kurşunlu Cami","lat":38.370139,"lng":34.026966,"addr":"","type":"mosque"},{"id":"xx399914_326128","name":"Emir Sultan Camii","lat":39.99145,"lng":32.612767,"addr":"","type":"mosque"},{"id":"xx383756_340311","name":"Islamic place","lat":38.375617,"lng":34.031097,"addr":"","type":"mosque"},{"id":"xx367726_304696","name":"Islamic place","lat":36.772603,"lng":30.469585,"addr":"Antalya","type":"mosque"},{"id":"xx366566_304575","name":"Islamic place","lat":36.656638,"lng":30.457546,"addr":"","type":"mosque"},{"id":"xx383641_340107","name":"Islamic place","lat":38.364117,"lng":34.010658,"addr":"","type":"mosque"},{"id":"xx398673_327507","name":"Mescit","lat":39.867297,"lng":32.750715,"addr":"","type":"mosque"},{"id":"xx391481_341595","name":"Ahi Evran Cami","lat":39.148064,"lng":34.159504,"addr":"Kırşehir","type":"mosque"},{"id":"xx391451_341616","name":"Cacabey Medresesi","lat":39.145142,"lng":34.161559,"addr":"Kırşehir","type":"mosque"},{"id":"xx391458_341588","name":"Alaaddin Keykubat Camii","lat":39.145798,"lng":34.158752,"addr":"","type":"mosque"},{"id":"xx391382_341742","name":"Kümbetaltı Mezarlığı","lat":39.138242,"lng":34.174203,"addr":"","type":"mosque"},{"id":"xx391522_341702","name":"Aşıkpaşa Mezarlığı","lat":39.152247,"lng":34.170193,"addr":"","type":"mosque"},{"id":"xx370638_335521","name":"Islamic place","lat":37.06378,"lng":33.552058,"addr":"","type":"mosque"},{"id":"xx384728_316370","name":"Islamic place","lat":38.472758,"lng":31.637041,"addr":"","type":"mosque"},{"id":"xx384399_316630","name":"Islamic place","lat":38.439878,"lng":31.663049,"addr":"","type":"mosque"},{"id":"xx383364_319045","name":"Islamic place","lat":38.336394,"lng":31.90452,"addr":"","type":"mosque"},{"id":"xx383950_318461","name":"Islamic place","lat":38.395,"lng":31.846114,"addr":"","type":"mosque"},{"id":"xx399628_331865","name":"Mehmet Akif Ersoy Camii","lat":39.962817,"lng":33.186522,"addr":"","type":"mosque"},{"id":"xx387208_348422","name":"Islamic place","lat":38.720803,"lng":34.842249,"addr":"","type":"mosque"},{"id":"xx387190_348402","name":"Alaaddin Camii","lat":38.718954,"lng":34.840186,"addr":"Nevşehir","type":"mosque"},{"id":"xx400000_327884","name":"Karşıyaka Mezarlığı","lat":39.999959,"lng":32.788368,"addr":"","type":"mosque"},{"id":"xx398913_328031","name":"Karakuskunlar Köy Mezarlığı","lat":39.89128,"lng":32.803143,"addr":"Çankaya/Ankara","type":"mosque"},{"id":"xx365902_305215","name":"Aslanbucak Mezarlığı","lat":36.59023,"lng":30.521484,"addr":"","type":"mosque"},{"id":"xx365416_319981","name":"Kuyularönü Cami","lat":36.541646,"lng":31.998099,"addr":"Alanya/Antalya","type":"mosque"},{"id":"xx365526_319836","name":"Islamic place","lat":36.552647,"lng":31.9836,"addr":"","type":"mosque"},{"id":"xx365392_319978","name":"Islamic place","lat":36.539238,"lng":31.997843,"addr":"","type":"mosque"},{"id":"xx365351_319972","name":"Andızlı Camii","lat":36.535086,"lng":31.997244,"addr":"","type":"mosque"},{"id":"xx365534_319939","name":"Belen Cami","lat":36.553423,"lng":31.993922,"addr":"Alanya","type":"mosque"},{"id":"xx365546_320000","name":"El Aksa Camii","lat":36.554589,"lng":32.000042,"addr":"Antalya","type":"mosque"},{"id":"xx365479_320010","name":"Nezahat Tokuş Cami","lat":36.547931,"lng":32.001048,"addr":"Alanya/Antalya","type":"mosque"},{"id":"xx365441_320095","name":"Islamic place","lat":36.544115,"lng":32.009541,"addr":"","type":"mosque"},{"id":"xx365439_320137","name":"Islamic place","lat":36.54387,"lng":32.013733,"addr":"","type":"mosque"},{"id":"xx369103_306930","name":"Yükseliş Camiİ","lat":36.910299,"lng":30.693042,"addr":"Antalya","type":"mosque"},{"id":"xx374915_307004","name":"Islamic place","lat":37.491533,"lng":30.700423,"addr":"","type":"mosque"},{"id":"xx362489_300062","name":"Islamic place","lat":36.248857,"lng":30.006169,"addr":"","type":"mosque"},{"id":"xx367778_314538","name":"Manavgat Külliye Cami","lat":36.777759,"lng":31.45377,"addr":"Manavgat","type":"mosque"},{"id":"xx396723_336089","name":"Islamic place","lat":39.672253,"lng":33.608895,"addr":"","type":"mosque"},{"id":"xx382132_307406","name":"Islamic place","lat":38.213175,"lng":30.740597,"addr":"","type":"mosque"},{"id":"xx385587_349864","name":"Islamic place","lat":38.558698,"lng":34.986437,"addr":"","type":"mosque"},{"id":"xx386108_349791","name":"Islamic place","lat":38.610773,"lng":34.979079,"addr":"","type":"mosque"},{"id":"xx384621_347511","name":"Yeni Cami","lat":38.462136,"lng":34.751121,"addr":"","type":"mosque"},{"id":"xx384516_346815","name":"Islamic place","lat":38.451633,"lng":34.681457,"addr":"","type":"mosque"},