[{"id":"xx368484_400655","name":"Islamic place","lat":36.848442,"lng":40.065537,"addr":"","type":"place_of_worship"},{"id":"xx378902_411242","name":"Sağlık Camii","lat":37.890176,"lng":41.124176,"addr":"1906. Sokak","type":"mosque"},{"id":"xx379123_411404","name":"Esen Cami","lat":37.912265,"lng":41.14042,"addr":"Fırat Caddesi","type":"mosque"},{"id":"xx378986_411299","name":"Güneş Camii","lat":37.898617,"lng":41.129906,"addr":"2602. Sokak","type":"mosque"},{"id":"xx378962_411297","name":"World Mar Mescidi","lat":37.896184,"lng":41.129729,"addr":"Turgut Özal Bulvarı","type":"mosque"},{"id":"xx379035_411309","name":"Batman Park Mescidi","lat":37.903529,"lng":41.130903,"addr":"2606. Sokak","type":"mosque"},{"id":"xx379166_402022","name":"Seydababa Camii","lat":37.916599,"lng":40.202242,"addr":"Hava Limanı Cd.","type":"place_of_worship"},{"id":"xx378979_411209","name":"H. Hasan Camii","lat":37.897917,"lng":41.120868,"addr":"Kıbrıs Şehitleri Bulvarı","type":"mosque"},{"id":"xx378969_411297","name":"Mehmet Teymur Cami (İş Merk.İçi)","lat":37.896867,"lng":41.129651,"addr":"Mahatma Gandi Bulvarı","type":"mosque"},{"id":"xx378883_411280","name":"Tillo Mescidi","lat":37.888329,"lng":41.12801,"addr":"1704. Sokak","type":"place_of_worship"},{"id":"xx379081_411373","name":"H. Vahdullah Kubba Cami","lat":37.908066,"lng":41.137281,"addr":"3229. Sokak","type":"mosque"},{"id":"xx379053_411328","name":"Belde Cami","lat":37.905251,"lng":41.132827,"addr":"TPAO Bulvarı","type":"mosque"},{"id":"xx379045_411271","name":"Hacı Şemsettin Yıldız Mescidi","lat":37.904544,"lng":41.1271,"addr":"2629. Sokak","type":"place_of_worship"},{"id":"xx370634_412325","name":"Islamic place","lat":37.063443,"lng":41.232534,"addr":"","type":"place_of_worship"},{"id":"xx377157_414055","name":"Zeynel Bey Türbesi Eski Yeri","lat":37.715663,"lng":41.405499,"addr":"Hasankey/Batman","type":"mosque"},{"id":"xx379110_411319","name":"Gülkent Sitesi Cami","lat":37.910986,"lng":41.131923,"addr":"Batman","type":"mosque"},{"id":"xx379086_411436","name":"Özalp Sitesi Mescidi","lat":37.908642,"lng":41.143628,"addr":"3229. Sokak","type":"mosque"},{"id":"xx378979_411313","name":"Seyyidler Camii","lat":37.897851,"lng":41.131331,"addr":"2502. Sokak","type":"mosque"},{"id":"xx379141_411369","name":"Kanaat Camii","lat":37.914109,"lng":41.136933,"addr":"5306. Sokak","type":"mosque"},{"id":"xx399142_413091","name":"Nene Hatun Mezarı","lat":39.914157,"lng":41.309149,"addr":"","type":"mosque"},{"id":"xx379326_411413","name":"Cami","lat":37.932561,"lng":41.141294,"addr":"","type":"place_of_worship"},{"id":"xx378911_411091","name":"Yahya Cami","lat":37.891146,"lng":41.109107,"addr":"Komando Caddesi","type":"mosque"},{"id":"xx378814_411284","name":"Belediye Mescidi","lat":37.881364,"lng":41.128441,"addr":"Batman","type":"place_of_worship"},{"id":"xx369555_443228","name":"مزگەفتی خێرەزوک","lat":36.955491,"lng":44.322787,"addr":"Karuzuk Road","type":"place_of_worship"},{"id":"xx379104_411481","name":"Ebuzer Camii","lat":37.910385,"lng":41.148112,"addr":"4048. Sokak","type":"mosque"},{"id":"xx378998_411099","name":"İbrahim Camii","lat":37.899771,"lng":41.109948,"addr":"3745. Sokak","type":"place_of_worship"},{"id":"xx379031_411180","name":"H. Faik Aslan Mescidi","lat":37.903104,"lng":41.118048,"addr":"Ahmet Kaya Bulvarı","type":"place_of_worship"},{"id":"xx371034_409363","name":"Saladin Mosque","lat":37.10341,"lng":40.936263,"addr":"","type":"place_of_worship"},{"id":"xx384536_407031","name":"Islamic place","lat":38.453568,"lng":40.703144,"addr":"","type":"grave_yard"},{"id":"xx378970_411366","name":"Hacı Sabriye Eke Camii","lat":37.897041,"lng":41.136555,"addr":"İnsan Hakları Bulvarı","type":"mosque"},{"id":"xx387373_415023","name":"Gökkuşağı Anaokulu","lat":38.737288,"lng":41.502333,"addr":"Muş","type":"school"},{"id":"xx384571_424006","name":"Mosque","lat":38.457089,"lng":42.400566,"addr":"","type":"place_of_worship"},{"id":"xx390432_433661","name":"Abdurrahman Uçak Camii","lat":39.043151,"lng":43.366122,"addr":"","type":"place_of_worship"},{"id":"xx390146_433867","name":"Islamic place","lat":39.014625,"lng":43.386733,"addr":"","type":"place_of_worship"},{"id":"xx391920_432824","name":"Türkistan Ulupamir Köyü Camii","lat":39.192029,"lng":43.28241,"addr":"","type":"place_of_worship"},{"id":"xx380846_428931","name":"Altındere Mahalle Abdulkadir Elbir Camii","lat":38.084592,"lng":42.893057,"addr":"Van","type":"place_of_worship"},{"id":"xx380694_428256","name":"Cevizlibelen Mahalle Akıncılar Camii","lat":38.069354,"lng":42.825624,"addr":"Van","type":"place_of_worship"},{"id":"xx381058_427212","name":"Doğanyayla Mahalle Arvas Camii","lat":38.105783,"lng":42.721215,"addr":"Van","type":"place_of_worship"},{"id":"xx380944_427504","name":"Elmayaka Mahalle Cumacamii","lat":38.09441,"lng":42.750352,"addr":"Van","type":"place_of_worship"},{"id":"xx381184_428077","name":"Bahçesaray Selam Camii","lat":38.11844,"lng":42.807713,"addr":"Van","type":"place_of_worship"},{"id":"xx380533_428618","name":"Kaşıkçılar Mahalle Aras Camii","lat":38.053295,"lng":42.86176,"addr":"Van","type":"place_of_worship"},{"id":"xx380570_427812","name":"Bağcılar Mahalle Evciler Camii","lat":38.056979,"lng":42.781182,"addr":"Van","type":"place_of_worship"},{"id":"xx380705_429112","name":"Altındere Mahalle Dikmetaş Camii","lat":38.070467,"lng":42.911224,"addr":"Van","type":"place_of_worship"},{"id":"xx380486_427200","name":"Altıntaş Mahalle Camii","lat":38.048632,"lng":42.719994,"addr":"Van","type":"place_of_worship"},{"id":"xx380635_427766","name":"Paşaköy Mahalle Camii","lat":38.063466,"lng":42.776633,"addr":"Van","type":"place_of_worship"},{"id":"xx380988_428568","name":"Ünlüce Mahalle Taşköprü Camii","lat":38.098767,"lng":42.856846,"addr":"Van","type":"place_of_worship"},{"id":"xx380966_427929","name":"Elmayaka Mahalle Veligöl Camii","lat":38.096603,"lng":42.79295,"addr":"Van","type":"place_of_worship"},{"id":"xx380650_427959","name":"Bağcılar Mahalle Akdere Camii","lat":38.06497,"lng":42.795907,"addr":"Van","type":"place_of_worship"},{"id":"xx380869_427988","name":"Bağcılar Mahalle Gaziler Camii","lat":38.086919,"lng":42.798829,"addr":"Van","type":"place_of_worship"},{"id":"xx380491_427842","name":"Bağcılar Mahalle Camii","lat":38.049088,"lng":42.784234,"addr":"Van","type":"place_of_worship"},{"id":"xx380691_428251","name":"Cevizbilen Mahalle Rüzgarlı Camii","lat":38.069112,"lng":42.825136,"addr":"Van","type":"place_of_worship"},{"id":"xx380695_428257","name":"Cevizlibelen Mahalle Keretas Camii","lat":38.06948,"lng":42.825711,"addr":"Van","type":"place_of_worship"},{"id":"xx380716_428213","name":"Cevizlibelen Mahalle Camii","lat":38.071616,"lng":42.821317,"addr":"Van","type":"place_of_worship"},{"id":"xx381437_427289","name":"Çatbayır Mahalle Keskin Camii","lat":38.143738,"lng":42.728939,"addr":"Van","type":"place_of_worship"},{"id":"xx381497_427309","name":"Çatbayır Mahalle Papatya Camii","lat":38.149691,"lng":42.730894,"addr":"Van","type":"place_of_worship"},{"id":"xx380492_428540","name":"Kaşıkçılar Mahalle Lolis Camii","lat":38.049172,"lng":42.854024,"addr":"Van","type":"place_of_worship"},{"id":"xx380303_427576","name":"Akyayla Mahalle Konuk Camii","lat":38.030297,"lng":42.757577,"addr":"Van","type":"place_of_worship"},{"id":"xx380204_427441","name":"Akyayla Mahalle Camii","lat":38.020361,"lng":42.744085,"addr":"Van","type":"place_of_worship"},{"id":"xx380819_428856","name":"Altındere Mahalle Kırıkhan Camii","lat":38.081886,"lng":42.885604,"addr":"Van","type":"place_of_worship"},{"id":"xx381472_427268","name":"Çatbayır Mahalle Camii","lat":38.14718,"lng":42.726843,"addr":"Van","type":"place_of_worship"},{"id":"xx380721_427636","name":"Çömlekçi Mahalle Mengen Camii","lat":38.072122,"lng":42.763553,"addr":"Van","type":"place_of_worship"},{"id":"xx381023_427202","name":"Doğanyayla Mahalle Puğunik Camii","lat":38.1023,"lng":42.7202,"addr":"Van","type":"place_of_worship"},{"id":"xx380720_427460","name":"Çömlekçi Mahalle Oğuzeli Camii","lat":38.072014,"lng":42.745983,"addr":"Van","type":"place_of_worship"},{"id":"xx380729_427453","name":"Çömlekçi Mahalle Camii","lat":38.072893,"lng":42.745348,"addr":"Van","type":"place_of_worship"},{"id":"xx380992_427285","name":"Doğanyayla Mahalle Trakya Camii","lat":38.09924,"lng":42.728457,"addr":"Van","type":"place_of_worship"},{"id":"xx380599_427172","name":"Yaylakonak Mahalle Camii","lat":38.059925,"lng":42.717161,"addr":"Van","type":"place_of_worship"},{"id":"xx381621_427278","name":"Düzbaşı Mahalle Camii","lat":38.162103,"lng":42.727804,"addr":"Van","type":"place_of_worship"},{"id":"xx380966_427926","name":"Elmayaka Mahalle Akhisar Camii","lat":38.096643,"lng":42.792585,"addr":"Van","type":"place_of_worship"},{"id":"xx380999_427621","name":"Elmayaka Mahalle İri Camii","lat":38.099949,"lng":42.762128,"addr":"Van","type":"place_of_worship"},{"id":"xx380974_427630","name":"Elmayaka Mahalle Püsküllü Camii","lat":38.097416,"lng":42.762978,"addr":"Van","type":"place_of_worship"},{"id":"xx380285_427845","name":"Yaşlıkavak Mahalle Camii","lat":38.028487,"lng":42.78453,"addr":"Van","type":"place_of_worship"},{"id":"xx380978_427816","name":"Elmayaka Mahalle Camii","lat":38.097813,"lng":42.781564,"addr":"Van","type":"place_of_worship"},{"id":"xx380326_428079","name":"Güneyyamaç Mahalle İmamlı Camii","lat":38.032645,"lng":42.807901,"addr":"Van","type":"place_of_worship"},{"id":"xx380157_428445","name":"Güneyyamaç Mahalle Özbeyli Camii","lat":38.01566,"lng":42.844534,"addr":"Van","type":"place_of_worship"},{"id":"xx380331_427865","name":"Güneyyamaç Mahalle Camii","lat":38.033051,"lng":42.78653,"addr":"Van","type":"place_of_worship"},{"id":"xx381061_426921","name":"İlveli (Çiçekli) Mahalle Camii","lat":38.106068,"lng":42.692099,"addr":"Van","type":"place_of_worship"},{"id":"xx380473_427571","name":"Kartal Mahalle Camii","lat":38.04728,"lng":42.757141,"addr":"Van","type":"place_of_worship"},{"id":"xx380511_428466","name":"Kaşıkçılar Mahalle Ünsal Camii","lat":38.051065,"lng":42.846611,"addr":"Van","type":"place_of_worship"},{"id":"xx380478_428537","name":"Kaşıkçılar Mahalle Camii","lat":38.047821,"lng":42.853684,"addr":"Van","type":"place_of_worship"},{"id":"xx381019_427561","name":"Şişli Mahalle Camii","lat":38.101941,"lng":42.756103,"addr":"Van","type":"place_of_worship"},{"id":"xx381088_427066","name":"Ulubeyli Mahalle Yukarı  Camii","lat":38.108803,"lng":42.706604,"addr":"Van","type":"place_of_worship"},{"id":"xx381064_427080","name":"Ulubeyli Mahalle Camii","lat":38.106372,"lng":42.70802,"addr":"Van","type":"place_of_worship"},{"id":"xx380999_428585","name":"Ünlüce Mahalle Laleli Camii","lat":38.099949,"lng":42.858473,"addr":"Van","type":"place_of_worship"},{"id":"xx381028_428528","name":"Ünlüce Mahalle Camii","lat":38.102786,"lng":42.852834,"addr":"Van","type":"place_of_worship"},{"id":"xx380221_427755","name":"Yaşlıkavak Mahalle Atmaca Camii","lat":38.022064,"lng":42.775475,"addr":"Van","type":"place_of_worship"},{"id":"xx381002_427254","name":"Doğanyayla Mahalle Sakız Camii","lat":38.1002,"lng":42.7254,"addr":"Van","type":"place_of_worship"},{"id":"xx380948_428159","name":"Hakkıbey Camii","lat":38.094849,"lng":42.815886,"addr":"Van","type":"place_of_worship"},{"id":"xx381283_428048","name":"İslam Mahalle Yeni Camii","lat":38.128349,"lng":42.804837,"addr":"Van","type":"place_of_worship"},{"id":"xx380911_427957","name":"Kırmızı Köprü Mrk. Camii","lat":38.091066,"lng":42.79567,"addr":"Van","type":"place_of_worship"},{"id":"xx381038_428259","name":"Köşk Mahalle Camii","lat":38.103765,"lng":42.825874,"addr":"Van","type":"place_of_worship"},{"id":"xx381496_428216","name":"Liman Mahalle Camii","lat":38.14961,"lng":42.821634,"addr":"Van","type":"place_of_worship"},{"id":"xx381259_428046","name":"Şehitler Camii","lat":38.125864,"lng":42.804558,"addr":"Van","type":"place_of_worship"},{"id":"xx381354_427769","name":"Balcılar Mahalle Camii","lat":38.135353,"lng":42.776921,"addr":"Van","type":"place_of_worship"},{"id":"xx381306_427692","name":"Sungurlu Mahalle Camii","lat":38.130649,"lng":42.769183,"addr":"Van","type":"place_of_worship"},{"id":"xx381268_428077","name":"İslam Mahalle Mirhasan Camii","lat":38.126788,"lng":42.807707,"addr":"Van","type":"place_of_worship"},{"id":"xx381293_428016","name":"Yukarı Mahalle Şeyhmend Camii","lat":38.12935,"lng":42.801649,"addr":"Van","type":"place_of_worship"},{"id":"xx380065_430631","name":"Hz.Ömer Camii","lat":38.0065,"lng":43.0631,"addr":"Van","type":"place_of_worship"},{"id":"xx381415_431746","name":"İmam Şafii Camii","lat":38.1415,"lng":43.1746,"addr":"Van","type":"place_of_worship"},{"id":"xx379089_429056","name":"Övecek Mahalle Hz.Ebubekir-İ Sıddık Camii","lat":37.908907,"lng":42.905576,"addr":"Van","type":"place_of_worship"},{"id":"xx379209_428762","name":"Övecek Mahalle Şeyh Hasan Camii","lat":37.920929,"lng":42.876179,"addr":"Van","type":"place_of_worship"},{"id":"xx379947_430612","name":"Toyga Mahalle Şeyh Hasan Camii","lat":37.994675,"lng":43.061164,"addr":"Van","type":"place_of_worship"},{"id":"xx380393_431890","name":"Alacayar Mahalle Tellikaya Camii","lat":38.039304,"lng":43.188955,"addr":"Van","type":"place_of_worship"},{"id":"xx379058_440016","name":"Hasanbey Mahalle Yunus Emre Camii","lat":37.905771,"lng":44.001633,"addr":"Van","type":"place_of_worship"},{"id":"xx379140_439961","name":"Hasanbey Mahalle İskender Ertuş Camii","lat":37.914004,"lng":43.996123,"addr":"Van","type":"place_of_worship"},{"id":"xx378354_442891","name":"Esenyamaç Mahalle Nenehatun Camii","lat":37.835382,"lng":44.289129,"addr":"Van","type":"place_of_worship"},{"id":"xx378047_442470","name":"Esenyamaç Mahalle Onikidere Camii","lat":37.804745,"lng":44.246999,"addr":"Van","type":"place_of_worship"},{"id":"xx380339_440230","name":"Hacı İsmail Camii","lat":38.033927,"lng":44.023022,"addr":"Van","type":"place_of_worship"},{"id":"xx378617_441048","name":"Poyrazalan Mahalle Camii","lat":37.861736,"lng":44.104761,"addr":"Van","type":"place_of_worship"},{"id":"xx378363_441341","name":"Ilıcak Mahalle Camii","lat":37.836316,"lng":44.13415,"addr":"Van","type":"place_of_worship"},{"id":"xx381431_442007","name":"Albayrak Mahalle 2. Camii","lat":38.143096,"lng":44.200676,"addr":"Van","type":"place_of_worship"},{"id":"xx379503_441094","name":"Tandoğan Mahalle Camii","lat":37.950255,"lng":44.10941,"addr":"Van","type":"place_of_worship"},{"id":"xx380822_442868","name":"Kızılca Mahalle Camii","lat":38.082246,"lng":44.286838,"addr":"Van","type":"place_of_worship"},{"id":"xx379617_439263","name":"Kırbalı Mahalle Camii","lat":37.961735,"lng":43.926258,"addr":"Van","type":"place_of_worship"},{"id":"xx383692_442673","name":"Davutabat Mahalle Camii","lat":38.369216,"lng":44.267285,"addr":"Van","type":"place_of_worship"},{"id":"xx382922_442538","name":"Eşmepınar Mahalle Evbakan Camii","lat":38.29216,"lng":44.253766,"addr":"Van","type":"place_of_worship"},{"id":"xx382661_442288","name":"İkizdeğirmen Mahalle Camii","lat":38.266085,"lng":44.228772,"addr":"Van","type":"place_of_worship"},{"id":"xx379960_441437","name":"Açıkağıl Mahalle Camii","lat":37.996007,"lng":44.143673,"addr":"Van","type":"place_of_worship"},{"id":"xx380468_441707","name":"Savaş Mahalle Camii","lat":38.046782,"lng":44.170725,"addr":"Van","type":"place_of_worship"},{"id":"xx379049_440727","name":"Ömerova Mahalle Camii","lat":37.904929,"lng":44.072737,"addr":"Van","type":"place_of_worship"},{"id":"xx383064_442776","name":"Eşmepınar Mahalle 2 Camii","lat":38.306364,"lng":44.277574,"addr":"Van","type":"place_of_worship"},{"id":"xx380078_441973","name":"Koçdağı Mahalle Camii","lat":38.007796,"lng":44.197311,"addr":"Van","type":"place_of_worship"},{"id":"xx380738_442490","name":"Güleçler Mahalle Camii","lat":38.073771,"lng":44.248981,"addr":"Van","type":"place_of_worship"},{"id":"xx382054_442727","name":"Yavuzlar Mahalle Camii","lat":38.205426,"lng":44.272671,"addr":"Van","type":"place_of_worship"},{"id":"xx379230_439248","name":"Özlü Mahalle Camii","lat":37.922966,"lng":43.924783,"addr":"Van","type":"place_of_worship"},{"id":"xx377392_440988","name":"Çaldıran Mahalle Brifkan Camii","lat":37.739227,"lng":44.098762,"addr":"Van","type":"place_of_worship"},{"id":"xx377353_440935","name":"Çaldıran Mahalle Rezuk Camii","lat":37.73534,"lng":44.093478,"addr":"Van","type":"place_of_worship"},{"id":"xx379499_439513","name":"Örenkale Mahalle Camii","lat":37.949887,"lng":43.951347,"addr":"Van","type":"place_of_worship"},{"id":"xx379297_442001","name":"Erenler Mahalle Camii","lat":37.929736,"lng":44.20009,"addr":"Van","type":"place_of_worship"},{"id":"xx382594_441614","name":"Yurttepe Mahalle Şahintepe Camii","lat":38.259396,"lng":44.16137,"addr":"Van","type":"place_of_worship"},{"id":"xx382621_442486","name":"Yanal Mahalle Camii","lat":38.262075,"lng":44.248638,"addr":"Van","type":"place_of_worship"},{"id":"xx382691_441947","name":"Yurttepe Mahalle Camii","lat":38.269126,"lng":44.194651,"addr":"Van","type":"place_of_worship"},{"id":"xx380211_442408","name":"Yukarı Durak Mahalle Camii","lat":38.021067,"lng":44.240838,"addr":"Van","type":"place_of_worship"},{"id":"xx378361_438977","name":"Yukarı Dallı Mahalle Camii","lat":37.836052,"lng":43.897719,"addr":"Van","type":"place_of_worship"},{"id":"xx378119_440707","name":"Uludurak Mahalle Camii","lat":37.811907,"lng":44.070668,"addr":"Van","type":"place_of_worship"},{"id":"xx380704_440506","name":"Örencik Mahalle Camii","lat":38.070443,"lng":44.050636,"addr":"Van","type":"place_of_worship"},{"id":"xx382099_441275","name":"Tahıl Mahalle Camii","lat":38.209874,"lng":44.127496,"addr":"Van","type":"place_of_worship"},{"id":"xx377662_441625","name":"Yukarı Darıca Mahalle Aşağı Darıca Camii","lat":37.766194,"lng":44.162507,"addr":"Van","type":"place_of_worship"},{"id":"xx383001_441647","name":"Yurttepe Mahalle Terazin Camii","lat":38.3001,"lng":44.164696,"addr":"Van","type":"place_of_worship"},{"id":"xx382566_441435","name":"Yüksel Mahalle Camii","lat":38.256641,"lng":44.143538,"addr":"Van","type":"place_of_worship"},{"id":"xx383097_443205","name":"Ömerdağı Mahalle Camii","lat":38.309689,"lng":44.320478,"addr":"Van","type":"place_of_worship"},{"id":"xx379790_441216","name":"Sallıdere Mahalle Camii","lat":37.97898,"lng":44.121609,"addr":"Van","type":"place_of_worship"},{"id":"xx382279_441990","name":"Uğurlu Mahalle Camii","lat":38.227882,"lng":44.199028,"addr":"Van","type":"place_of_worship"},{"id":"xx379571_440845","name":"Y.Dikmen Mahalle Çamlık Camii","lat":37.957125,"lng":44.084471,"addr":"Van","type":"place_of_worship"},{"id":"xx377530_441784","name":"Yukarı Darıca Mahalle Camii","lat":37.752971,"lng":44.178429,"addr":"Van","type":"place_of_worship"},{"id":"xx379414_441665","name":"Yukarı Dikmen Mahalle Camii","lat":37.941435,"lng":44.166488,"addr":"Van","type":"place_of_worship"},{"id":"xx379395_440111","name":"Yukarı Küme Mahalle Camii","lat":37.939485,"lng":44.01108,"addr":"Van","type":"place_of_worship"},{"id":"xx381622_440540","name":"Yolmaçayır Mahalle Camii","lat":38.162163,"lng":44.054,"addr":"Van","type":"place_of_worship"},{"id":"xx377817_442306","name":"Oğulveren Mahalle Camii","lat":37.781654,"lng":44.230635,"addr":"Van","type":"place_of_worship"},{"id":"xx381690_442116","name":"Ortayazı Mahalle Camii","lat":38.168962,"lng":44.211645,"addr":"Van","type":"place_of_worship"},{"id":"xx378927_441276","name":"Öncüler Mahalle Camii","lat":37.892657,"lng":44.12759,"addr":"Van","type":"place_of_worship"},{"id":"xx378328_441024","name":"Örmetaş Mahalle Camii","lat":37.832836,"lng":44.102415,"addr":"Van","type":"place_of_worship"},{"id":"xx382698_443178","name":"Özpınar Mahalle Camii","lat":38.269761,"lng":44.31776,"addr":"Van","type":"place_of_worship"},{"id":"xx381717_442541","name":"Saçan Mahalle Camii","lat":38.171712,"lng":44.254067,"addr":"Van","type":"place_of_worship"},{"id":"xx381687_442795","name":"Saçan Mahalle Meydanlı Camii","lat":38.168684,"lng":44.279473,"addr":"Van","type":"place_of_worship"},{"id":"xx379048_440725","name":"Sinova Mahalle Camii","lat":37.904776,"lng":44.072535,"addr":"Van","type":"place_of_worship"},{"id":"xx378095_442093","name":"Oğulveren Mahalle Avdu Camii","lat":37.809462,"lng":44.209349,"addr":"Van","type":"place_of_worship"},{"id":"xx379830_441783","name":"Mahmutabat Mahalle Camii","lat":37.983031,"lng":44.178321,"addr":"Van","type":"place_of_worship"},{"id":"xx377607_442173","name":"Mazılı Mahalle Camii","lat":37.760654,"lng":44.217269,"addr":"Van","type":"place_of_worship"},{"id":"xx382091_442327","name":"Mutluşar Mahalle Camii","lat":38.209118,"lng":44.232652,"addr":"Van","type":"place_of_worship"},{"id":"xx378265_440482","name":"Kovalıpınar Mahalle Camii","lat":37.826491,"lng":44.048232,"addr":"Van","type":"place_of_worship"},{"id":"xx379034_440336","name":"Ekecek Mahalle Camii","lat":37.903439,"lng":44.033632,"addr":"Van","type":"place_of_worship"},{"id":"xx381564_440285","name":"Düztepe Mahalle Camii","lat":38.156376,"lng":44.028525,"addr":"Van","type":"place_of_worship"},{"id":"xx378171_443256","name":"Esenyamaç Mahalle Dereboyu Camii","lat":37.817119,"lng":44.32558,"addr":"Van","type":"place_of_worship"},{"id":"xx381152_443135","name":"Geçitvermez Mahalle Camii","lat":38.115195,"lng":44.313548,"addr":"Van","type":"place_of_worship"},{"id":"xx379717_439709","name":"Hasanabat Mahalle Camii","lat":37.971675,"lng":43.970858,"addr":"Van","type":"place_of_worship"},{"id":"xx380848_440356","name":"Güroluk Mahalle Camii","lat":38.084775,"lng":44.035605,"addr":"Van","type":"place_of_worship"},{"id":"xx383112_443738","name":"Güvendik Mahalle Camii","lat":38.311222,"lng":44.373779,"addr":"Van","type":"place_of_worship"},{"id":"xx378286_439253","name":"Kesendere Mahalle Camii","lat":37.828564,"lng":43.925314,"addr":"Van","type":"place_of_worship"},{"id":"xx380804_441416","name":"Kavurgalı Mahalle Camii","lat":38.080443,"lng":44.141607,"addr":"Van","type":"place_of_worship"},{"id":"xx383601_444217","name":"Kaşkol Mahalle Camii","lat":38.360082,"lng":44.421651,"addr":"Van","type":"place_of_worship"},{"id":"xx378603_439434","name":"İl Mahalle Camii","lat":37.860317,"lng":43.943354,"addr":"Van","type":"place_of_worship"},{"id":"xx378120_440704","name":"Kovalıpınar Mahalle Yamaç Camii","lat":37.811996,"lng":44.070447,"addr":"Van","type":"place_of_worship"},{"id":"xx379338_439095","name":"Köprüağzı Mahalle Camii","lat":37.933773,"lng":43.909521,"addr":"Van","type":"place_of_worship"},{"id":"xx381894_442640","name":"Kocaköy Mahalle Camii","lat":38.189406,"lng":44.264023,"addr":"Van","type":"place_of_worship"},{"id":"xx378484_439680","name":"Dereiçi Mahalle Camii","lat":37.848417,"lng":43.967961,"addr":"Van","type":"place_of_worship"},{"id":"xx379208_440770","name":"Ekecek Mahalle Hatibova Hz.Veysel Karani Camii","lat":37.920772,"lng":44.076998,"addr":"Van","type":"place_of_worship"},{"id":"xx380226_440816","name":"Erek Mahalle Camii","lat":38.022624,"lng":44.081585,"addr":"Van","type":"place_of_worship"},{"id":"xx379612_439655","name":"Erkonağı Mahalle Camii","lat":37.961193,"lng":43.965504,"addr":"Van","type":"place_of_worship"},{"id":"xx378071_443964","name":"Esenyamaç Mahalle Sualtı Camii","lat":37.807076,"lng":44.39644,"addr":"Van","type":"place_of_worship"},{"id":"xx379978_439746","name":"Germen Mahalle Camii","lat":37.997811,"lng":43.974581,"addr":"Van","type":"place_of_worship"},{"id":"xx383243_443748","name":"Gelenler Mahalle Camii","lat":38.324336,"lng":44.374788,"addr":"Van","type":"place_of_worship"},{"id":"xx381439_439960","name":"Gedikbaşı Mahalle Camii","lat":38.143873,"lng":43.996038,"addr":"Van","type":"place_of_worship"},{"id":"xx378730_438078","name":"Çatakkaya Mahalle Camii","lat":37.873031,"lng":43.80778,"addr":"Van","type":"place_of_worship"},{"id":"xx381718_441220","name":"Büklümdere Mahalle Camii","lat":38.171822,"lng":44.122006,"addr":"Van","type":"place_of_worship"},{"id":"xx378660_438879","name":"Çakırdoğan Mahalle Camii","lat":37.866045,"lng":43.887892,"addr":"Van","type":"place_of_worship"},{"id":"xx383209_444407","name":"Böğrüpek Mahalle Camii","lat":38.320919,"lng":44.440684,"addr":"Van","type":"place_of_worship"},{"id":"xx381036_442066","name":"Bölekli Mahalle Camii","lat":38.103588,"lng":44.20656,"addr":"Van","type":"place_of_worship"},{"id":"xx377913_441251","name":"Çaldıran Mahalle Camii","lat":37.791252,"lng":44.125096,"addr":"Van","type":"place_of_worship"},{"id":"xx382415_442959","name":"Bilgeç Mahalle Camii","lat":38.241483,"lng":44.295931,"addr":"Van","type":"place_of_worship"},{"id":"xx381417_442148","name":"Albayrak Mahalle Fatih Camii","lat":38.141745,"lng":44.214787,"addr":"Van","type":"place_of_worship"},{"id":"xx378188_441141","name":"Belliyurt Mahalle Camii","lat":37.818773,"lng":44.114093,"addr":"Van","type":"place_of_worship"},{"id":"xx380616_441027","name":"Aşalan Mahalle Camii","lat":38.061595,"lng":44.102742,"addr":"Van","type":"place_of_worship"},{"id":"xx379979_439746","name":"Barış Mahalle Yavrucak Camii","lat":37.997858,"lng":43.974565,"addr":"Van","type":"place_of_worship"},{"id":"xx378857_440236","name":"Belencik Mahalle Camii","lat":37.885735,"lng":44.023612,"addr":"Van","type":"place_of_worship"},{"id":"xx378715_438113","name":"Aydemir Mahalle Camii","lat":37.871527,"lng":43.811299,"addr":"Van","type":"place_of_worship"},{"id":"xx379239_441232","name":"Aşağı Dikmen Mahalle Camii","lat":37.923901,"lng":44.123213,"addr":"Van","type":"place_of_worship"},{"id":"xx380933_441668","name":"Atlılar Mahalle Camii","lat":38.093313,"lng":44.166799,"addr":"Van","type":"place_of_worship"},{"id":"xx380396_442178","name":"Aşağı Durak Mahalle Camii","lat":38.039599,"lng":44.217825,"addr":"Van","type":"place_of_worship"},{"id":"xx379321_440536","name":"Aşağı Küme Mahalle Camii","lat":37.932114,"lng":44.053553,"addr":"Van","type":"place_of_worship"},{"id":"xx381429_442075","name":"Albayrak Mahalle 1. Camii","lat":38.142891,"lng":44.207511,"addr":"Van","type":"place_of_worship"},{"id":"xx381332_442127","name":"Yerliharman Mahalle Camii","lat":38.133173,"lng":44.212718,"addr":"Van","type":"place_of_worship"},{"id":"xx380194_439847","name":"Barış Mahalle Camii","lat":38.019418,"lng":43.984741,"addr":"Van","type":"place_of_worship"},{"id":"xx380502_440225","name":"Yeni Mahalle Hacı Kamil Camii","lat":38.050207,"lng":44.022517,"addr":"Van","type":"place_of_worship"},{"id":"xx380674_440384","name":"Yeni Mahalle Batkan Camii","lat":38.067413,"lng":44.038374,"addr":"Van","type":"place_of_worship"},{"id":"xx380444_440254","name":"Zeydanoğlu Hacı Hasan Camii","lat":38.044448,"lng":44.025375,"addr":"Van","type":"place_of_worship"},{"id":"xx380454_440197","name":"Hacı Sıtkı Camii","lat":38.045411,"lng":44.01972,"addr":"Van","type":"place_of_worship"},{"id":"xx380498_440465","name":"Ertuş  Petrol Camii","lat":38.049765,"lng":44.046503,"addr":"Van","type":"place_of_worship"},{"id":"xx380359_440167","name":"Halilurrahman Camii","lat":38.035889,"lng":44.01674,"addr":"Van","type":"place_of_worship"},{"id":"xx380408_440214","name":"Molla Hamit Camii","lat":38.040842,"lng":44.021371,"addr":"Van","type":"place_of_worship"},{"id":"xx380218_440302","name":"Samandöken Mahalle Camii","lat":38.021823,"lng":44.03022,"addr":"Van","type":"place_of_worship"},{"id":"xx380398_440422","name":"Yakınyol Mahalle Camii","lat":38.039802,"lng":44.042226,"addr":"Van","type":"place_of_worship"},{"id":"xx380445_440171","name":"Edeman Pasajı Mes. Camii","lat":38.044534,"lng":44.01711,"addr":"Van","type":"place_of_worship"},{"id":"xx380596_440250","name":"Tarım Mahalle Camii","lat":38.059589,"lng":44.024985,"addr":"Van","type":"place_of_worship"},{"id":"xx380205_440307","name":"Yüceler Mahalle Camii","lat":38.020471,"lng":44.030655,"addr":"Van","type":"place_of_worship"},{"id":"xx390280_433628","name":"Kaymakamlık Binası Mescidi","lat":39.028,"lng":43.3628,"addr":"Van","type":"place_of_worship"},{"id":"xx390246_433438","name":"Kışla Mahalle Hz.Aişe Camii","lat":39.0246,"lng":43.3438,"addr":"Van","type":"place_of_worship"},{"id":"xx390245_433586","name":"Yeni Peynirciler Çarşısı Mescidi","lat":39.0245,"lng":43.3586,"addr":"Van","type":"place_of_worship"},{"id":"xx389962_433199","name":"Çelebibağı Mahalle Hacı Hasan Bakınç Camii","lat":38.9962,"lng":43.3199,"addr":"Van","type":"place_of_worship"},{"id":"xx390212_433381","name":"Kışla Mahalle Zortullu Murat Bey Camii","lat":39.0212,"lng":43.3381,"addr":"Van","type":"place_of_worship"},{"id":"xx391217_431716","name":"Kırkpınar Mahalle Yayıklı Camii","lat":39.1217,"lng":43.1716,"addr":"Van","type":"place_of_worship"},{"id":"xx390768_431763","name":"Bulamaç Mahalle Camii","lat":39.076755,"lng":43.176292,"addr":"Van","type":"place_of_worship"},{"id":"xx390195_434004","name":"Yukarı Toki Yeni Camii","lat":39.0195,"lng":43.4004,"addr":"Van","type":"place_of_worship"},{"id":"xx389769_432619","name":"Çelebibağı Mahalle Hacı Hayriye Bakınç Camii","lat":38.9769,"lng":43.2619,"addr":"Van","type":"place_of_worship"},{"id":"xx390443_433458","name":"Hacı Tayyar Zortul Camii","lat":39.044267,"lng":43.34578,"addr":"Van","type":"place_of_worship"},{"id":"xx389813_432903","name":"Çelebibağ Mahalle Hüseyin Bakınç Camii","lat":38.9813,"lng":43.2903,"addr":"Van","type":"place_of_worship"},{"id":"xx390264_433627","name":"Akabe Camii","lat":39.0264,"lng":43.3627,"addr":"Van","type":"place_of_worship"},{"id":"xx389858_433053","name":"Çelebibağı Mahalle Medine Camii","lat":38.985843,"lng":43.305306,"addr":"Van","type":"place_of_worship"},{"id":"xx389840_432834","name":"Süleymaniye Camii","lat":38.984,"lng":43.2834,"addr":"Van","type":"place_of_worship"},{"id":"xx390109_432978","name":"Mekke Camii","lat":39.0109,"lng":43.2978,"addr":"Van","type":"place_of_worship"},{"id":"xx390579_433254","name":"15 Temmuz Şehitler Mescidi","lat":39.057884,"lng":43.325395,"addr":"Van","type":"place_of_worship"},{"id":"xx390096_433857","name":"Hacı Süleyman Işık Camii","lat":39.009636,"lng":43.385686,"addr":"Van","type":"place_of_worship"},{"id":"xx389544_430704","name":"Karatavuk Mahalle Hacı Naif Demir Camii","lat":38.9544,"lng":43.070381,"addr":"Van","type":"place_of_worship"},{"id":"xx390923_431677","name":"Çetintaş Mahalle Hacı Kamil Camii","lat":39.09228,"lng":43.167667,"addr":"Van","type":"place_of_worship"},{"id":"xx390374_433660","name":"Abdullah Çelik Camii","lat":39.037418,"lng":43.365959,"addr":"Van","type":"place_of_worship"},{"id":"xx390429_433360","name":"Yeşilova Mahalle Hz. Hamza Camii","lat":39.042891,"lng":43.336008,"addr":"Van","type":"place_of_worship"},{"id":"xx390263_433522","name":"Hacı Salih Aras Camii","lat":39.026265,"lng":43.35215,"addr":"Van","type":"place_of_worship"},{"id":"xx389516_432204","name":"Bayramlı Mahalle Hacı Kutbettin Camii","lat":38.951625,"lng":43.220397,"addr":"Van","type":"place_of_worship"},{"id":"xx390263_433757","name":"Molla Ahmet Camii","lat":39.026281,"lng":43.375708,"addr":"Van","type":"place_of_worship"},{"id":"xx389964_435366","name":"A.Kozlluca Mahalle Bilal-İ Habeşi Camii","lat":38.996357,"lng":43.53663,"addr":"Van","type":"place_of_worship"},{"id":"xx390347_433416","name":"Hacı Sefer Dikmen Camii","lat":39.034653,"lng":43.341635,"addr":"Van","type":"place_of_worship"},{"id":"xx390485_433163","name":"Çatakdibi Mahalle Hz.Enes Camii","lat":39.0485,"lng":43.3163,"addr":"Van","type":"place_of_worship"},{"id":"xx390220_433334","name":"İmam-I Şafii Camii","lat":39.022,"lng":43.3334,"addr":"Van","type":"place_of_worship"},{"id":"xx390911_430703","name":"Ortayayla Mahalle Hacı Mecit Camii","lat":39.091092,"lng":43.070272,"addr":"Van","type":"place_of_worship"},{"id":"xx390353_433782","name":"Abdulbaki Çelik Mescidi","lat":39.035274,"lng":43.378224,"addr":"Van","type":"place_of_worship"},{"id":"xx389937_435352","name":"A.Kozluca Mahalle Bediüzzaman Camii","lat":38.993735,"lng":43.535235,"addr":"Van","type":"place_of_worship"},{"id":"xx390049_433497","name":"Yukarı Çınarlı Merkez Erenler Camii","lat":39.004857,"lng":43.349739,"addr":"Van","type":"place_of_worship"},{"id":"xx390467_434335","name":"Salmanağa Mahalle Mirac Camii","lat":39.046657,"lng":43.433548,"addr":"Van","type":"place_of_worship"},{"id":"xx389931_433106","name":"Çelebibağı Mahalle Molla Hurşit Camii","lat":38.993055,"lng":43.310564,"addr":"Van","type":"place_of_worship"},{"id":"xx389970_432979","name":"Çelebibağı Mahalle Veysel Karani Camii","lat":38.996987,"lng":43.297868,"addr":"Van","type":"place_of_worship"},{"id":"xx389897_433126","name":"Çelebibağı Mahalle Hz.Hüseyin Camii","lat":38.989726,"lng":43.312564,"addr":"Van","type":"place_of_worship"},{"id":"xx385204_433547","name":"Gazze Camii","lat":38.5204,"lng":43.3547,"addr":"Van","type":"place_of_worship"},{"id":"xx385822_432753","name":"Bardakçı Mahalle Şeyh Abdurrahmani Taği Mescidi","lat":38.5822,"lng":43.2753,"addr":"Van","type":"place_of_worship"},{"id":"xx390587_438952","name":"Doyumalan Mahalle Hacı Nigar Ana Camii","lat":39.05865,"lng":43.895187,"addr":"Van","type":"place_of_worship"},{"id":"xx390104_439962","name":"Kilimli Mahalle Hacı Necmettin Naime Adıyaman Camii","lat":39.010381,"lng":43.996159,"addr":"Van","type":"place_of_worship"},{"id":"xx391387_439148","name":"Sanayi Camii","lat":39.1387,"lng":43.9148,"addr":"Van","type":"place_of_worship"},{"id":"xx391498_439184","name":"Hacı Behlül Camii","lat":39.1498,"lng":43.9184,"addr":"Van","type":"place_of_worship"},{"id":"xx391276_438918","name":"Selahaddin Eyyubi Camii","lat":39.1276,"lng":43.8918,"addr":"Van","type":"place_of_worship"},{"id":"xx391359_438890","name":"Yeşil Camii","lat":39.135876,"lng":43.889019,"addr":"Van","type":"place_of_worship"},{"id":"xx391315_438917","name":"Hz. Ebubekir Mescidi","lat":39.131505,"lng":43.891667,"addr":"Van","type":"place_of_worship"},{"id":"xx391400_438992","name":"Valide Gülüzar Koran Camii","lat":39.140013,"lng":43.899178,"addr":"Van","type":"place_of_worship"},{"id":"xx390343_441132","name":"Yukarı Gülderen Mahalle Tekevler Camii","lat":39.0343,"lng":44.1132,"addr":"Van","type":"place_of_worship"},{"id":"xx390756_439424","name":"Koçovası Mahalle 2. Camii","lat":39.075562,"lng":43.94237,"addr":"Van","type":"place_of_worship"},{"id":"xx390454_439072","name":"İncealan Mahalle 2. Camii","lat":39.045386,"lng":43.907221,"addr":"Van","type":"place_of_worship"},{"id":"xx389986_439280","name":"Yuvacık Mahalle Camii","lat":38.998558,"lng":43.927979,"addr":"Van","type":"place_of_worship"},{"id":"xx390061_439934","name":"Kilimli Mahalle 2. Camii","lat":39.006112,"lng":43.993378,"addr":"Van","type":"place_of_worship"},{"id":"xx389669_439515","name":"Akbaşak Mahalle Camii","lat":38.9669,"lng":43.9515,"addr":"Van","type":"place_of_worship"},{"id":"xx391764_440417","name":"Burçakalan Mahalle Tepeli Camii","lat":39.176385,"lng":44.041711,"addr":"Van","type":"place_of_worship"},{"id":"xx390587_440179","name":"Yeniyaka Mahalle Camii","lat":39.0587,"lng":44.0179,"addr":"Van","type":"place_of_worship"},{"id":"xx391938_439120","name":"Kılavuz Mahalle Camii","lat":39.193762,"lng":43.91201,"addr":"Van","type":"place_of_worship"},{"id":"xx390053_440449","name":"Yaykılıç Mahalle Camii","lat":39.005312,"lng":44.044876,"addr":"Van","type":"place_of_worship"},{"id":"xx390547_440821","name":"Sungur Mahallecamii","lat":39.054735,"lng":44.082084,"addr":"Van","type":"place_of_worship"},{"id":"xx390388_439159","name":"Aşağı Çanak Mahalle Camii","lat":39.038836,"lng":43.915892,"addr":"Van","type":"place_of_worship"},{"id":"xx391548_441091","name":"Sarıçimen Mahalle Camii","lat":39.154824,"lng":44.109077,"addr":"Van","type":"place_of_worship"},{"id":"xx391446_440137","name":"Aşağı Kuyucak Mahalle Camii","lat":39.144582,"lng":44.013659,"addr":"Van","type":"place_of_worship"},{"id":"xx391069_439033","name":"Sellik Mahalle Camii","lat":39.106887,"lng":43.903288,"addr":"Van","type":"place_of_worship"},{"id":"xx390445_439053","name":"İncealan Mahalle Camii","lat":39.044519,"lng":43.905344,"addr":"Van","type":"place_of_worship"},{"id":"xx390713_440463","name":"Güngören Mahalle Camii","lat":39.071337,"lng":44.046296,"addr":"Van","type":"place_of_worship"},{"id":"xx390033_439128","name":"Sarıharman Mahalle Hacı Ömer Camii","lat":39.003344,"lng":43.912799,"addr":"Van","type":"place_of_worship"},{"id":"xx392505_440382","name":"Soğuksu Mahalle Beyda 3. Camii","lat":39.250517,"lng":44.03825,"addr":"Van","type":"place_of_worship"},{"id":"xx390386_440318","name":"Alikelle Mahalle Aşağı Kümeevleri Camii","lat":39.038582,"lng":44.031782,"addr":"Van","type":"place_of_worship"},{"id":"xx389239_440445","name":"Tekindere Mahalle Tepe Camii","lat":38.923906,"lng":44.044535,"addr":"Van","type":"place_of_worship"},{"id":"xx390661_439070","name":"Kurtoğlan Mahalle Suveren Camii","lat":39.066114,"lng":43.906998,"addr":"Van","type":"place_of_worship"},{"id":"xx390061_439184","name":"Sarıharman Mahalle Camii","lat":39.006112,"lng":43.918447,"addr":"Van","type":"place_of_worship"},{"id":"xx390021_439779","name":"Buğulukaynak Mahalle Camii","lat":39.002106,"lng":43.977944,"addr":"Van","type":"place_of_worship"},{"id":"xx391851_439468","name":"Yukarı Mutlu Mahalle Camii","lat":39.185111,"lng":43.946772,"addr":"Van","type":"place_of_worship"},{"id":"xx389105_439671","name":"Yukarı Sağmalı Mahalle Camii","lat":38.910537,"lng":43.967146,"addr":"Van","type":"place_of_worship"},{"id":"xx392253_438492","name":"Yukarı Yanıktaş Mahalle Camii","lat":39.225338,"lng":43.849182,"addr":"Van","type":"place_of_worship"},{"id":"xx392313_438775","name":"Yukarı Yanıktaş Mahalle Göl Camii","lat":39.231256,"lng":43.877471,"addr":"Van","type":"place_of_worship"},{"id":"xx392285_438516","name":"Yukarı Yanıktaş Mahalle Yaşkütük Camii","lat":39.22853,"lng":43.85165,"addr":"Van","type":"place_of_worship"},{"id":"xx392307_438771","name":"Yukarı Yanıktaş Mahalle Yatırlı Camii","lat":39.230657,"lng":43.877077,"addr":"Van","type":"place_of_worship"},{"id":"xx391260_440632","name":"Umuttepe Mahalle Camii","lat":39.126015,"lng":44.063209,"addr":"Van","type":"place_of_worship"},{"id":"xx391159_439635","name":"Yassitepe Mahalle Camii","lat":39.115944,"lng":43.963509,"addr":"Van","type":"place_of_worship"},{"id":"xx391518_440285","name":"Yukarı Kuyucak Mahalle Atyoran Camii","lat":39.151762,"lng":44.028498,"addr":"Van","type":"place_of_worship"},{"id":"xx391479_440370","name":"Yukarı Kuyucak Mahalle Camii","lat":39.147868,"lng":44.036984,"addr":"Van","type":"place_of_worship"},{"id":"xx390613_441293","name":"Temirelli Mahalle Camii","lat":39.061316,"lng":44.129334,"addr":"Van","type":"place_of_worship"},{"id":"xx389670_441114","name":"Yücealan Mahalle Aşağı Çilli Camii","lat":38.967017,"lng":44.111395,"addr":"Van","type":"place_of_worship"},{"id":"xx389663_441034","name":"Yücealan Mahallecamii","lat":38.966349,"lng":44.103445,"addr":"Van","type":"place_of_worship"},{"id":"xx390667_440286","name":"Zülfobulak Mahallecamii","lat":39.066693,"lng":44.028649,"addr":"Van","type":"place_of_worship"},{"id":"xx389684_441062","name":"Yücealan Mahalle Yukarı Çilli Camii","lat":38.968411,"lng":44.106159,"addr":"Van","type":"place_of_worship"},{"id":"xx389238_440448","name":"Tekindere Mahalle Camii","lat":38.923777,"lng":44.044812,"addr":"Van","type":"place_of_worship"},{"id":"xx391990_440381","name":"Toprakseven Mahallecamii","lat":39.199037,"lng":44.038095,"addr":"Van","type":"place_of_worship"},{"id":"xx389239_440455","name":"Tekindere Mahalle Kandil Camii","lat":38.923927,"lng":44.045477,"addr":"Van","type":"place_of_worship"},{"id":"xx390876_441302","name":"Üçgözeler Mahalle Camii","lat":39.087609,"lng":44.130235,"addr":"Van","type":"place_of_worship"},{"id":"xx391101_439924","name":"Yağbasan Mahallecamii","lat":39.110092,"lng":43.99238,"addr":"Van","type":"place_of_worship"},{"id":"xx390295_439253","name":"Yukarı Çanak Mahalle Camii","lat":39.029486,"lng":43.925253,"addr":"Van","type":"place_of_worship"},{"id":"xx390124_441193","name":"Yukarı Dikme Mahallecamii","lat":39.0124,"lng":44.1193,"addr":"Van","type":"place_of_worship"},{"id":"xx390368_441105","name":"Yukarı Gülderen Mahalle Camii","lat":39.036801,"lng":44.110499,"addr":"Van","type":"place_of_worship"},{"id":"xx391816_440632","name":"Hangedik Mahalle Konutlar Camii","lat":39.181558,"lng":44.063158,"addr":"Van","type":"place_of_worship"},{"id":"xx389706_440411","name":"Karadulda Mahalle Tekesuyu Camii","lat":38.97062,"lng":44.0411,"addr":"Van","type":"place_of_worship"},{"id":"xx390742_439482","name":"Koçovası Mahallecamii","lat":39.074177,"lng":43.948188,"addr":"Van","type":"place_of_worship"},{"id":"xx384921_434329","name":"Ashab-I Bedir Camii","lat":38.4921,"lng":43.4329,"addr":"Van","type":"place_of_worship"},{"id":"xx385061_434159","name":"Jandarma Kışla Camii","lat":38.5061,"lng":43.4159,"addr":"Van","type":"place_of_worship"},{"id":"xx385031_434033","name":"Nedim Ebinç Mescidi","lat":38.5031,"lng":43.4033,"addr":"Van","type":"place_of_worship"},{"id":"xx385075_433728","name":"İl Emniyet Müdürlüğü Mescidi","lat":38.507509,"lng":43.372805,"addr":"Van","type":"place_of_worship"},{"id":"xx385030_433987","name":"İmam-I Eşari Mescidi","lat":38.503,"lng":43.3987,"addr":"Van","type":"place_of_worship"},{"id":"xx385039_433897","name":"Hacı Nurettin Koç Mescidi","lat":38.503869,"lng":43.389708,"addr":"Van","type":"place_of_worship"},{"id":"xx385953_435362","name":"Yalınağaç Mahalle Beykuşağı Camii","lat":38.5953,"lng":43.5362,"addr":"Van","type":"place_of_worship"},{"id":"xx386590_436494","name":"Erçek Mahalle Hacı Mehmet Öner Camii","lat":38.659039,"lng":43.649429,"addr":"Van","type":"place_of_worship"},{"id":"xx385043_434023","name":"Hilal Camii","lat":38.504276,"lng":43.402292,"addr":"Van","type":"place_of_worship"},{"id":"xx385001_433837","name":"Hacı Cebrail Arslan Mescidi","lat":38.500128,"lng":43.383714,"addr":"Van","type":"place_of_worship"},{"id":"xx384893_434034","name":"Büyükşehir Belediye Camii","lat":38.489323,"lng":43.40341,"addr":"Van","type":"place_of_worship"},{"id":"xx384993_433859","name":"Hacı Mustafa Mescidi","lat":38.499331,"lng":43.385857,"addr":"Van","type":"place_of_worship"},{"id":"xx385045_433966","name":"Zeyd Bin Harise Mescidi","lat":38.504499,"lng":43.396558,"addr":"Van","type":"place_of_worship"},{"id":"xx385294_434311","name":"Bostaniçi Mahalle Seyyidi Şüheda Hz. Hamza Camii","lat":38.529367,"lng":43.431122,"addr":"Van","type":"place_of_worship"},{"id":"xx385047_433741","name":"Yusuf Edhem Mescidi","lat":38.504675,"lng":43.374061,"addr":"Van","type":"place_of_worship"},{"id":"xx384872_433916","name":"Mus'Ab Bin Umeyr Mescidi","lat":38.487202,"lng":43.39163,"addr":"Van","type":"place_of_worship"},{"id":"xx385246_435569","name":"Beşçatak Mahalle Reşit Nazlı Camii","lat":38.524634,"lng":43.556875,"addr":"Van","type":"place_of_worship"},{"id":"xx385157_434371","name":"Bostaniçi Hayırseverler Camii","lat":38.515689,"lng":43.437066,"addr":"Van","type":"place_of_worship"},{"id":"xx384992_433904","name":"Selahaddin Eyyübi Mescidi","lat":38.49923,"lng":43.390366,"addr":"Van","type":"place_of_worship"},{"id":"xx385067_433587","name":"Halidiye Mescidi","lat":38.506654,"lng":43.358692,"addr":"Van","type":"place_of_worship"},{"id":"xx385118_434541","name":"Karpuzalan Mahalle Faki-İ Teyran Camii","lat":38.511755,"lng":43.454096,"addr":"Van","type":"place_of_worship"},{"id":"xx385052_433969","name":"Seyyit Taha Mescidi","lat":38.505209,"lng":43.396879,"addr":"Van","type":"place_of_worship"},{"id":"xx387444_436209","name":"Ilıkaynak Mahalle Kalender Mezrası Camii","lat":38.744427,"lng":43.620868,"addr":"Van","type":"place_of_worship"},{"id":"xx385116_433415","name":"Halil İbrahim Camii","lat":38.511601,"lng":43.341451,"addr":"Van","type":"place_of_worship"},{"id":"xx385375_435372","name":"Köşebaşı Mahalle Camii","lat":38.537542,"lng":43.5372,"addr":"Van","type":"place_of_worship"},{"id":"xx385024_433344","name":"Horhor Medresesi Camii","lat":38.502404,"lng":43.334361,"addr":"Van","type":"place_of_worship"},{"id":"xx385628_435030","name":"Aşağı Çitli Mahalle Camii","lat":38.562814,"lng":43.502984,"addr":"Van","type":"place_of_worship"},{"id":"xx384928_434176","name":"Hz.Ebubekir Camii","lat":38.492819,"lng":43.417634,"addr":"Van","type":"place_of_worship"},{"id":"xx384880_434152","name":"Seyrantepe Camii","lat":38.488005,"lng":43.41519,"addr":"Van","type":"place_of_worship"},{"id":"xx385041_433728","name":"Köy Hizmetleri İl Müdürlüğü Camii","lat":38.504117,"lng":43.372794,"addr":"Van","type":"place_of_worship"},{"id":"xx385208_434195","name":"Molla Hamdullah Camii","lat":38.52076,"lng":43.419452,"addr":"Van","type":"place_of_worship"},{"id":"xx385693_435177","name":"Aşağı Çitli Mahalle Yukarı Çitli Camii","lat":38.569301,"lng":43.517695,"addr":"Van","type":"place_of_worship"},{"id":"xx384950_434286","name":"Hz.Abbas Camii","lat":38.494956,"lng":43.428613,"addr":"Van","type":"place_of_worship"},{"id":"xx384862_433788","name":"İbadullah Camii","lat":38.486172,"lng":43.378835,"addr":"Van","type":"place_of_worship"},{"id":"xx384973_433766","name":"Müftü Masum Efendi Mescidi","lat":38.4973,"lng":43.3766,"addr":"Van","type":"place_of_worship"},{"id":"xx385171_434321","name":"Bostaniçi Mahalle Yeni Camii","lat":38.517113,"lng":43.432097,"addr":"Van","type":"place_of_worship"},{"id":"xx384992_434406","name":"Bostaniçi Mahalle Mehmet Atıf Camii","lat":38.49923,"lng":43.440581,"addr":"Van","type":"place_of_worship"},{"id":"xx385122_434271","name":"Bostaniçi Mahalle Seyyid M. Nurani Camii","lat":38.5122,"lng":43.4271,"addr":"Van","type":"place_of_worship"},{"id":"xx385182_434251","name":"Bostaniçi Mahalle Şafak Camii","lat":38.518233,"lng":43.425064,"addr":"Van","type":"place_of_worship"},{"id":"xx385441_434266","name":"Bostaniçi Mahalle İrşad Camii","lat":38.544104,"lng":43.426603,"addr":"Van","type":"place_of_worship"},{"id":"xx385064_434217","name":"İbrahim Karslıoğlu Camii","lat":38.506358,"lng":43.421747,"addr":"Van","type":"place_of_worship"},{"id":"xx384823_433832","name":"Sultanoğlu Camii","lat":38.482334,"lng":43.383223,"addr":"Van","type":"place_of_worship"},{"id":"xx385017_433980","name":"H.Turan Haydaroğlu Mescidi","lat":38.501715,"lng":43.398049,"addr":"Van","type":"place_of_worship"},{"id":"xx385031_433984","name":"Türkoğlu Mescidi","lat":38.5031,"lng":43.3984,"addr":"Van","type":"place_of_worship"},{"id":"xx386103_436156","name":"Irgat Mahalle Camii","lat":38.610323,"lng":43.615579,"addr":"Van","type":"place_of_worship"},{"id":"xx384895_433297","name":"Selman-I Farisi Camii","lat":38.489525,"lng":43.329705,"addr":"Van","type":"place_of_worship"},{"id":"xx386445_437715","name":"Çalımlı Mahalle Yeniçavuş Camii","lat":38.644495,"lng":43.77152,"addr":"Van","type":"place_of_worship"},{"id":"xx385423_437721","name":"Arıtoprak Mahalle Camii","lat":38.542258,"lng":43.772106,"addr":"Van","type":"place_of_worship"},{"id":"xx385116_435032","name":"Değirmen Mahalle Aşağı  Camii","lat":38.511589,"lng":43.503205,"addr":"Van","type":"place_of_worship"},{"id":"xx387237_437354","name":"Yukarı Güneyce Mahalle Aşağı Güneyce Camii","lat":38.723655,"lng":43.735371,"addr":"Van","type":"place_of_worship"},{"id":"xx385098_434175","name":"Kılıçlar Camii","lat":38.509826,"lng":43.417475,"addr":"Van","type":"place_of_worship"},{"id":"xx387637_435761","name":"Yukarı Gölalan Mahalle Camii","lat":38.763654,"lng":43.57606,"addr":"Van","type":"place_of_worship"},{"id":"xx385074_434507","name":"Karpuzalan Mahalle Beşevler Camii","lat":38.507403,"lng":43.450665,"addr":"Van","type":"place_of_worship"},{"id":"xx385155_433388","name":"Kurtbeyoğlu Camii","lat":38.515484,"lng":43.338758,"addr":"Van","type":"place_of_worship"},{"id":"xx384940_433852","name":"Uğur Mescidi","lat":38.494032,"lng":43.385187,"addr":"Van","type":"place_of_worship"},{"id":"xx386922_437979","name":"Yatıksırt Mahalle Camii","lat":38.692159,"lng":43.79788,"addr":"Van","type":"place_of_worship"},{"id":"xx387276_437239","name":"Yukarı Güneyce Mahalle Camii","lat":38.727572,"lng":43.723869,"addr":"Van","type":"place_of_worship"},{"id":"xx386472_439921","name":"Mescid-İ Aksa Camii","lat":38.6472,"lng":43.9921,"addr":"Van","type":"place_of_worship"},{"id":"xx385471_438707","name":"Aşağı Çavarlık Mahalle Camii","lat":38.5471,"lng":43.8707,"addr":"Van","type":"place_of_worship"},{"id":"xx386533_439797","name":"Said-İ Nursi Camii","lat":38.6533,"lng":43.9797,"addr":"Van","type":"place_of_worship"},{"id":"xx388548_440107","name":"Sağmalı Mahalle Hz.Ali Camii","lat":38.854798,"lng":44.010673,"addr":"Van","type":"place_of_worship"},{"id":"xx388579_440251","name":"A.Sağmalı Mahalle Yenicamii","lat":38.8579,"lng":44.0251,"addr":"Van","type":"place_of_worship"},{"id":"xx385839_439740","name":"Emek Mahalle Camii","lat":38.583935,"lng":43.97398,"addr":"Van","type":"place_of_worship"},{"id":"xx388176_441805","name":"Eğribelen Mahalle Yeni Camii","lat":38.817576,"lng":44.180532,"addr":"Van","type":"place_of_worship"},{"id":"xx388827_438828","name":"A.Akçagüller Mahalle Gündüzlü Camii","lat":38.882748,"lng":43.882828,"addr":"Van","type":"place_of_worship"},{"id":"xx386503_438593","name":"A.Ayazca Mahalle Camii","lat":38.650335,"lng":43.859342,"addr":"Van","type":"place_of_worship"},{"id":"xx388953_441183","name":"A.Balçıklı Mahalle Camii","lat":38.895308,"lng":44.118347,"addr":"Van","type":"place_of_worship"},{"id":"xx387332_440792","name":"Dağdeviren Mahalle Yeni Camii","lat":38.733197,"lng":44.079208,"addr":"Van","type":"place_of_worship"},{"id":"xx385841_439761","name":"E.Emek Mahalle Camii","lat":38.584136,"lng":43.976126,"addr":"Van","type":"place_of_worship"},{"id":"xx388713_441791","name":"A.Koçkıran Mahalle Camii","lat":38.871256,"lng":44.179115,"addr":"Van","type":"place_of_worship"},{"id":"xx386538_438992","name":"A.Mollahasan Mahalle Camii","lat":38.653784,"lng":43.899195,"addr":"Van","type":"place_of_worship"},{"id":"xx385264_439529","name":"Bağrıaçık Mahalle Camii","lat":38.526413,"lng":43.952866,"addr":"Van","type":"place_of_worship"},{"id":"xx388354_438557","name":"Bodurağaç Mahalle Camii","lat":38.835429,"lng":43.855705,"addr":"Van","type":"place_of_worship"},{"id":"xx388319_439501","name":"Seydibey Mahalle Akçay Camii","lat":38.831902,"lng":43.950117,"addr":"Van","type":"place_of_worship"},{"id":"xx386309_438688","name":"Y.Ayazca Mahalle Camii","lat":38.6309,"lng":43.8688,"addr":"Van","type":"place_of_worship"},{"id":"xx388445_441767","name":"Oymaklı Mahalle Camii","lat":38.844521,"lng":44.176712,"addr":"Van","type":"place_of_worship"},{"id":"xx386940_439705","name":"Altınboğa Mahalle Camii","lat":38.694006,"lng":43.970546,"addr":"Van","type":"place_of_worship"},{"id":"xx385667_440470","name":"Yünkuşak Mahalle Camii","lat":38.56669,"lng":44.04697,"addr":"Van","type":"place_of_worship"},{"id":"xx387977_438459","name":"Kalecik Mahalle Camii","lat":38.797678,"lng":43.845942,"addr":"Van","type":"place_of_worship"},{"id":"xx386279_440919","name":"Mollatopoz Mahalle Camii","lat":38.627868,"lng":44.091911,"addr":"Van","type":"place_of_worship"},{"id":"xx388483_439000","name":"Çırak Mahalle Camii","lat":38.848264,"lng":43.899994,"addr":"Van","type":"place_of_worship"},{"id":"xx385690_440465","name":"Yünkuşak Mahalle Aşkın Camii","lat":38.569005,"lng":44.04655,"addr":"Van","type":"place_of_worship"},{"id":"xx388476_441025","name":"Yumruklu Mahalle Camii","lat":38.847596,"lng":44.102469,"addr":"Van","type":"place_of_worship"},{"id":"xx386905_439254","name":"Sevatlı Mahalle Camii","lat":38.6905,"lng":43.9254,"addr":"Van","type":"place_of_worship"},{"id":"xx386072_440195","name":"Sarıköy Mahalle Camii","lat":38.607213,"lng":44.01947,"addr":"Van","type":"place_of_worship"},{"id":"xx388349_439268","name":"Seydibey Mahalle Camii","lat":38.834894,"lng":43.926773,"addr":"Van","type":"place_of_worship"},{"id":"xx387683_439347","name":"Hacıkışlak Mahalle Camii","lat":38.768272,"lng":43.934669,"addr":"Van","type":"place_of_worship"},{"id":"xx385047_438636","name":"Hazine Mahalle Camii","lat":38.504654,"lng":43.863602,"addr":"Van","type":"place_of_worship"},{"id":"xx386092_440219","name":"Sarıköy Mahalle Üçevler Camii","lat":38.609225,"lng":44.021873,"addr":"Van","type":"place_of_worship"},{"id":"xx388270_438892","name":"Seydibey Mahalle Akmeşet Camii","lat":38.827004,"lng":43.889179,"addr":"Van","type":"place_of_worship"},{"id":"xx386861_438754","name":"Sugeçer Mahalle Camii","lat":38.6861,"lng":43.8754,"addr":"Van","type":"place_of_worship"},{"id":"xx387348_440195","name":"Şehittepe Mahalle Camii","lat":38.734804,"lng":44.01947,"addr":"Van","type":"place_of_worship"},{"id":"xx387952_438674","name":"Şemsettin Mahalle Camii","lat":38.795236,"lng":43.867389,"addr":"Van","type":"place_of_worship"},{"id":"xx386507_440480","name":"Tepedam Mahalle Camii","lat":38.650662,"lng":44.047966,"addr":"Van","type":"place_of_worship"},{"id":"xx389243_440915","name":"Yavuzlar Mahalle Camii","lat":38.924261,"lng":44.091482,"addr":"Van","type":"place_of_worship"},{"id":"xx388760_438952","name":"Yukarı Akçagüller Mahalle Camii","lat":38.876033,"lng":43.895193,"addr":"Van","type":"place_of_worship"},{"id":"xx388271_438437","name":"Yarımkaya Mahalle Camii","lat":38.827138,"lng":43.843689,"addr":"Van","type":"place_of_worship"},{"id":"xx389228_441475","name":"Yukarı Balçıklı Mahalle Camii","lat":38.922825,"lng":44.14753,"addr":"Van","type":"place_of_worship"},{"id":"xx385568_438258","name":"Yukarı Çavdarlık Mahalle Camii","lat":38.556757,"lng":43.825836,"addr":"Van","type":"place_of_worship"},{"id":"xx384700_439279","name":"Yarımağıl Mahalle Camii","lat":38.469993,"lng":43.927924,"addr":"Van","type":"place_of_worship"},{"id":"xx388719_441797","name":"Yukarı Koçkıran Mahalle Camii","lat":38.87189,"lng":44.179716,"addr":"Van","type":"place_of_worship"},{"id":"xx386260_438918","name":"Yukarı Mollahasan Mahalle Camii","lat":38.62599,"lng":43.891754,"addr":"Van","type":"place_of_worship"},{"id":"xx388672_440284","name":"Yukarı Yorganlı Mahalle Camii","lat":38.867246,"lng":44.028397,"addr":"Van","type":"place_of_worship"},{"id":"xx385488_438279","name":"Yukarı Çavdarlık Mahalle Aşağı Çavdarlık Yeni Camii","lat":38.548837,"lng":43.827896,"addr":"Van","type":"place_of_worship"},{"id":"xx387734_442591","name":"Yukarı Turgalı Mahalle Camii","lat":38.773358,"lng":44.25911,"addr":"Van","type":"place_of_worship"},{"id":"xx388556_439220","name":"Hacıali Mahalle Nurali Camii","lat":38.85555,"lng":43.921967,"addr":"Van","type":"place_of_worship"},{"id":"xx385178_438190","name":"Karlıyamaç Mahalle Camii","lat":38.517818,"lng":43.81897,"addr":"Van","type":"place_of_worship"},{"id":"xx385653_440033","name":"Kaşıkara Mahalle Camii","lat":38.565348,"lng":44.003334,"addr":"Van","type":"place_of_worship"},{"id":"xx387690_438832","name":"Kırkçalı Mahalle Ayderesi Camii","lat":38.769008,"lng":43.883214,"addr":"Van","type":"place_of_worship"},{"id":"xx387695_438819","name":"Kırkçalı Mahalle Camii","lat":38.769543,"lng":43.881926,"addr":"Van","type":"place_of_worship"},{"id":"xx386904_440504","name":"Memetalan Mahalle Camii","lat":38.6904,"lng":44.0504,"addr":"Van","type":"place_of_worship"},{"id":"xx386337_440878","name":"Mollatopuz Mahalle Taşkonak Camii","lat":38.633701,"lng":44.087789,"addr":"Van","type":"place_of_worship"},{"id":"xx385849_438856","name":"Morçiçek Mahalle Camii","lat":38.584941,"lng":43.885574,"addr":"Van","type":"place_of_worship"},{"id":"xx388624_439079","name":"Hacıali Mahalle Camii","lat":38.862434,"lng":43.90789,"addr":"Van","type":"place_of_worship"},{"id":"xx388095_441438","name":"Günyüzlü Mahalle Camii","lat":38.809483,"lng":44.143753,"addr":"Van","type":"place_of_worship"},{"id":"xx385675_439398","name":"Gültepe Mahalle Camii","lat":38.567495,"lng":43.939819,"addr":"Van","type":"place_of_worship"},{"id":"xx386744_442110","name":"Sırımlı Mahalle Hz. Ömer Camii","lat":38.674386,"lng":44.211042,"addr":"Van","type":"place_of_worship"},{"id":"xx385909_442553","name":"Beyaslan Mahalle Camii","lat":38.590896,"lng":44.255285,"addr":"Van","type":"place_of_worship"},{"id":"xx383969_442468","name":"Koçbaşı Mahalle Camii","lat":38.396887,"lng":44.246834,"addr":"Van","type":"place_of_worship"},{"id":"xx384754_441671","name":"Örenburç Mahalle Camii","lat":38.475363,"lng":44.167099,"addr":"Van","type":"place_of_worship"},{"id":"xx384275_440730","name":"Kargalı Mahalle Camii","lat":38.427521,"lng":44.073007,"addr":"Van","type":"place_of_worship"},{"id":"xx384951_442950","name":"Kapıköy Mahalle Camii","lat":38.495065,"lng":44.294965,"addr":"Van","type":"place_of_worship"},{"id":"xx383662_440977","name":"Kekikdüzü Mahalle Camii","lat":38.366156,"lng":44.097748,"addr":"Van","type":"place_of_worship"},{"id":"xx383998_440771","name":"Kepir Mahalle Camii","lat":38.399797,"lng":44.077148,"addr":"Van","type":"place_of_worship"},{"id":"xx386121_441248","name":"Dolutaş Mahalle Camii","lat":38.612059,"lng":44.124763,"addr":"Van","type":"place_of_worship"},{"id":"xx385187_441414","name":"Çaybağı Mahalle Camii","lat":38.518674,"lng":44.141393,"addr":"Van","type":"place_of_worship"},{"id":"xx386185_442670","name":"Kurucan Mahalle Camii","lat":38.61848,"lng":44.267006,"addr":"Van","type":"place_of_worship"},{"id":"xx383440_442327","name":"Turan Mahalle Camii","lat":38.343953,"lng":44.232727,"addr":"Van","type":"place_of_worship"},{"id":"xx383664_440662","name":"Yeşilalıç Mahalle Camii","lat":38.366425,"lng":44.066162,"addr":"Van","type":"place_of_worship"},{"id":"xx385015_441263","name":"Baltepe Mahalle Camii","lat":38.501497,"lng":44.12626,"addr":"Van","type":"place_of_worship"},{"id":"xx387344_442096","name":"Bakışık Mahalle Camii","lat":38.7344,"lng":44.2096,"addr":"Van","type":"place_of_worship"},{"id":"xx384042_440517","name":"Çakmak Mahalle Camii","lat":38.404202,"lng":44.051721,"addr":"Van","type":"place_of_worship"},{"id":"xx385200_440582","name":"Çardak Mahalle Camii","lat":38.519967,"lng":44.058201,"addr":"Van","type":"place_of_worship"},{"id":"xx385853_441582","name":"Değirmengöl Mahalle Camii","lat":38.58531,"lng":44.158194,"addr":"Van","type":"place_of_worship"},{"id":"xx387133_441879","name":"Güzeldere Mahalle Camii","lat":38.713309,"lng":44.187902,"addr":"Van","type":"place_of_worship"},{"id":"xx384998_441261","name":"İslamköy Mahalle Camii","lat":38.499835,"lng":44.126093,"addr":"Van","type":"place_of_worship"},{"id":"xx383860_441412","name":"Karahisar Mahalle Camii","lat":38.38604,"lng":44.141242,"addr":"Van","type":"place_of_worship"},{"id":"xx385522_442167","name":"Kazlıgöl Mahalle Camii","lat":38.552193,"lng":44.216709,"addr":"Van","type":"place_of_worship"},{"id":"xx385084_442426","name":"Keçikayası Mahalle Camii","lat":38.508415,"lng":44.24263,"addr":"Van","type":"place_of_worship"},{"id":"xx385385_441156","name":"Zincirkıran Mahalle Camii","lat":38.538499,"lng":44.115601,"addr":"Van","type":"place_of_worship"},{"id":"xx385444_442701","name":"Yamanyurt Mahalle Camii","lat":38.544406,"lng":44.270096,"addr":"Van","type":"place_of_worship"},{"id":"xx386732_442100","name":"Sırımlı Mahalle Camii","lat":38.673215,"lng":44.210036,"addr":"Van","type":"place_of_worship"},{"id":"xx386535_441752","name":"Kuba Camii","lat":38.6535,"lng":44.1752,"addr":"Van","type":"place_of_worship"},{"id":"xx386467_441707","name":"Kazımpaşa Mahalle Hicret Camii","lat":38.646737,"lng":44.170682,"addr":"Van","type":"place_of_worship"},{"id":"xx383251_434102","name":"Akpınar Camii","lat":38.325132,"lng":43.410233,"addr":"Van","type":"place_of_worship"},{"id":"xx383469_436298","name":"Zernek Mahalle Camii","lat":38.346873,"lng":43.629756,"addr":"Van","type":"place_of_worship"},{"id":"xx383384_434076","name":"İmam-Hatip Lisesi Mescidi","lat":38.338425,"lng":43.407637,"addr":"Van","type":"place_of_worship"},{"id":"xx381179_435118","name":"Örmeli Mahalle Elemeği Camii","lat":38.1179,"lng":43.5118,"addr":"Van","type":"place_of_worship"},{"id":"xx383164_438007","name":"Güzelsu Mahalle Evliyabey Medresesi Mescidi","lat":38.316432,"lng":43.800672,"addr":"Van","type":"place_of_worship"},{"id":"xx383320_439990","name":"Süngübayır Mahalle Camii","lat":38.331953,"lng":43.999045,"addr":"Van","type":"place_of_worship"},{"id":"xx383247_439426","name":"Sevindik Mahalle Toygun Camii","lat":38.3247,"lng":43.9426,"addr":"Van","type":"place_of_worship"},{"id":"xx384852_438062","name":"Umut Mahalle Üzengi Camii","lat":38.485178,"lng":43.806159,"addr":"Van","type":"place_of_worship"},{"id":"xx380291_433821","name":"Geçerli Mahalle Camii","lat":38.029095,"lng":43.382126,"addr":"Van","type":"place_of_worship"},{"id":"xx380267_433417","name":"Dokuzbaşak Mahalle Camii","lat":38.026736,"lng":43.341676,"addr":"Van","type":"place_of_worship"},{"id":"xx382464_437315","name":"Dikenli Mahalle Camii","lat":38.2464,"lng":43.7315,"addr":"Van","type":"place_of_worship"},{"id":"xx384678_439889","name":"Elaçmaz Mahalle Camii","lat":38.46782,"lng":43.988918,"addr":"Van","type":"place_of_worship"},{"id":"xx380257_436324","name":"Dolaylı Mahalle Camii","lat":38.025656,"lng":43.632387,"addr":"Van","type":"place_of_worship"},{"id":"xx381272_437928","name":"Düzgören Mahalle Camii","lat":38.127214,"lng":43.792847,"addr":"Van","type":"place_of_worship"},{"id":"xx380271_437924","name":"Tutak Mahalle Camii","lat":38.027067,"lng":43.792407,"addr":"Van","type":"place_of_worship"},{"id":"xx380501_433424","name":"Kapıdağı Mahalle Camii","lat":38.050136,"lng":43.342416,"addr":"Van","type":"place_of_worship"},{"id":"xx381994_437297","name":"Giyimli Mahalle Camii","lat":38.1994,"lng":43.7297,"addr":"Van","type":"place_of_worship"},{"id":"xx389739_436302","name":"Keçikıran Mahalle Hacı Ali Ak Camii","lat":38.973874,"lng":43.630247,"addr":"Van","type":"place_of_worship"},{"id":"xx390300_437982","name":"Y.Argıt Mahalle Camii","lat":39.03,"lng":43.7982,"addr":"Van","type":"place_of_worship"},{"id":"xx390371_437776","name":"Y.Argıt Mahalle Demirtepe Camii","lat":39.037103,"lng":43.777616,"addr":"Van","type":"place_of_worship"},{"id":"xx390629_437258","name":"Görecek Mahalle Saraç Camii","lat":39.062895,"lng":43.725751,"addr":"Van","type":"place_of_worship"},{"id":"xx391447_437268","name":"Devetaş Mahalle Mağara Camii","lat":39.1447,"lng":43.7268,"addr":"Van","type":"place_of_worship"},{"id":"xx390301_437980","name":"Y.Argıt Mahalle Dinçbaş Camii","lat":39.030052,"lng":43.797975,"addr":"Van","type":"place_of_worship"},{"id":"xx390893_438353","name":"Gümüştepe Mahalle Camii","lat":39.089331,"lng":43.835323,"addr":"Van","type":"place_of_worship"},{"id":"xx391519_436807","name":"Güllüçimen Mahalle Camii","lat":39.1519,"lng":43.6807,"addr":"Van","type":"place_of_worship"},{"id":"xx389566_437844","name":"Yakıncak Mahalle Camii","lat":38.956572,"lng":43.784371,"addr":"Van","type":"place_of_worship"},{"id":"xx389477_437186","name":"Yalındüz Mahalle Camii","lat":38.9477,"lng":43.7186,"addr":"Van","type":"place_of_worship"},{"id":"xx390631_438155","name":"Yukarı Argıt Mahalle Demirtepe Aşağı Camii","lat":39.063082,"lng":43.815513,"addr":"Van","type":"place_of_worship"},{"id":"xx390735_437629","name":"Y.Argıt Mahalle Yeniköy Camii","lat":39.073532,"lng":43.762858,"addr":"Van","type":"place_of_worship"},{"id":"xx389859_435988","name":"Ünseli Mahalle Fevzi Çakmak Camii","lat":38.9859,"lng":43.5988,"addr":"Van","type":"place_of_worship"},{"id":"xx389330_437699","name":"Yumaklı Mahalle Camii","lat":38.933041,"lng":43.76987,"addr":"Van","type":"place_of_worship"},{"id":"xx389875_435829","name":"Ünseli Mahalle Ahmedi Hani Camii","lat":38.98746,"lng":43.582922,"addr":"Van","type":"place_of_worship"},{"id":"xx389842_435807","name":"Ünseli Mahalle Bey Camii","lat":38.98424,"lng":43.58068,"addr":"Van","type":"place_of_worship"},{"id":"xx389231_436566","name":"Ovapınar Mahalle Camii","lat":38.9231,"lng":43.6566,"addr":"Van","type":"place_of_worship"},{"id":"xx390349_437409","name":"Kemerköprü Mahalle Camii","lat":39.034853,"lng":43.740932,"addr":"Van","type":"place_of_worship"},{"id":"xx388000_436454","name":"Kuşçu Mahalle Camii","lat":38.800002,"lng":43.645396,"addr":"Van","type":"place_of_worship"},{"id":"xx391349_436974","name":"Karavil Mahalle Camii","lat":39.134854,"lng":43.697442,"addr":"Van","type":"place_of_worship"},{"id":"xx388882_437319","name":"Uluşar Mahalle Zinzirli Camii","lat":38.88821,"lng":43.731869,"addr":"Van","type":"place_of_worship"},{"id":"xx388875_437376","name":"Uluşar Mahalle Camii","lat":38.887492,"lng":43.737622,"addr":"Van","type":"place_of_worship"},{"id":"xx388860_437094","name":"Topuzarpa Mahalle Camii","lat":38.886022,"lng":43.709441,"addr":"Van","type":"place_of_worship"},{"id":"xx387865_436856","name":"Sürüyolu Mahalle Camii","lat":38.786489,"lng":43.685597,"addr":"Van","type":"place_of_worship"},{"id":"xx389539_436719","name":"Karahan Mahalle Hacı Şevket Camii","lat":38.953859,"lng":43.671928,"addr":"Van","type":"place_of_worship"},{"id":"xx388599_437722","name":"Beşparmak Mahalle Camii","lat":38.859895,"lng":43.772226,"addr":"Van","type":"place_of_worship"},{"id":"xx389169_437846","name":"Beydağı Mahalle Aşağı  Camii","lat":38.916907,"lng":43.784648,"addr":"Van","type":"place_of_worship"},{"id":"xx390876_437861","name":"Tansu Mahalle Camii","lat":39.087619,"lng":43.786071,"addr":"Van","type":"place_of_worship"},{"id":"xx387859_437188","name":"Sarımehmet Mahalle Camii","lat":38.78587,"lng":43.71884,"addr":"Van","type":"place_of_worship"},{"id":"xx389091_436613","name":"Ovapınar Mahalle Eski Camii","lat":38.909126,"lng":43.661254,"addr":"Van","type":"place_of_worship"},{"id":"xx389744_437769","name":"M.Küçükköy Mahalle Camii","lat":38.9744,"lng":43.7769,"addr":"Van","type":"place_of_worship"},{"id":"xx389319_437219","name":"Köşk Mahalle Camii","lat":38.931914,"lng":43.721927,"addr":"Van","type":"place_of_worship"},{"id":"xx388888_437052","name":"Topuzarpa Mahalle Aşağı  Camii","lat":38.888828,"lng":43.705162,"addr":"Van","type":"place_of_worship"},{"id":"xx390885_438219","name":"Gönderme Mahalle Değirmen Camii","lat":39.088525,"lng":43.821879,"addr":"Van","type":"place_of_worship"},{"id":"xx390902_437930","name":"Gönderme Mahalle Köprüüstü Camii","lat":39.0902,"lng":43.793,"addr":"Van","type":"place_of_worship"},{"id":"xx389167_437832","name":"Beydağı Mahalle Camii","lat":38.916682,"lng":43.783195,"addr":"Van","type":"place_of_worship"},{"id":"xx390906_438114","name":"Gönderme Mahalle Yeni Camii","lat":39.090615,"lng":43.811373,"addr":"Van","type":"place_of_worship"},{"id":"xx390583_437537","name":"Görecek Mahalle Değerbilir Camii","lat":39.058321,"lng":43.753662,"addr":"Van","type":"place_of_worship"},{"id":"xx389114_438437","name":"Gültepe Mahalle Camii","lat":38.911389,"lng":43.843697,"addr":"Van","type":"place_of_worship"},{"id":"xx388213_438058","name":"Çakmak Mahalle Camii","lat":38.821335,"lng":43.805837,"addr":"Van","type":"place_of_worship"},{"id":"xx391846_437167","name":"Çiçekli Mahalle Camii","lat":39.184635,"lng":43.716681,"addr":"Van","type":"place_of_worship"},{"id":"xx387792_437737","name":"Dağören Mahalle Camii","lat":38.779229,"lng":43.77367,"addr":"Van","type":"place_of_worship"},{"id":"xx390827_437446","name":"Görecek Mahalle Camii","lat":39.082729,"lng":43.744589,"addr":"Van","type":"place_of_worship"},{"id":"xx391220_437396","name":"Devetaş Mahalle Camii","lat":39.12197,"lng":43.739628,"addr":"Van","type":"place_of_worship"},{"id":"xx391210_437203","name":"Devetaş Mahalle Çotuklu Camii","lat":39.120976,"lng":43.720322,"addr":"Van","type":"place_of_worship"},{"id":"xx391457_437434","name":"Devetaş Mahalle Mikail Camii","lat":39.145692,"lng":43.743389,"addr":"Van","type":"place_of_worship"},{"id":"xx391522_437187","name":"Devetaş Mahalle Sabunsatan Camii","lat":39.152159,"lng":43.718673,"addr":"Van","type":"place_of_worship"},{"id":"xx387665_437168","name":"Doğangün Mahalle Camii","lat":38.766515,"lng":43.716784,"addr":"Van","type":"place_of_worship"},{"id":"xx389563_436817","name":"Dürükkaş Mahalle Camii","lat":38.956297,"lng":43.681692,"addr":"Van","type":"place_of_worship"},{"id":"xx388327_436546","name":"Esenkoç Mahalle Camii","lat":38.832654,"lng":43.654647,"addr":"Van","type":"place_of_worship"},{"id":"xx391024_437694","name":"Babacan Mahalle Camii","lat":39.102416,"lng":43.769418,"addr":"Van","type":"place_of_worship"},{"id":"xx390918_438137","name":"Gönderme Mahalle Camii","lat":39.0918,"lng":43.8137,"addr":"Van","type":"place_of_worship"},{"id":"xx388204_436958","name":"Akbulak Mahalle Camii","lat":38.820418,"lng":43.695803,"addr":"Van","type":"place_of_worship"},{"id":"xx389283_438356","name":"Adaklı Mahalle Camii","lat":38.928336,"lng":43.83565,"addr":"Van","type":"place_of_worship"},{"id":"xx389780_436461","name":"Alkasnak Mahalle Camii","lat":38.978008,"lng":43.646109,"addr":"Van","type":"place_of_worship"},{"id":"xx387908_438115","name":"Akçaçay Mahalle Camii","lat":38.790791,"lng":43.811496,"addr":"Van","type":"place_of_worship"},{"id":"xx390362_437776","name":"A.Argıt Mahalle Camii","lat":39.036188,"lng":43.77765,"addr":"Van","type":"place_of_worship"},{"id":"xx389768_437748","name":"Ebul Kasım Camii","lat":38.9768,"lng":43.7748,"addr":"Van","type":"place_of_worship"},{"id":"xx390271_437508","name":"Kandahar Mahalle Vadi Camii","lat":39.027104,"lng":43.750763,"addr":"Van","type":"place_of_worship"},{"id":"xx389814_437550","name":"Yavuzselim Mahalle Hz.Ali Camii","lat":38.981351,"lng":43.754959,"addr":"Van","type":"place_of_worship"},{"id":"xx389978_437675","name":"Merkez Baraj Mahalle Camii","lat":38.997775,"lng":43.76754,"addr":"Van","type":"place_of_worship"},{"id":"xx389886_437672","name":"Geylani Camii","lat":38.98864,"lng":43.767173,"addr":"Van","type":"place_of_worship"},{"id":"xx389733_437591","name":"Şehit Şeref Mehmet Camii","lat":38.97329,"lng":43.759088,"addr":"Van","type":"place_of_worship"},{"id":"xx390022_437552","name":"M.Kandahar Mahalle Camii","lat":39.002154,"lng":43.755221,"addr":"Van","type":"place_of_worship"},{"id":"xx389795_437740","name":"Karaoğlan Mahalle Camii","lat":38.979495,"lng":43.773992,"addr":"Van","type":"place_of_worship"},{"id":"xx383248_428601","name":"Değirmitaş Mahalle Dervişbey Camii","lat":38.324791,"lng":42.860125,"addr":"Van","type":"place_of_worship"},{"id":"xx382942_431502","name":"Atalan Mahalle Seyda Molla Nezir Camii","lat":38.2942,"lng":43.1502,"addr":"Van","type":"place_of_worship"},{"id":"xx382930_431232","name":"Bediuzzaman Sikal Camii","lat":38.293035,"lng":43.123166,"addr":"Van","type":"place_of_worship"},{"id":"xx382977_429075","name":"Bağlama Mahalle Seyyid Hüseyin Arvas Mescidi","lat":38.2977,"lng":42.9075,"addr":"Van","type":"place_of_worship"},{"id":"xx382962_431388","name":"Selahaddin Eyyubi Camii","lat":38.296202,"lng":43.138753,"addr":"Van","type":"place_of_worship"},{"id":"xx382918_431008","name":"Hz.Ebubekir Camii","lat":38.291766,"lng":43.100804,"addr":"Van","type":"place_of_worship"},{"id":"xx382948_431480","name":"Mela Hüseyin Batei","lat":38.294812,"lng":43.147956,"addr":"Van","type":"place_of_worship"},{"id":"xx382873_431043","name":"İmam Şafii","lat":38.287309,"lng":43.104279,"addr":"Van","type":"place_of_worship"},{"id":"xx382915_427877","name":"Anaköy Mahalle Tatlıca Camii","lat":38.29152,"lng":42.787714,"addr":"Van","type":"place_of_worship"},{"id":"xx383422_428941","name":"Hasbey Mahalle Camii","lat":38.342195,"lng":42.894144,"addr":"Van","type":"place_of_worship"},{"id":"xx383450_429159","name":"Göründü Mahalle Camii","lat":38.345039,"lng":42.915924,"addr":"Van","type":"place_of_worship"},{"id":"xx384066_428918","name":"Altınsaç Mahalle Camii","lat":38.406573,"lng":42.891762,"addr":"Van","type":"place_of_worship"},{"id":"xx382774_427603","name":"Anaköy Mahalle Beşadım Camii","lat":38.2774,"lng":42.7603,"addr":"Van","type":"place_of_worship"},{"id":"xx383023_427403","name":"Duruklu Mahalle Camii","lat":38.302264,"lng":42.740336,"addr":"Van","type":"place_of_worship"},{"id":"xx382947_430272","name":"Dokuzağaç Mahalle Camii","lat":38.294652,"lng":43.027164,"addr":"Van","type":"place_of_worship"},{"id":"xx382831_427594","name":"Anaköy Mahalle Camii","lat":38.283082,"lng":42.759351,"addr":"Van","type":"place_of_worship"},{"id":"xx382466_430450","name":"İliköy Mahalle Camii","lat":38.246573,"lng":43.045017,"addr":"Van","type":"place_of_worship"},{"id":"xx382971_429602","name":"Dilmetaş Mahalle Camii","lat":38.297111,"lng":42.960225,"addr":"Van","type":"place_of_worship"},{"id":"xx382997_428066","name":"Anaköy Mahalle Çığır Camii","lat":38.29967,"lng":42.806622,"addr":"Van","type":"place_of_worship"},{"id":"xx383593_428465","name":"Karşıgecit Mahalle Camii","lat":38.359292,"lng":42.846491,"addr":"Van","type":"place_of_worship"},{"id":"xx382973_431484","name":"Atalan Mahalle Camii","lat":38.297347,"lng":43.148418,"addr":"Van","type":"place_of_worship"},{"id":"xx382665_429103","name":"Kocak Mahalle Camii","lat":38.26654,"lng":42.910293,"addr":"Van","type":"place_of_worship"},{"id":"xx382980_429089","name":"Bağlama Mahalle Camii","lat":38.297953,"lng":42.908932,"addr":"Van","type":"place_of_worship"},{"id":"xx382798_429339","name":"Kurultu Mahalle Camii","lat":38.279814,"lng":42.933948,"addr":"Van","type":"place_of_worship"},{"id":"xx383510_428382","name":"Balaban Mahalle Camii","lat":38.351013,"lng":42.838165,"addr":"Van","type":"place_of_worship"},{"id":"xx383433_428497","name":"Değirmitaş Mahalle Camii","lat":38.343322,"lng":42.849705,"addr":"Van","type":"place_of_worship"},{"id":"xx383517_428162","name":"Kuşluk Mahalle Camii","lat":38.351652,"lng":42.816167,"addr":"Van","type":"place_of_worship"},{"id":"xx383854_428030","name":"Barışık Mahalle Camii","lat":38.385367,"lng":42.802972,"addr":"Van","type":"place_of_worship"},{"id":"xx383511_428327","name":"Kuşluk Mahalle Yenimahalle Camii","lat":38.351131,"lng":42.832732,"addr":"Van","type":"place_of_worship"},{"id":"xx382852_428268","name":"Töreli Mahalle Camii","lat":38.285238,"lng":42.826831,"addr":"Van","type":"place_of_worship"},{"id":"xx383395_431677","name":"Uğurveren Mahalle Camii","lat":38.339519,"lng":43.167687,"addr":"Van","type":"place_of_worship"},{"id":"xx383325_429691","name":"Uysal Mahalle Dereağzı Camii","lat":38.332467,"lng":42.969074,"addr":"Van","type":"place_of_worship"},{"id":"xx383202_429570","name":"Uysal Mahalle Işıklar Camii","lat":38.320229,"lng":42.957037,"addr":"Van","type":"place_of_worship"},{"id":"xx383257_429799","name":"Uysal Mahalle İskele Camii","lat":38.3257,"lng":42.9799,"addr":"Van","type":"place_of_worship"},{"id":"xx383224_429659","name":"Uysal Mahalle Mevlana Camii","lat":38.322367,"lng":42.965866,"addr":"Van","type":"place_of_worship"},{"id":"xx382577_428966","name":"Yanıkçay Mahalle Camii","lat":38.257728,"lng":42.89659,"addr":"Van","type":"place_of_worship"},{"id":"xx383020_429377","name":"Yemişlik Mahalle Güneş Camii","lat":38.301952,"lng":42.937746,"addr":"Van","type":"place_of_worship"},{"id":"xx383910_428034","name":"Yoldöndü Mahalle Camii","lat":38.391001,"lng":42.803443,"addr":"Van","type":"place_of_worship"},{"id":"xx383203_429065","name":"Yuva Mahalle Camii","lat":38.320338,"lng":42.906504,"addr":"Van","type":"place_of_worship"},{"id":"xx382930_432960","name":"Gündoğan Mahalle Camii","lat":38.293002,"lng":43.296029,"addr":"Van","type":"place_of_worship"},{"id":"xx383105_429800","name":"Güzelkonak Mahalle Camii","lat":38.310481,"lng":42.980043,"addr":"Van","type":"place_of_worship"},{"id":"xx383021_432470","name":"Kızıltaş Mahalle Camii","lat":38.302146,"lng":43.246985,"addr":"Van","type":"place_of_worship"},{"id":"xx383979_428276","name":"Timar Mahalle Camii","lat":38.39788,"lng":42.827647,"addr":"Van","type":"place_of_worship"},{"id":"xx390049_439596","name":"Salahane Mahallecamii","lat":39.004912,"lng":43.959629,"addr":"Van","type":"place_of_worship"},{"id":"xx391323_440890","name":"Osmanlı Mahalle Camii","lat":39.132291,"lng":44.08901,"addr":"Van","type":"place_of_worship"},{"id":"xx391808_440323","name":"Burçakalan Mahalle Camii","lat":39.180834,"lng":44.032345,"addr":"Van","type":"place_of_worship"},{"id":"xx391298_439395","name":"Kalkandelen Mahalle Camii","lat":39.129794,"lng":43.939536,"addr":"Van","type":"place_of_worship"},{"id":"xx390695_438885","name":"Kurtoğlan Mahalle Camii","lat":39.069492,"lng":43.888546,"addr":"Van","type":"place_of_worship"},{"id":"xx391542_441040","name":"Sarıçimen Mahalle Dere Camii","lat":39.15425,"lng":44.10398,"addr":"Van","type":"place_of_worship"},{"id":"xx391554_441039","name":"Sarıçimen Mahalle Gündoğdu Camii","lat":39.155398,"lng":44.103901,"addr":"Van","type":"place_of_worship"},{"id":"xx391894_439123","name":"Serpmetaş Mahalle Camii","lat":39.189381,"lng":43.912272,"addr":"Van","type":"place_of_worship"},{"id":"xx392502_440404","name":"Soğuksu Mahalle Camii","lat":39.250177,"lng":44.040353,"addr":"Van","type":"place_of_worship"},{"id":"xx392471_440421","name":"Soğuksu Mahalle Gülüzar Camii","lat":39.247144,"lng":44.04213,"addr":"Van","type":"place_of_worship"},{"id":"xx392503_440456","name":"Soğuksu Mahalle Uzunyol Camii","lat":39.250334,"lng":44.045563,"addr":"Van","type":"place_of_worship"},{"id":"xx392018_438762","name":"Kuskunkıran Mahalle Seyitova Camii","lat":39.20178,"lng":43.876171,"addr":"Van","type":"place_of_worship"},{"id":"xx391945_438823","name":"Kuskunkıran Mahallecamii","lat":39.19448,"lng":43.882278,"addr":"Van","type":"place_of_worship"},{"id":"xx391756_439584","name":"Aşağı Mutlu Mahalle Camii","lat":39.175556,"lng":43.958402,"addr":"Van","type":"place_of_worship"},{"id":"xx390427_441240","name":"Aşağı Gülderen Mahalle Doğuvan Camii","lat":39.042715,"lng":44.123954,"addr":"Van","type":"place_of_worship"},{"id":"xx389629_439800","name":"Çayır Mahalle Camii","lat":38.962879,"lng":43.979988,"addr":"Van","type":"place_of_worship"},{"id":"xx391817_440603","name":"Hangedik Mahalle Camii","lat":39.181708,"lng":44.060326,"addr":"Van","type":"place_of_worship"},{"id":"xx390844_440940","name":"Çubuklu Mahalle Camii","lat":39.084421,"lng":44.094036,"addr":"Van","type":"place_of_worship"},{"id":"xx391719_438856","name":"Erginler Mahalle Camii","lat":39.17186,"lng":43.885623,"addr":"Van","type":"place_of_worship"},{"id":"xx389551_440762","name":"Gülyolu Mahalle Camii","lat":38.955112,"lng":44.076241,"addr":"Van","type":"place_of_worship"},{"id":"xx391820_440018","name":"Demircik Mahalle Camii","lat":39.181974,"lng":44.001789,"addr":"Van","type":"place_of_worship"},{"id":"xx389568_440170","name":"Direkli Mahalle Camii","lat":38.956756,"lng":44.017011,"addr":"Van","type":"place_of_worship"},{"id":"xx390036_439294","name":"Evciler Mahalle Camii","lat":39.003611,"lng":43.929365,"addr":"Van","type":"place_of_worship"},{"id":"xx391314_439908","name":"Han Mahalle Camii","lat":39.131358,"lng":43.990777,"addr":"Van","type":"place_of_worship"},{"id":"xx391865_440570","name":"Hangedik Mahalle Toki Camii","lat":39.186531,"lng":44.056957,"addr":"Van","type":"place_of_worship"},{"id":"xx390281_441031","name":"İsmailbaba Mahalle Camii","lat":39.028102,"lng":44.103134,"addr":"Van","type":"place_of_worship"},{"id":"xx391406_439536","name":"Kalkandelen Mahalle Oruçlu Camii","lat":39.140646,"lng":43.953595,"addr":"Van","type":"place_of_worship"},{"id":"xx389904_440951","name":"Aşağı Dikme Mahalle Camii","lat":38.990389,"lng":44.095138,"addr":"Van","type":"place_of_worship"},{"id":"xx390400_441277","name":"Aşağı Gülderen Mahalle Camii","lat":39.039957,"lng":44.127727,"addr":"Van","type":"place_of_worship"},{"id":"xx392339_438949","name":"Aşağı Yanıktaş Mahalle Camii","lat":39.233942,"lng":43.894936,"addr":"Van","type":"place_of_worship"},{"id":"xx390752_439137","name":"Avcıbaşı Mahalle Camii","lat":39.075243,"lng":43.91371,"addr":"Van","type":"place_of_worship"},{"id":"xx390267_441494","name":"Beydoğan Mahalle Camii","lat":39.026652,"lng":44.149447,"addr":"Van","type":"place_of_worship"},{"id":"xx391514_440299","name":"Başeğmez Mahalle Camii","lat":39.151363,"lng":44.029942,"addr":"Van","type":"place_of_worship"},{"id":"xx390304_441461","name":"Beydoğan Mahalle 2. Camii","lat":39.030369,"lng":44.146079,"addr":"Van","type":"place_of_worship"},{"id":"xx391005_440125","name":"Bezirhane Mahalle Camii","lat":39.100506,"lng":44.012518,"addr":"Van","type":"place_of_worship"},{"id":"xx391024_440744","name":"Çubuklu Mahalle Çoraklı Camii","lat":39.102432,"lng":44.074438,"addr":"Van","type":"place_of_worship"},{"id":"xx392197_440391","name":"Alakaya Mahalle Camii","lat":39.21972,"lng":44.03914,"addr":"Van","type":"place_of_worship"},{"id":"xx391556_439101","name":"Nur Muhammed Camii","lat":39.155622,"lng":43.910122,"addr":"Van","type":"place_of_worship"},{"id":"xx391402_439001","name":"Fatih Camii","lat":39.140213,"lng":43.900123,"addr":"Van","type":"place_of_worship"},{"id":"xx391394_439038","name":"Hacı Celil Camii","lat":39.139381,"lng":43.90377,"addr":"Van","type":"place_of_worship"},{"id":"xx391301_439178","name":"Hacı Veli Camii","lat":39.13006,"lng":43.917847,"addr":"Van","type":"place_of_worship"},{"id":"xx391407_439004","name":"Mezarlık Camii","lat":39.140652,"lng":43.90038,"addr":"Van","type":"place_of_worship"},{"id":"xx378220_432261","name":"Sırmalı Mahalle Beğendik Camii","lat":37.821989,"lng":43.226061,"addr":"Van","type":"place_of_worship"},{"id":"xx379280_429817","name":"Kaçit Mahalle Sak Camii","lat":37.927951,"lng":42.981726,"addr":"Van","type":"place_of_worship"},{"id":"xx380259_431522","name":"Alacayar Mahalle Baltacı Camii","lat":38.025928,"lng":43.152191,"addr":"Van","type":"place_of_worship"},{"id":"xx380391_431265","name":"Eliaçık Mahalle Camii","lat":38.039076,"lng":43.126489,"addr":"Van","type":"place_of_worship"},{"id":"xx378720_430513","name":"Konalga Mahalle Camii","lat":37.871995,"lng":43.051348,"addr":"Van","type":"place_of_worship"},{"id":"xx381202_431220","name":"Yapılı Mahalle Camii","lat":38.120167,"lng":43.122026,"addr":"Van","type":"place_of_worship"},{"id":"xx380400_430356","name":"Akçabük Mahalle Camii","lat":38.039963,"lng":43.035623,"addr":"Van","type":"place_of_worship"},{"id":"xx380338_430291","name":"Akçabük Mahalle Ekenek Camii","lat":38.033845,"lng":43.029113,"addr":"Van","type":"place_of_worship"},{"id":"xx380347_431656","name":"Alacayar Mahalle Çemik Camii","lat":38.034707,"lng":43.165558,"addr":"Van","type":"place_of_worship"},{"id":"xx380394_430274","name":"Akçabük Mahalle Ubeyt Camii","lat":38.039371,"lng":43.027361,"addr":"Van","type":"place_of_worship"},{"id":"xx381321_430965","name":"Aşağı Narlıca Mahalle Camii","lat":38.132084,"lng":43.096473,"addr":"Van","type":"place_of_worship"},{"id":"xx379389_427977","name":"Atlıhan Mahalle Kenali Camii","lat":37.9389,"lng":42.7977,"addr":"Van","type":"place_of_worship"},{"id":"xx381578_431896","name":"Ağaçlık Mahalle Camii","lat":38.157753,"lng":43.18957,"addr":"Van","type":"place_of_worship"},{"id":"xx379013_428563","name":"Atlıhan Mahalle Büyükağaç Camii","lat":37.901331,"lng":42.856297,"addr":"Van","type":"place_of_worship"},{"id":"xx381277_430385","name":"Yukarı Narlıca Mahalle Camii","lat":38.127746,"lng":43.038524,"addr":"Van","type":"place_of_worship"},{"id":"xx381431_432268","name":"Teknecik Mahalle Saygın Camii","lat":38.143143,"lng":43.226794,"addr":"Van","type":"place_of_worship"},{"id":"xx379974_430587","name":"Toyga Mahalle Samanlı Camii","lat":37.997414,"lng":43.058681,"addr":"Van","type":"place_of_worship"},{"id":"xx381016_433170","name":"Üçyüzler Mahalle Camii","lat":38.101595,"lng":43.316961,"addr":"Van","type":"place_of_worship"},{"id":"xx381573_430810","name":"Uzuntekne Mahalle Camii","lat":38.157313,"lng":43.081023,"addr":"Van","type":"place_of_worship"},{"id":"xx382128_430770","name":"Uzuntekne Mahalle İçimli Camii","lat":38.212778,"lng":43.077039,"addr":"Van","type":"place_of_worship"},{"id":"xx380346_431218","name":"Eliaçık Mahalle Sarıgöz Camii","lat":38.034561,"lng":43.121826,"addr":"Van","type":"place_of_worship"},{"id":"xx382274_432555","name":"Onağıl Mahalle Camii","lat":38.227431,"lng":43.255472,"addr":"Van","type":"place_of_worship"},{"id":"xx379337_428270","name":"Atlıhan Mahalle Alakaynak Camii","lat":37.93375,"lng":42.827027,"addr":"Van","type":"place_of_worship"},{"id":"xx379326_429884","name":"Kaçit Mahalle Camii","lat":37.932578,"lng":42.98843,"addr":"Van","type":"place_of_worship"},{"id":"xx380823_430757","name":"Akçabük Mahalle Elmacı Camii","lat":38.082284,"lng":43.075692,"addr":"Van","type":"place_of_worship"},{"id":"xx381718_432295","name":"Boyunpınar Mahalle Camii","lat":38.171763,"lng":43.229478,"addr":"Van","type":"place_of_worship"},{"id":"xx380088_429382","name":"Korulu Mahalle Albucak Camii","lat":38.00881,"lng":42.938218,"addr":"Van","type":"place_of_worship"},{"id":"xx379088_428541","name":"Övecek Mahalle Kıyıcak Camii","lat":37.908772,"lng":42.854147,"addr":"Van","type":"place_of_worship"},{"id":"xx378363_432164","name":"Sırmalı Mahalle Camii","lat":37.836276,"lng":43.216352,"addr":"Van","type":"place_of_worship"},{"id":"xx379898_430805","name":"Sözveren Mahalle Camii","lat":37.989762,"lng":43.080508,"addr":"Van","type":"place_of_worship"},{"id":"xx381417_432106","name":"Teknecik Mahalle Camii","lat":38.141746,"lng":43.210638,"addr":"Van","type":"place_of_worship"},{"id":"xx378811_429895","name":"Sugeldi Mahalle Camii","lat":37.881078,"lng":42.989459,"addr":"Van","type":"place_of_worship"},{"id":"xx380439_431899","name":"Alacayar Mahalle Aş.Durak Camii","lat":38.043926,"lng":43.189889,"addr":"Van","type":"place_of_worship"},{"id":"xx380350_431658","name":"Alacayar Mahalle Durak Camii","lat":38.03496,"lng":43.165813,"addr":"Van","type":"place_of_worship"},{"id":"xx380375_431423","name":"Eliaçık Mahalle Gürağaç Camii","lat":38.037481,"lng":43.142334,"addr":"Van","type":"place_of_worship"},{"id":"xx380905_431121","name":"Işınlı Mahalle Hz.Ebuzer-İ Gıfari Camii","lat":38.090543,"lng":43.112057,"addr":"Van","type":"place_of_worship"},{"id":"xx378862_429699","name":"Narlı Mahalle Camii","lat":37.886182,"lng":42.969935,"addr":"Van","type":"place_of_worship"},{"id":"xx381929_432337","name":"Onağıl Mahalle Derebaşı Camii","lat":38.1929,"lng":43.2337,"addr":"Van","type":"place_of_worship"},{"id":"xx380006_429418","name":"Sığırcık Mahalle Camii","lat":38.000599,"lng":42.941831,"addr":"Van","type":"place_of_worship"},{"id":"xx380153_431143","name":"Sözveren Mahalle Kirazlı Camii","lat":38.015336,"lng":43.114317,"addr":"Van","type":"place_of_worship"},{"id":"xx380207_431421","name":"Alacayer Mahalle Karakavak Camii","lat":38.020705,"lng":43.142131,"addr":"Van","type":"place_of_worship"},{"id":"xx380959_432598","name":"Bilgi Mahalle Camii","lat":38.095922,"lng":43.259789,"addr":"Van","type":"place_of_worship"},{"id":"xx380215_429646","name":"Çılga Mahalle Camii","lat":38.02154,"lng":42.964611,"addr":"Van","type":"place_of_worship"},{"id":"xx379038_429418","name":"Dalbastı Mahalle Camii","lat":37.90382,"lng":42.941795,"addr":"Van","type":"place_of_worship"},{"id":"xx381398_431848","name":"Görentaş Mahalle Ş.M.Tayyar Camii","lat":38.139839,"lng":43.184833,"addr":"Van","type":"place_of_worship"},{"id":"xx380377_431054","name":"Işınlı Mahalle Camii","lat":38.037715,"lng":43.105433,"addr":"Van","type":"place_of_worship"},{"id":"xx380419_430476","name":"Akçabük Mahalle Değirmen Camii","lat":38.041906,"lng":43.047646,"addr":"Van","type":"place_of_worship"},{"id":"xx380890_430970","name":"Işınlı Mahalle Yeni Camii","lat":38.08904,"lng":43.096996,"addr":"Van","type":"place_of_worship"},{"id":"xx380091_429736","name":"Korulu Mahalle Yuvarlıçam Camii","lat":38.009064,"lng":42.973563,"addr":"Van","type":"place_of_worship"},{"id":"xx380140_430558","name":"Bahçelievler Camii","lat":38.014034,"lng":43.055765,"addr":"Van","type":"place_of_worship"},{"id":"xx380011_430597","name":"Yeşil Camii","lat":38.001134,"lng":43.059694,"addr":"Van","type":"place_of_worship"},{"id":"xx380146_430751","name":"Y.Karşıyaka Mahalle Camii","lat":38.014643,"lng":43.075084,"addr":"Van","type":"place_of_worship"},{"id":"xx380119_430752","name":"Karşıyaka Mahalle Camii","lat":38.0119,"lng":43.0752,"addr":"Van","type":"place_of_worship"},{"id":"xx380126_430499","name":"Alaçam Mahalle Camii","lat":38.012563,"lng":43.049901,"addr":"Van","type":"place_of_worship"},{"id":"xx380502_430514","name":"Karşıyaka Mahalle Ağaçköprü Camii","lat":38.050186,"lng":43.051394,"addr":"Van","type":"place_of_worship"},{"id":"xx380076_430637","name":"Selçuklu Mahalle Camii","lat":38.007576,"lng":43.063707,"addr":"Van","type":"place_of_worship"},{"id":"xx384199_432813","name":"Mehmet Yaşar Camii","lat":38.4199,"lng":43.2813,"addr":"Van","type":"place_of_worship"},{"id":"xx384204_433055","name":"Selahaddin-İ Eyyübi Camii","lat":38.4204,"lng":43.3055,"addr":"Van","type":"place_of_worship"},{"id":"xx384403_433239","name":"Ahmed-İ Hani Camii","lat":38.4403,"lng":43.3239,"addr":"Van","type":"place_of_worship"},{"id":"xx384476_433386","name":"Ebuzer El-Ğıfari Camii","lat":38.4476,"lng":43.3386,"addr":"Van","type":"place_of_worship"},{"id":"xx384047_432819","name":"İhh Mescidi","lat":38.4047,"lng":43.2819,"addr":"Van","type":"place_of_worship"},{"id":"xx384672_433832","name":"Selmanı Farisi Camii","lat":38.4672,"lng":43.3832,"addr":"Van","type":"place_of_worship"},{"id":"xx384716_433580","name":"Abdullah Bin Abbas Camii","lat":38.471562,"lng":43.357985,"addr":"Van","type":"place_of_worship"},{"id":"xx384826_433328","name":"Eminpaşa Zinnureyn Camii","lat":38.4826,"lng":43.3328,"addr":"Van","type":"place_of_worship"},{"id":"xx383628_431568","name":"Köşk Mahalle Konut Camii","lat":38.362793,"lng":43.156781,"addr":"Van","type":"place_of_worship"},{"id":"xx384875_433502","name":"Hz.Nuh Camii","lat":38.4875,"lng":43.3502,"addr":"Van","type":"place_of_worship"},{"id":"xx383365_432904","name":"Köklü Mahalle Camii","lat":38.336508,"lng":43.290434,"addr":"Van","type":"place_of_worship"},{"id":"xx383143_432702","name":"Köprüler Mahalle Kardeşler Camii","lat":38.314294,"lng":43.270241,"addr":"Van","type":"place_of_worship"},{"id":"xx383586_431501","name":"Köşk Mahalle Camii","lat":38.358589,"lng":43.150078,"addr":"Van","type":"place_of_worship"},{"id":"xx383782_433139","name":"Ayazpınar Mahalle Camii","lat":38.378241,"lng":43.31386,"addr":"Van","type":"place_of_worship"},{"id":"xx384349_433377","name":"Bakacık Mahalle Camii","lat":38.4349,"lng":43.3377,"addr":"Van","type":"place_of_worship"},{"id":"xx383516_432436","name":"Çayırbaşı Mahalle Camii","lat":38.351575,"lng":43.24364,"addr":"Van","type":"place_of_worship"},{"id":"xx383882_431881","name":"Çiçekli Mahalle Hidroelektrik Santralı Camii","lat":38.388236,"lng":43.188131,"addr":"Van","type":"place_of_worship"},{"id":"xx383673_431878","name":"Çiçekli Mahalle Hz.Ömer Camii","lat":38.367309,"lng":43.187779,"addr":"Van","type":"place_of_worship"},{"id":"xx383941_431958","name":"Çiçekli Mahalle Kıyıcak Hz.Osman Camii","lat":38.394117,"lng":43.195792,"addr":"Van","type":"place_of_worship"},{"id":"xx383614_431472","name":"Dilkaya Mahalle Camii","lat":38.36141,"lng":43.147158,"addr":"Van","type":"place_of_worship"},{"id":"xx383658_431659","name":"Dilkaya Mahalle Mevlana Camii","lat":38.36579,"lng":43.165907,"addr":"Van","type":"place_of_worship"},{"id":"xx383370_431837","name":"Andaç Mahalle Camii","lat":38.337011,"lng":43.183749,"addr":"Van","type":"place_of_worship"},{"id":"xx384626_433585","name":"Habiburrahman Camii","lat":38.462602,"lng":43.35852,"addr":"Van","type":"place_of_worship"},{"id":"xx384767_433362","name":"Fidanlık H.Mehmet Yurt Camii","lat":38.476715,"lng":43.336194,"addr":"Van","type":"place_of_worship"},{"id":"xx384773_433580","name":"Köy Hizmetleri Bölge Müdürlüğü Camii","lat":38.47726,"lng":43.357981,"addr":"Van","type":"place_of_worship"},{"id":"xx384626_434059","name":"Kurubaş Mahalle Hacı Yahya Camii","lat":38.46262,"lng":43.405867,"addr":"Van","type":"place_of_worship"},{"id":"xx384675_433994","name":"Yukarı Su Deposu Camii","lat":38.467499,"lng":43.399386,"addr":"Van","type":"place_of_worship"},{"id":"xx384553_434095","name":"Kurubaş Mahalle Camii","lat":38.45529,"lng":43.409512,"addr":"Van","type":"place_of_worship"},{"id":"xx384839_433494","name":"Yeni Eminpaşa Camii","lat":38.483875,"lng":43.349354,"addr":"Van","type":"place_of_worship"},{"id":"xx384788_433628","name":"Şehadet Camii","lat":38.478811,"lng":43.362825,"addr":"Van","type":"place_of_worship"},{"id":"xx384529_433365","name":"Üçevler Camii","lat":38.452921,"lng":43.336501,"addr":"Van","type":"place_of_worship"},{"id":"xx384523_433275","name":"Zümrüt Camii","lat":38.4523,"lng":43.3275,"addr":"Van","type":"place_of_worship"},{"id":"xx384898_433393","name":"Mehmetağa Camii","lat":38.489783,"lng":43.339307,"addr":"Van","type":"place_of_worship"},{"id":"xx384908_433388","name":"Sefa Camii","lat":38.490808,"lng":43.338822,"addr":"Van","type":"place_of_worship"},{"id":"xx384580_433437","name":"Muhacirler Camii","lat":38.457991,"lng":43.343664,"addr":"Van","type":"place_of_worship"},{"id":"xx384766_433732","name":"Müşerref Camii","lat":38.476594,"lng":43.373168,"addr":"Van","type":"place_of_worship"},{"id":"xx384691_433696","name":"Pınar Camii","lat":38.469128,"lng":43.369581,"addr":"Van","type":"place_of_worship"},{"id":"xx384624_433380","name":"Otogalericiler Sitesi Camii","lat":38.462376,"lng":43.338048,"addr":"Van","type":"place_of_worship"},{"id":"xx384614_433607","name":"Kavurma Mahalle Camii","lat":38.461419,"lng":43.360677,"addr":"Van","type":"place_of_worship"},{"id":"xx384688_433375","name":"Havaalanı Mescidi","lat":38.46882,"lng":43.337481,"addr":"Van","type":"place_of_worship"},{"id":"xx384754_433601","name":"Hacı Salih Camii","lat":38.475443,"lng":43.360054,"addr":"Van","type":"place_of_worship"},{"id":"xx384731_433617","name":"Hacı Ali Sağdinç Camii","lat":38.473118,"lng":43.361714,"addr":"Van","type":"place_of_worship"},{"id":"xx384823_433295","name":"Hacı Abdurrahman Camii","lat":38.482286,"lng":43.329488,"addr":"Van","type":"place_of_worship"},{"id":"xx384528_433445","name":"Eyyüp Sultan Camii","lat":38.452767,"lng":43.344523,"addr":"Van","type":"place_of_worship"},{"id":"xx384795_433603","name":"Hacı Cemil İmamoğlu Camii","lat":38.479498,"lng":43.360303,"addr":"Van","type":"place_of_worship"},{"id":"xx384847_433400","name":"Hacı Yusuf Kırmızıtaş Camii","lat":38.484698,"lng":43.339956,"addr":"Van","type":"place_of_worship"},{"id":"xx384784_433530","name":"Hacı Şükrü Menzilcioğlu Camii","lat":38.4784,"lng":43.353,"addr":"Van","type":"place_of_worship"},{"id":"xx384779_433757","name":"Ensar Camii","lat":38.477868,"lng":43.375722,"addr":"Van","type":"place_of_worship"},{"id":"xx384121_433733","name":"Akın Mahalle Camii","lat":38.412084,"lng":43.373281,"addr":"Van","type":"place_of_worship"},{"id":"xx384602_433417","name":"Eğitim Ve Araştırma Hastahanesi Mescidi","lat":38.4602,"lng":43.3417,"addr":"Van","type":"place_of_worship"},{"id":"xx384092_432196","name":"Güzelkent Camii","lat":38.409205,"lng":43.219567,"addr":"Van","type":"place_of_worship"},{"id":"xx384277_433131","name":"Hira Camii","lat":38.427694,"lng":43.313058,"addr":"Van","type":"place_of_worship"},{"id":"xx384117_433082","name":"Elmalık Mahalle Hz.Ali Camii","lat":38.411699,"lng":43.308212,"addr":"Van","type":"place_of_worship"},{"id":"xx384271_433052","name":"Yeni Mahalle Hacı İbrahim Camii","lat":38.427105,"lng":43.305228,"addr":"Van","type":"place_of_worship"},{"id":"xx384244_432761","name":"Yeni Mahalle Camii","lat":38.424445,"lng":43.276069,"addr":"Van","type":"place_of_worship"},{"id":"xx384246_432983","name":"Hicret Camii","lat":38.424636,"lng":43.298347,"addr":"Van","type":"place_of_worship"},{"id":"xx384378_433182","name":"Vahide Hatun Camii","lat":38.437825,"lng":43.318154,"addr":"Van","type":"place_of_worship"},{"id":"xx384217_432466","name":"Atik Camii","lat":38.421697,"lng":43.246621,"addr":"Van","type":"place_of_worship"},{"id":"xx391042_435056","name":"Pay Mahalle Tırmıklı Camii","lat":39.104156,"lng":43.505602,"addr":"Van","type":"place_of_worship"},{"id":"xx391050_435078","name":"Pay Mahalle Camii","lat":39.104951,"lng":43.507818,"addr":"Van","type":"place_of_worship"},{"id":"xx392343_432333","name":"Evbeyli Mahalle Camii","lat":39.234347,"lng":43.233304,"addr":"Van","type":"place_of_worship"},{"id":"xx391124_434861","name":"Hocaali Mahalle Camii","lat":39.112362,"lng":43.48605,"addr":"Van","type":"place_of_worship"},{"id":"xx390286_432256","name":"Görüşlü Mahalle Cihangören Camii","lat":39.028584,"lng":43.225566,"addr":"Van","type":"place_of_worship"},{"id":"xx391376_432150","name":"Deliçay Mahalle Camii","lat":39.137583,"lng":43.215022,"addr":"Van","type":"place_of_worship"},{"id":"xx391171_432450","name":"Abdalmezrası Mahalle Ziyaret Camii","lat":39.117093,"lng":43.245044,"addr":"Van","type":"place_of_worship"},{"id":"xx390628_432486","name":"Akbaş Mahalle Camii","lat":39.062761,"lng":43.248617,"addr":"Van","type":"place_of_worship"},{"id":"xx390178_431219","name":"Çimen Mahalle Camii","lat":39.017781,"lng":43.121881,"addr":"Van","type":"place_of_worship"},{"id":"xx392382_433836","name":"Doluca Mahalle Camii","lat":39.23819,"lng":43.383634,"addr":"Van","type":"place_of_worship"},{"id":"xx389835_433121","name":"Çelebibağı Mahalle Camii","lat":38.983492,"lng":43.312105,"addr":"Van","type":"place_of_worship"},{"id":"xx390507_435301","name":"Topraklı Mahalle Tezgelen Camii","lat":39.050714,"lng":43.530087,"addr":"Van","type":"place_of_worship"},{"id":"xx392475_432669","name":"Kardoğan Mahalle Camii","lat":39.247484,"lng":43.26686,"addr":"Van","type":"place_of_worship"},{"id":"xx391615_434235","name":"Yünören Mahalle Camii","lat":39.161479,"lng":43.423466,"addr":"Van","type":"place_of_worship"},{"id":"xx391042_430589","name":"Ortayayla Mahalle Maral Camii","lat":39.104233,"lng":43.058918,"addr":"Van","type":"place_of_worship"},{"id":"xx390961_433583","name":"Oyalı Mahalle Camii","lat":39.096086,"lng":43.358297,"addr":"Van","type":"place_of_worship"},{"id":"xx391783_431866","name":"Pınarlı Mahalle Meydanboğazı Camii","lat":39.178281,"lng":43.186584,"addr":"Van","type":"place_of_worship"},{"id":"xx390587_432231","name":"Yoldere Mahalle Camii","lat":39.058717,"lng":43.223082,"addr":"Van","type":"place_of_worship"},{"id":"xx391639_434503","name":"Sabanbüken Mahalle Camii","lat":39.163868,"lng":43.450291,"addr":"Van","type":"place_of_worship"},{"id":"xx390159_435702","name":"Yukarı Kozluca Mahalle Yeni Camii","lat":39.015901,"lng":43.570201,"addr":"Van","type":"place_of_worship"},{"id":"xx390448_434334","name":"Salmanağa Mahalle Camii","lat":39.044836,"lng":43.433358,"addr":"Van","type":"place_of_worship"},{"id":"xx392432_432933","name":"Söğütlü Mahalle Camii","lat":39.243156,"lng":43.293261,"addr":"Van","type":"place_of_worship"},{"id":"xx390714_433434","name":"Yukarı Işıklı Mahalle Mollaabdullah Camii","lat":39.071352,"lng":43.343441,"addr":"Van","type":"place_of_worship"},{"id":"xx392335_434182","name":"Şehirpazarı Mahalle Camii","lat":39.233456,"lng":43.418227,"addr":"Van","type":"place_of_worship"},{"id":"xx390651_433380","name":"Yukarı Işıklı Mahalle İrşat Camii","lat":39.065086,"lng":43.338023,"addr":"Van","type":"place_of_worship"},{"id":"xx390562_430437","name":"Şerefli Mahalle Camii","lat":39.056192,"lng":43.043678,"addr":"Van","type":"place_of_worship"},{"id":"xx390686_433338","name":"Yukarı Işıklı Mahalle Hz.Ali Camii","lat":39.068572,"lng":43.33376,"addr":"Van","type":"place_of_worship"},{"id":"xx390899_430622","name":"Ortayayla Mahalle Camii","lat":39.08994,"lng":43.062201,"addr":"Van","type":"place_of_worship"},{"id":"xx391054_435114","name":"Pay Mahalle Afetleri Camii","lat":39.105405,"lng":43.511364,"addr":"Van","type":"place_of_worship"},{"id":"xx391526_431896","name":"Pınarlı Mahalle Camii","lat":39.152551,"lng":43.189648,"addr":"Van","type":"place_of_worship"},{"id":"xx392337_432384","name":"Mağara Mahalle Camii","lat":39.233683,"lng":43.238368,"addr":"Van","type":"place_of_worship"},{"id":"xx391289_435458","name":"Kızılören Mahalle Camii","lat":39.128906,"lng":43.545817,"addr":"Van","type":"place_of_worship"},{"id":"xx390305_431227","name":"Taşevler Mahalle Taşboğa Camii","lat":39.030494,"lng":43.122747,"addr":"Van","type":"place_of_worship"},{"id":"xx390673_433391","name":"Yukarı Işıklı Mahalle Camii","lat":39.067312,"lng":43.339088,"addr":"Van","type":"place_of_worship"},{"id":"xx389081_433872","name":"Taşevler Mahalle Camii","lat":38.908133,"lng":43.387207,"addr":"Van","type":"place_of_worship"},{"id":"xx391575_434356","name":"Yılanlı Mahalle Camii","lat":39.157486,"lng":43.435568,"addr":"Van","type":"place_of_worship"},