[{"id":"xx371546_489896","name":"امامزاده عون بن علی","lat":37.154609,"lng":48.98963,"addr":"","type":"imamzadeh"},{"id":"xx390237_480782","name":"مسجد جامع گرمی","lat":39.023734,"lng":48.078187,"addr":"","type":"place_of_worship"},{"id":"xx382057_461129","name":"Islamic place","lat":38.205661,"lng":46.112896,"addr":"","type":"place_of_worship"},{"id":"xx371166_498676","name":"لمش","lat":37.116629,"lng":49.867562,"addr":"","type":"place_of_worship"},{"id":"xx382937_469322","name":"Islamic place","lat":38.293667,"lng":46.932156,"addr":"","type":"place_of_worship"},{"id":"xx382957_469318","name":"Islamic place","lat":38.295692,"lng":46.931818,"addr":"","type":"place_of_worship"},{"id":"xx383915_476771","name":"مسجد فاطمیه","lat":38.391452,"lng":47.677103,"addr":"","type":"mosque"},{"id":"xx372627_495893","name":"مسجد فاطمیه","lat":37.262665,"lng":49.589309,"addr":"","type":"place_of_worship"},{"id":"xx352702_469971","name":"مسجد بدر","lat":35.270219,"lng":46.997109,"addr":"","type":"place_of_worship"},{"id":"xx353163_470221","name":"مسجد فرجه","lat":35.316337,"lng":47.022087,"addr":"","type":"place_of_worship"},{"id":"xx353095_469990","name":"Islamic place","lat":35.309462,"lng":46.998986,"addr":"","type":"place_of_worship"},{"id":"xx353089_470007","name":"Islamic place","lat":35.308902,"lng":47.000724,"addr":"","type":"place_of_worship"},{"id":"xx353047_470065","name":"هدی - فرهنگ","lat":35.304746,"lng":47.006494,"addr":"","type":"school"},{"id":"xx353117_470066","name":"تکیه شیخ هادی","lat":35.311662,"lng":47.006641,"addr":"","type":"place_of_worship"},{"id":"xx353092_470095","name":"Islamic place","lat":35.309238,"lng":47.009455,"addr":"","type":"place_of_worship"},{"id":"xx353163_470076","name":"پیر محمد","lat":35.316299,"lng":47.00758,"addr":"","type":"place_of_worship"},{"id":"xx353171_470075","name":"مسجد ملک نیا - جبار","lat":35.317129,"lng":47.007538,"addr":"","type":"place_of_worship"},{"id":"xx353306_470082","name":"مسجد دانشگاه تربیت معلم","lat":35.330649,"lng":47.0082,"addr":"","type":"place_of_worship"},{"id":"xx353179_470001","name":"مسجد داروغه","lat":35.317944,"lng":47.000141,"addr":"","type":"place_of_worship"},{"id":"xx353141_469966","name":"مسجد ملا ویسی","lat":35.314075,"lng":46.996603,"addr":"","type":"place_of_worship"},{"id":"xx353126_470021","name":"Islamic place","lat":35.312647,"lng":47.002143,"addr":"","type":"place_of_worship"},{"id":"xx353037_469969","name":"مسجد ادب","lat":35.303653,"lng":46.996897,"addr":"","type":"place_of_worship"},{"id":"xx353119_469913","name":"مسجد باقر خان وکیل","lat":35.311869,"lng":46.991251,"addr":"","type":"place_of_worship"},{"id":"xx353147_469916","name":"مسجد وکیل السلطان","lat":35.314727,"lng":46.991601,"addr":"","type":"place_of_worship"},{"id":"xx353274_469904","name":"مسجد شهدا","lat":35.32736,"lng":46.990355,"addr":"","type":"place_of_worship"},{"id":"xx353174_469845","name":"مسجد النبی","lat":35.317353,"lng":46.984529,"addr":"","type":"place_of_worship"},{"id":"xx353219_469420","name":"خضر زنده","lat":35.3219,"lng":46.941977,"addr":"","type":"place_of_worship"},{"id":"xx353129_469769","name":"مسجد مبارک آباد","lat":35.312859,"lng":46.976862,"addr":"","type":"place_of_worship"},{"id":"xx353109_469725","name":"مسجد نور","lat":35.310859,"lng":46.972519,"addr":"","type":"place_of_worship"},{"id":"xx352990_469893","name":"مسجد خالد ابن ولید","lat":35.298955,"lng":46.989286,"addr":"","type":"place_of_worship"},{"id":"xx352961_469873","name":"مسجد سلمان فارسی","lat":35.296056,"lng":46.987318,"addr":"","type":"place_of_worship"},{"id":"xx352578_469932","name":"مسجد خیبر","lat":35.257831,"lng":46.99315,"addr":"","type":"place_of_worship"},{"id":"xx352702_470046","name":"مسجد سراج","lat":35.270236,"lng":47.00459,"addr":"","type":"place_of_worship"},{"id":"xx353306_469942","name":"مقبره شیخ سلام","lat":35.330583,"lng":46.994184,"addr":"","type":"place_of_worship"},{"id":"xx381517_480691","name":"مسجد جامع سرعین","lat":38.151685,"lng":48.069113,"addr":"","type":"place_of_worship"},{"id":"xx375410_450914","name":"مسجد امام حسین (ع)","lat":37.540982,"lng":45.091381,"addr":"ارومیه","type":"place_of_worship"},{"id":"xx366565_484997","name":"(مسجد حضرت رقیه (س","lat":36.656518,"lng":48.499698,"addr":"","type":"place_of_worship"},{"id":"xx386977_471165","name":"Teymur Şahın Anasının Qəbri","lat":38.697658,"lng":47.116492,"addr":"kəleybər-Has","type":"place_of_worship"},{"id":"xx373429_460692","name":"مسجد رسول اکرم","lat":37.342936,"lng":46.069194,"addr":"بناب","type":"place_of_worship"},{"id":"xx375439_450901","name":"مسجد و حسینیه اعظم علی ابن موسی الرضا (ع)","lat":37.543909,"lng":45.090065,"addr":"","type":"place_of_worship"},{"id":"xx374220_452406","name":"مسجد روستای حسن آباد","lat":37.42204,"lng":45.240594,"addr":"","type":"place_of_worship"},{"id":"xx375430_450792","name":"مسجد ولیعصر","lat":37.542982,"lng":45.07921,"addr":"","type":"place_of_worship"},{"id":"xx375457_450922","name":"مسجد امام رضای شاهرخ آباد","lat":37.54569,"lng":45.092184,"addr":"","type":"place_of_worship"},{"id":"xx375656_450660","name":"مسجد آیت الله طالقانی","lat":37.5656,"lng":45.066001,"addr":"خرمشهر","type":"place_of_worship"},{"id":"xx355380_461473","name":"قبر درویش","lat":35.538046,"lng":46.147298,"addr":"","type":"place_of_worship"},{"id":"xx355258_461755","name":"مسجد هژاره","lat":35.52579,"lng":46.175505,"addr":"","type":"place_of_worship"},{"id":"xx355245_461712","name":"مسجد حاجی نجیم","lat":35.524523,"lng":46.171232,"addr":"","type":"place_of_worship"},{"id":"xx355310_461771","name":"مسجد جلال بارنامه","lat":35.531001,"lng":46.177147,"addr":"کمربندی","type":"place_of_worship"},{"id":"xx355189_461679","name":"مسجد صلاح الدین ایوبی","lat":35.518926,"lng":46.16787,"addr":"","type":"place_of_worship"},{"id":"xx369503_453845","name":"مسجد حاجی عزیز","lat":36.95028,"lng":45.384472,"addr":"","type":"place_of_worship"},{"id":"xx372193_500000","name":"مسجد امام حسن مجتبی (ع)","lat":37.219313,"lng":49.999968,"addr":"","type":"place_of_worship"},{"id":"xx352663_462311","name":"مسجد جامع که مالا","lat":35.266258,"lng":46.231117,"addr":"","type":"place_of_worship"},{"id":"xx354694_461993","name":"Islamic place","lat":35.469388,"lng":46.199311,"addr":"","type":"place_of_worship"},{"id":"xx369911_456545","name":"مزگه وتی  چوار یاری نبی","lat":36.991076,"lng":45.654464,"addr":"","type":"place_of_worship"},{"id":"xx372101_499975","name":"مسجد خمیر کلایه","lat":37.210132,"lng":49.997523,"addr":"","type":"place_of_worship"},{"id":"xx351212_489803","name":"نمازخانه","lat":35.121249,"lng":48.980347,"addr":"","type":"place_of_worship"},{"id":"xx351152_489720","name":"مسجد","lat":35.115201,"lng":48.971974,"addr":"","type":"place_of_worship"},{"id":"xx372677_495573","name":"مسجد الغدیر","lat":37.267686,"lng":49.557347,"addr":"","type":"place_of_worship"},{"id":"xx351184_489718","name":"مسجد","lat":35.118427,"lng":48.971814,"addr":"","type":"place_of_worship"},{"id":"xx375474_450303","name":"مسجد امام علی","lat":37.547435,"lng":45.030258,"addr":"","type":"place_of_worship"},{"id":"xx355196_461989","name":"مسجد مولوی کرد","lat":35.51955,"lng":46.198896,"addr":"","type":"place_of_worship"},{"id":"xx359901_458891","name":"شیخ السلام","lat":35.990069,"lng":45.889053,"addr":"","type":"place_of_worship"},{"id":"xx355260_461841","name":"مسجد حضرت ایوب","lat":35.526038,"lng":46.184128,"addr":"","type":"place_of_worship"},{"id":"xx377351_461525","name":"مسجد صخره ای روستا","lat":37.735107,"lng":46.152492,"addr":"مجارشین","type":"place_of_worship"},{"id":"xx376834_471925","name":"Islamic place","lat":37.683361,"lng":47.192532,"addr":"","type":"place_of_worship"},{"id":"xx376525_471913","name":"شهید بهمنی","lat":37.652453,"lng":47.19131,"addr":"","type":"place_of_worship"},{"id":"xx374620_495086","name":"حرم مطهر بی بی حوریه","lat":37.461989,"lng":49.508579,"addr":"","type":"place_of_worship"},{"id":"xx374631_494884","name":"سید نجفی","lat":37.463146,"lng":49.488373,"addr":"","type":"place_of_worship"},{"id":"xx374747_494525","name":"مسجد قائمیه","lat":37.474669,"lng":49.452463,"addr":"","type":"place_of_worship"},{"id":"xx374719_494561","name":"ولیعصر","lat":37.471928,"lng":49.456111,"addr":"","type":"place_of_worship"},{"id":"xx380455_462027","name":"مسجد صاحب الزمان (عج)","lat":38.045529,"lng":46.202674,"addr":"تبریز","type":"place_of_worship"},{"id":"xx380455_461991","name":"مسجد موسی بن جعفر(ع)","lat":38.045465,"lng":46.199133,"addr":"","type":"place_of_worship"},{"id":"xx360442_485103","name":"مسجد زینبیه","lat":36.044166,"lng":48.510297,"addr":"","type":"place_of_worship"},{"id":"xx360445_485004","name":"حسینیه تاریخی کرسف","lat":36.044546,"lng":48.500369,"addr":"","type":"place_of_worship"},{"id":"xx374701_494790","name":"مسجد سیدالشهدا","lat":37.470087,"lng":49.479007,"addr":"","type":"place_of_worship"},{"id":"xx372081_499824","name":"مسجدعلی ابن موسی الرضا","lat":37.208064,"lng":49.98245,"addr":"","type":"place_of_worship"},{"id":"xx360169_486463","name":"مسجد","lat":36.016914,"lng":48.646291,"addr":"","type":"place_of_worship"},{"id":"xx355238_461747","name":"مسجد حضرت حمزه","lat":35.523822,"lng":46.174722,"addr":"","type":"place_of_worship"},{"id":"xx355207_461781","name":"مسجد حضرت ابراهیم","lat":35.520741,"lng":46.178121,"addr":"","type":"place_of_worship"},{"id":"xx380823_462482","name":"مسجد النبی","lat":38.08227,"lng":46.248152,"addr":"","type":"place_of_worship"},{"id":"xx380668_462482","name":"مسجد امام حسن","lat":38.066785,"lng":46.248229,"addr":"","type":"place_of_worship"},{"id":"xx380672_462441","name":"مسجد حاج علی خطیب","lat":38.067237,"lng":46.244084,"addr":"","type":"place_of_worship"},{"id":"xx380680_462433","name":"محوطه متعلق به مسجد امام خمینی","lat":38.068008,"lng":46.243296,"addr":"","type":"place_of_worship"},{"id":"xx380105_464769","name":"المهدی","lat":38.010516,"lng":46.476883,"addr":"","type":"place_of_worship"},{"id":"xx380597_462694","name":"الهادی","lat":38.059674,"lng":46.269431,"addr":"","type":"place_of_worship"},{"id":"xx380780_462782","name":"مسجد حاج آقا بالا","lat":38.07805,"lng":46.278158,"addr":"","type":"place_of_worship"},{"id":"xx380764_462701","name":"حاج قئیمعلی","lat":38.076425,"lng":46.270095,"addr":"","type":"place_of_worship"},{"id":"xx380764_462675","name":"الله وردی خان","lat":38.076437,"lng":46.267479,"addr":"","type":"place_of_worship"},{"id":"xx362730_499990","name":"حلیمه و رمیمه خاتون","lat":36.273044,"lng":49.99897,"addr":"","type":"place_of_worship"},{"id":"xx362702_499985","name":"آقا سید علی","lat":36.270223,"lng":49.998532,"addr":"","type":"place_of_worship"},{"id":"xx362748_499985","name":"مسجد شیشه گر","lat":36.274781,"lng":49.998525,"addr":"بوعلی سینا","type":"place_of_worship"},{"id":"xx380511_462049","name":"نمازخانه","lat":38.051114,"lng":46.204865,"addr":"","type":"place_of_worship"},{"id":"xx367723_499697","name":"امامزاده ابراهیم","lat":36.772298,"lng":49.969656,"addr":"جلیسه - کلیشم","type":"place_of_worship"},{"id":"xx380228_461466","name":"مسجد امامزاده سردرود","lat":38.022804,"lng":46.146592,"addr":"سردرود","type":"place_of_worship"},{"id":"xx380400_463560","name":"مسجد امام رضا","lat":38.04,"lng":46.356019,"addr":"تبریز","type":"place_of_worship"},{"id":"xx380774_463636","name":"امام علی","lat":38.077401,"lng":46.36363,"addr":"","type":"place_of_worship"},{"id":"xx380771_462863","name":"مسجد فاطمیه","lat":38.077092,"lng":46.286313,"addr":"","type":"place_of_worship"},{"id":"xx380828_462908","name":"امامزاده سیدجمال","lat":38.082814,"lng":46.290831,"addr":"","type":"place_of_worship"},{"id":"xx380437_463875","name":"مسجد علی ولی الله","lat":38.043726,"lng":46.387469,"addr":"","type":"place_of_worship"},{"id":"xx380797_462544","name":"بقیة الله الاعظم","lat":38.0797,"lng":46.254401,"addr":"","type":"place_of_worship"},{"id":"xx372745_495678","name":"چمارسرا","lat":37.27445,"lng":49.567768,"addr":"","type":"place_of_worship"},{"id":"xx380314_463802","name":"مسجد قدس","lat":38.031436,"lng":46.380208,"addr":"تبریز","type":"place_of_worship"},{"id":"xx380359_463770","name":"مسجد نور","lat":38.035908,"lng":46.377049,"addr":"","type":"place_of_worship"},{"id":"xx380418_463205","name":"بقیه الله","lat":38.041782,"lng":46.320501,"addr":"","type":"place_of_worship"},{"id":"xx379923_461144","name":"Islamic place","lat":37.99226,"lng":46.114385,"addr":"","type":"place_of_worship"},{"id":"xx379942_461064","name":"Islamic place","lat":37.994219,"lng":46.10642,"addr":"","type":"place_of_worship"},{"id":"xx362818_475902","name":"قورت دره","lat":36.2818,"lng":47.5902,"addr":"","type":"mosque"},{"id":"xx380300_463858","name":"مسجد ولایت","lat":38.030001,"lng":46.385846,"addr":"","type":"place_of_worship"},{"id":"xx383059_460319","name":"Islamic place","lat":38.305886,"lng":46.031946,"addr":"","type":"place_of_worship"},{"id":"xx380615_462430","name":"مسجد امام موسی بن جعفر","lat":38.061502,"lng":46.24297,"addr":"","type":"place_of_worship"},{"id":"xx381768_462235","name":"Islamic place","lat":38.176848,"lng":46.22353,"addr":"","type":"place_of_worship"},{"id":"xx386217_464139","name":"امامزاده ابراهیم خلیل","lat":38.621679,"lng":46.413935,"addr":"","type":"place_of_worship"},{"id":"xx381166_462840","name":"مسجد حاج علی اکبر","lat":38.116595,"lng":46.284019,"addr":"","type":"place_of_worship"},{"id":"xx372050_499966","name":"مسجد حضرت زهرا","lat":37.205021,"lng":49.996624,"addr":"","type":"place_of_worship"},{"id":"xx372087_499965","name":"حسینه حضرت فاطمه زهرا","lat":37.208725,"lng":49.996454,"addr":"","type":"place_of_worship"},{"id":"xx372128_499988","name":"مسجد امام جعفر صادق","lat":37.212784,"lng":49.998818,"addr":"","type":"place_of_worship"},{"id":"xx372077_499958","name":"مسجد ولیعصر کاروانسرابر","lat":37.207705,"lng":49.995818,"addr":"","type":"place_of_worship"},{"id":"xx372051_499998","name":"مسجد","lat":37.205057,"lng":49.999847,"addr":"","type":"place_of_worship"},{"id":"xx367263_494096","name":"مسجد اهل البیت","lat":36.726329,"lng":49.409595,"addr":"","type":"place_of_worship"},{"id":"xx371025_496579","name":"نمازخانه مجتمع خدماتی و رفاهی باران","lat":37.102494,"lng":49.657922,"addr":"","type":"place_of_worship"},{"id":"xx381170_462487","name":"نمازخانه","lat":38.116956,"lng":46.248674,"addr":"","type":"place_of_worship"},{"id":"xx380977_462762","name":"Islamic place","lat":38.097742,"lng":46.276208,"addr":"","type":"place_of_worship"},{"id":"xx380705_462789","name":"ملا علی اکبر","lat":38.070521,"lng":46.278938,"addr":"","type":"place_of_worship"},{"id":"xx381224_462432","name":"Islamic place","lat":38.122381,"lng":46.243157,"addr":"","type":"place_of_worship"},{"id":"xx379391_459790","name":"ولیعصر","lat":37.939126,"lng":45.979018,"addr":"ایلخچی","type":"place_of_worship"},{"id":"xx380740_462724","name":"حسینیه شهیدان آذرآبادی حق","lat":38.074016,"lng":46.272416,"addr":"","type":"place_of_worship"},{"id":"xx381214_462891","name":"مسجد حضرت صاحب الزمان","lat":38.121407,"lng":46.289116,"addr":"","type":"place_of_worship"},{"id":"xx380525_462665","name":"مسجد حضرت علی","lat":38.052514,"lng":46.266499,"addr":"تبریز","type":"place_of_worship"},{"id":"xx379433_459817","name":"مسجد جامع ایلخچی","lat":37.943327,"lng":45.981699,"addr":"ایلخچی","type":"place_of_worship"},{"id":"xx379249_461135","name":"مسجد جامع میلان","lat":37.924858,"lng":46.113535,"addr":"خیابان میلان","type":"place_of_worship"},{"id":"xx379098_461236","name":"امامزاده سید حسین بن عبدالغفار","lat":37.909824,"lng":46.123648,"addr":"خیابان شهدا","type":"shrine"},{"id":"xx381531_457290","name":"مسجد جامع دیزج خلیل","lat":38.153057,"lng":45.729047,"addr":"شبستر روستای دیزج خلیل میدان دیزه","type":"place_of_worship"},{"id":"xx382817_459824","name":"مسجد ولیعصر","lat":38.281677,"lng":45.982376,"addr":"صوفیان","type":"place_of_worship"},{"id":"xx378392_459752","name":"مسجد امام رضا","lat":37.839179,"lng":45.97521,"addr":"","type":"place_of_worship"},{"id":"xx378433_459727","name":"مسجد امیرالمومنین","lat":37.843337,"lng":45.972716,"addr":"ممقان","type":"place_of_worship"},{"id":"xx378426_459756","name":"مسجد امام خمینی (ره)","lat":37.842578,"lng":45.97561,"addr":"","type":"place_of_worship"},{"id":"xx378443_459722","name":"مسجد ارزن","lat":37.844333,"lng":45.972153,"addr":"ممقان","type":"place_of_worship"},{"id":"xx379140_461222","name":"مسجد حاجی قره","lat":37.913961,"lng":46.122205,"addr":"اسکو","type":"place_of_worship"},{"id":"xx379147_461248","name":"مسجد حنیفه","lat":37.914722,"lng":46.124783,"addr":"اسکو","type":"place_of_worship"},{"id":"xx362714_499972","name":"حاج موسی","lat":36.271391,"lng":49.997202,"addr":"sa'adiسعدی","type":"place_of_worship"},{"id":"xx363120_499282","name":"نمازخانه","lat":36.31202,"lng":49.928237,"addr":"","type":"place_of_worship"},{"id":"xx374760_470493","name":"مسجد حضرت سیدالشهدا (ع)","lat":37.475965,"lng":47.049271,"addr":"امام خمینی","type":"place_of_worship"},{"id":"xx380937_462637","name":"مسجد دینی","lat":38.093697,"lng":46.263716,"addr":"حجتی - استاد جعفری","type":"place_of_worship"},{"id":"xx380253_463688","name":"Islamic place","lat":38.025264,"lng":46.368834,"addr":"","type":"place_of_worship"},{"id":"xx381953_456303","name":"مسجد حاج حسین خامنه","lat":38.195334,"lng":45.630275,"addr":"خامنه","type":"place_of_worship"},{"id":"xx389382_456283","name":"مسجد جامع صاحب الزمان جلفا","lat":38.938158,"lng":45.628276,"addr":"جلفا","type":"place_of_worship"},{"id":"xx381829_456977","name":"مسجد امام حسین","lat":38.182857,"lng":45.69768,"addr":"","type":"place_of_worship"},{"id":"xx376342_450378","name":"مسجد جامع بالو","lat":37.634216,"lng":45.037754,"addr":"","type":"place_of_worship"},{"id":"xx384742_470609","name":"حاجی معین","lat":38.474228,"lng":47.06095,"addr":"","type":"place_of_worship"},{"id":"xx380272_463811","name":"مسجد امام خمینی","lat":38.027211,"lng":46.381126,"addr":"تبریز","type":"place_of_worship"},{"id":"xx375750_450630","name":"مسجد ام البنین (س)","lat":37.575031,"lng":45.062984,"addr":"","type":"place_of_worship"},{"id":"xx382159_456297","name":"مسجد جامع","lat":38.215937,"lng":45.629749,"addr":"","type":"place_of_worship"},{"id":"xx373973_470553","name":"Islamic place","lat":37.397283,"lng":47.055267,"addr":"","type":"place_of_worship"},{"id":"xx381291_457116","name":"مسجد صاحب الزمان","lat":38.129094,"lng":45.711551,"addr":"وایقان","type":"place_of_worship"},{"id":"xx371618_460918","name":"مسجذ ولیعصر","lat":37.161818,"lng":46.091848,"addr":"","type":"place_of_worship"},{"id":"xx380235_461474","name":"مسجد امام خمینی","lat":38.023527,"lng":46.147446,"addr":"سردرود","type":"place_of_worship"},{"id":"xx365068_462051","name":"مسجد قباء","lat":36.506824,"lng":46.205064,"addr":"","type":"place_of_worship"},{"id":"xx380888_462378","name":"مسجد امام رضا","lat":38.088832,"lng":46.237761,"addr":"امیر کبیر","type":"place_of_worship"},{"id":"xx379556_461027","name":"مسجد فاطمه الزهرا","lat":37.955628,"lng":46.102652,"addr":"سهند","type":"place_of_worship"},{"id":"xx376165_485269","name":"مسجد قائمیه","lat":37.616515,"lng":48.526893,"addr":"خلخال","type":"place_of_worship"},{"id":"xx377353_461536","name":"مسجد جامع","lat":37.735261,"lng":46.153618,"addr":"مجارشین","type":"place_of_worship"},{"id":"xx378055_458990","name":"مسجد سیدالشهدا","lat":37.80549,"lng":45.899039,"addr":"","type":"place_of_worship"},{"id":"xx353214_470227","name":"مسجد باب الاسلام","lat":35.321432,"lng":47.022655,"addr":"","type":"place_of_worship"},{"id":"xx380402_463783","name":"نمازخانه بوستان شمیم پایداری","lat":38.040207,"lng":46.378342,"addr":"تبریز","type":"place_of_worship"},{"id":"xx377767_459421","name":"مسجد حضرت ولیعصر","lat":37.776664,"lng":45.942096,"addr":"","type":"place_of_worship"},{"id":"xx377756_459392","name":"مسجد جامع قاضی جهان","lat":37.775585,"lng":45.939239,"addr":"","type":"place_of_worship"},{"id":"xx377752_459382","name":"مسجد حضرت ابولفضل (ع)","lat":37.775221,"lng":45.938212,"addr":"","type":"place_of_worship"},{"id":"xx380772_462436","name":"مسجد علی ابن ابیطالب","lat":38.077183,"lng":46.24356,"addr":"","type":"place_of_worship"},{"id":"xx378561_483254","name":"Islamic place","lat":37.856052,"lng":48.325419,"addr":"","type":"place_of_worship"},{"id":"xx376119_485198","name":"مسجد حضرت ابوالفضل","lat":37.611904,"lng":48.519847,"addr":"کاشانی","type":"place_of_worship"},{"id":"xx376170_485251","name":"مسجد جامع","lat":37.617032,"lng":48.525063,"addr":"خلخال","type":"place_of_worship"},{"id":"xx371417_461057","name":"Islamic place","lat":37.141718,"lng":46.105665,"addr":"","type":"place_of_worship"},{"id":"xx371374_460984","name":"مسجد قاسمیه","lat":37.137412,"lng":46.09841,"addr":"ملکان","type":"place_of_worship"},{"id":"xx360011_458802","name":"Islamic place","lat":36.001145,"lng":45.880207,"addr":"","type":"place_of_worship"},{"id":"xx379310_460977","name":"مسجد جامع باویل سفلی","lat":37.930976,"lng":46.097659,"addr":"","type":"place_of_worship"},{"id":"xx379506_460551","name":"مسجد قطب راوندی خسروشاه","lat":37.950645,"lng":46.055072,"addr":"خسروشاه","type":"place_of_worship"},{"id":"xx379368_460729","name":"مسجد علی بن ابی طالب","lat":37.936779,"lng":46.07287,"addr":"بایرام","type":"place_of_worship"},{"id":"xx379279_461230","name":"مسجد بقیة الله","lat":37.927902,"lng":46.123032,"addr":"اسکو","type":"place_of_worship"},{"id":"xx384204_488748","name":"مسجد سجاد","lat":38.420417,"lng":48.874754,"addr":"","type":"place_of_worship"},{"id":"xx378707_472544","name":"Islamic place","lat":37.870684,"lng":47.254353,"addr":"","type":"place_of_worship"},{"id":"xx379497_471212","name":"Islamic place","lat":37.949741,"lng":47.121213,"addr":"","type":"place_of_worship"},{"id":"xx381419_456297","name":"Islamic place","lat":38.141933,"lng":45.629667,"addr":"","type":"place_of_worship"},{"id":"xx369703_461227","name":"مسجد آیت الله طالقانی(هیئت قرآنی سیدالشهدا)","lat":36.970317,"lng":46.122672,"addr":"اسبقی","type":"place_of_worship"},{"id":"xx375527_450327","name":"مسجد کوثر","lat":37.552698,"lng":45.032719,"addr":"","type":"place_of_worship"},{"id":"xx375362_450345","name":"Islamic place","lat":37.536235,"lng":45.034491,"addr":"","type":"place_of_worship"},{"id":"xx375608_450214","name":"مسجد نورالائمه (ع)","lat":37.560791,"lng":45.02142,"addr":"","type":"place_of_worship"},{"id":"xx375665_450215","name":"مسجد اهل سنت بدیع الزمان","lat":37.566523,"lng":45.021454,"addr":"","type":"place_of_worship"},{"id":"xx374338_459074","name":"مسجد جامع روستای شیراز","lat":37.433839,"lng":45.907434,"addr":"","type":"place_of_worship"},{"id":"xx373857_460406","name":"مسجد فدک","lat":37.385718,"lng":46.040621,"addr":"پارک فدک","type":"place_of_worship"},{"id":"xx373714_461117","name":"مسجد علم روشت","lat":37.371388,"lng":46.111706,"addr":"","type":"place_of_worship"},{"id":"xx373718_461126","name":"مسجد آقا","lat":37.371838,"lng":46.112567,"addr":"","type":"place_of_worship"},{"id":"xx373707_461105","name":"مسجد چهل پا","lat":37.370726,"lng":46.110549,"addr":"","type":"place_of_worship"},{"id":"xx373712_461103","name":"مسجد جامع","lat":37.371208,"lng":46.110292,"addr":"","type":"place_of_worship"},{"id":"xx373722_461087","name":"مسجد میدان","lat":37.372217,"lng":46.1087,"addr":"","type":"place_of_worship"},{"id":"xx373712_461093","name":"مسجد نقی سلطان","lat":37.371171,"lng":46.109342,"addr":"","type":"place_of_worship"},{"id":"xx373744_461127","name":"مسجد صاحب الزمان","lat":37.374356,"lng":46.112654,"addr":"","type":"place_of_worship"},{"id":"xx373730_461109","name":"مسجد صاحب الزمان","lat":37.372958,"lng":46.110875,"addr":"","type":"place_of_worship"},{"id":"xx372988_493133","name":"مسجد جامع ولیعصر","lat":37.298798,"lng":49.313309,"addr":"","type":"place_of_worship"},{"id":"xx353873_478687","name":"مسجد","lat":35.387284,"lng":47.868696,"addr":"","type":"mosque"},{"id":"xx373018_460152","name":"Islamic place","lat":37.301819,"lng":46.015166,"addr":"","type":"place_of_worship"},{"id":"xx379660_460585","name":"مسجد الغدیر خسروشاه","lat":37.966023,"lng":46.058532,"addr":"شهدا","type":"place_of_worship"},{"id":"xx384550_458288","name":"Islamic place","lat":38.455037,"lng":45.828793,"addr":"","type":"place_of_worship"},{"id":"xx379536_482372","name":"مسجد بالا","lat":37.953601,"lng":48.237217,"addr":"کورائیم","type":"place_of_worship"},{"id":"xx379545_482370","name":"مسجد پایین","lat":37.954532,"lng":48.23697,"addr":"کورائیم","type":"place_of_worship"},{"id":"xx380392_463661","name":"مسجد چهارده معصوم","lat":38.039164,"lng":46.366127,"addr":"فلکه پرواز","type":"place_of_worship"},{"id":"xx365522_476217","name":"Islamic place","lat":36.552248,"lng":47.621651,"addr":"دندی","type":"place_of_worship"},{"id":"xx362025_464607","name":"مسجد شهر صاحب","lat":36.202524,"lng":46.46069,"addr":"صاحب","type":"place_of_worship"},{"id":"xx358499_481968","name":"مسجد جامع","lat":35.849879,"lng":48.196776,"addr":"گرماب","type":"place_of_worship"},{"id":"xx366928_465514","name":"مسجد امام علی(ع)","lat":36.69284,"lng":46.551364,"addr":"شاهین دژ","type":"place_of_worship"},{"id":"xx377834_459027","name":"مسجد جامع گوگان","lat":37.783376,"lng":45.90271,"addr":"","type":"place_of_worship"},{"id":"xx377824_459030","name":"مسجد حضرت ابوالفضل","lat":37.782357,"lng":45.903045,"addr":"خیابان امام","type":"place_of_worship"},{"id":"xx380267_463859","name":"نمازخانه پارک","lat":38.026652,"lng":46.385867,"addr":"","type":"place_of_worship"},{"id":"xx380890_462909","name":"امامزاده سید ابراهیم","lat":38.089049,"lng":46.290868,"addr":"","type":"place_of_worship"},{"id":"xx380824_462949","name":"مطهری","lat":38.082377,"lng":46.294899,"addr":"","type":"place_of_worship"},{"id":"xx374079_462710","name":"مسجد بلال","lat":37.407935,"lng":46.27096,"addr":"","type":"place_of_worship"},{"id":"xx377585_459904","name":"مسجد علی داشی دیزج","lat":37.758537,"lng":45.990448,"addr":"","type":"place_of_worship"},{"id":"xx369737_461157","name":"مسجد فاطمه زهرا","lat":36.973697,"lng":46.115687,"addr":"خیابان ساحلی","type":"place_of_worship"},{"id":"xx370470_462982","name":"مسجد جامع قاشقچی","lat":37.046962,"lng":46.298201,"addr":"","type":"place_of_worship"},{"id":"xx370457_462978","name":"حسینه قاشقچی","lat":37.045693,"lng":46.297837,"addr":"","type":"place_of_worship"},{"id":"xx369698_461244","name":"مسجد صاحب الزمان(ع)","lat":36.969785,"lng":46.124426,"addr":"","type":"place_of_worship"},{"id":"xx380888_462377","name":"مسجد امام رضا","lat":38.088839,"lng":46.237739,"addr":"امیر کبیر","type":"place_of_worship"},{"id":"xx379792_481360","name":"Islamic place","lat":37.979241,"lng":48.136044,"addr":"","type":"place_of_worship"},{"id":"xx375146_450704","name":"امام حسین","lat":37.514603,"lng":45.070411,"addr":"بلوار بهداری","type":"place_of_worship"},{"id":"xx367771_482157","name":"Islamic place","lat":36.77705,"lng":48.215672,"addr":"","type":"place_of_worship"},{"id":"xx373903_462358","name":"مسجد اکبر آباد","lat":37.390297,"lng":46.235817,"addr":"مراغه","type":"place_of_worship"},{"id":"xx379308_459770","name":"اوزاخ پیر","lat":37.93083,"lng":45.977018,"addr":"ایلخچی","type":"place_of_worship"},{"id":"xx380332_461494","name":"مسجد امام رضا","lat":38.033239,"lng":46.149433,"addr":"سردرود","type":"place_of_worship"},{"id":"xx372091_478677","name":"مسجد جامع نوروزآباد","lat":37.209079,"lng":47.867692,"addr":"","type":"place_of_worship"},{"id":"xx374059_477310","name":"مسجد ولیعصر","lat":37.405933,"lng":47.730967,"addr":"","type":"place_of_worship"},{"id":"xx379492_460517","name":"مسجد جامع خسروشاه","lat":37.949158,"lng":46.051655,"addr":"کوچه عطار","type":"place_of_worship"},{"id":"xx377228_452043","name":"Islamic place","lat":37.722833,"lng":45.204255,"addr":"","type":"place_of_worship"},{"id":"xx377396_450783","name":"Islamic place","lat":37.739588,"lng":45.078282,"addr":"","type":"place_of_worship"},{"id":"xx384344_457910","name":"مسجد امام زمان","lat":38.434402,"lng":45.790999,"addr":"مرند","type":"place_of_worship"},{"id":"xx384311_457756","name":"مسجد جامع","lat":38.431146,"lng":45.775638,"addr":"مرند","type":"place_of_worship"},{"id":"xx375650_452170","name":"Islamic place","lat":37.565015,"lng":45.217011,"addr":"","type":"place_of_worship"},{"id":"xx369548_461009","name":"مسجد خاتم الانبیاء (ص)","lat":36.954829,"lng":46.100928,"addr":"میاندوآب","type":"place_of_worship"},{"id":"xx380834_463540","name":"مسجد امام محمد باقر","lat":38.083357,"lng":46.354035,"addr":"فرهنگ 2","type":"place_of_worship"},{"id":"xx362764_499994","name":"مسجد حاج کاظم","lat":36.276435,"lng":49.999389,"addr":"","type":"place_of_worship"},{"id":"xx373631_491319","name":"مسجد جامع ماسال","lat":37.363136,"lng":49.131873,"addr":"","type":"place_of_worship"},{"id":"xx355298_461737","name":"مسجد","lat":35.529759,"lng":46.173658,"addr":"","type":"place_of_worship"},{"id":"xx372387_499508","name":"آقا سید جنید","lat":37.238734,"lng":49.950818,"addr":"","type":"place_of_worship"},{"id":"xx372846_496268","name":"مسجد حضرت علی ابن موسی الرضا علیه السلام","lat":37.284587,"lng":49.626819,"addr":"","type":"place_of_worship"},{"id":"xx372580_499305","name":"نمازخانه","lat":37.258032,"lng":49.930469,"addr":"","type":"place_of_worship"},{"id":"xx384626_450259","name":"سید الشهداء","lat":38.462628,"lng":45.025895,"addr":"","type":"place_of_worship"},{"id":"xx355213_461876","name":"مسجد حضرت نوح","lat":35.521334,"lng":46.187627,"addr":"","type":"place_of_worship"},{"id":"xx355222_461914","name":"مسجد قدس","lat":35.52225,"lng":46.191442,"addr":"","type":"place_of_worship"},{"id":"xx362669_499959","name":"مسجد و مدرسه صالحیه","lat":36.266915,"lng":49.995945,"addr":"","type":"mosque"},{"id":"xx362697_499875","name":"مسجد امام حسین","lat":36.269659,"lng":49.987525,"addr":"","type":"place_of_worship"},{"id":"xx364961_487989","name":"مسجد امیر المومنین","lat":36.496142,"lng":48.798851,"addr":"","type":"place_of_worship"},{"id":"xx362633_499952","name":"مسجد سبز","lat":36.263254,"lng":49.995226,"addr":"","type":"place_of_worship"},{"id":"xx353298_469906","name":"مسجد النبی محله گردی گرول","lat":35.329846,"lng":46.990585,"addr":"","type":"place_of_worship"},{"id":"xx383665_472706","name":"Islamic place","lat":38.366549,"lng":47.270571,"addr":"","type":"place_of_worship"},{"id":"xx362782_499977","name":"Station ۴","lat":36.278238,"lng":49.997719,"addr":"","type":"place_of_worship"},{"id":"xx362569_499811","name":"Station ۲","lat":36.256852,"lng":49.981061,"addr":"","type":"place_of_worship"},{"id":"xx362842_499937","name":"Station ۴ @","lat":36.284192,"lng":49.993666,"addr":"","type":"place_of_worship"},{"id":"xx362669_499982","name":"Station ۲","lat":36.266896,"lng":49.998247,"addr":"","type":"place_of_worship"},{"id":"xx370176_483771","name":"مسجد سید الشهدا (ع) مشکین","lat":37.01765,"lng":48.377105,"addr":"","type":"place_of_worship"},{"id":"xx388230_462371","name":"Islamic place","lat":38.823046,"lng":46.237076,"addr":"","type":"place_of_worship"},{"id":"xx363680_481804","name":"مسجد بین راهی سعیدآباد","lat":36.368023,"lng":48.180395,"addr":"","type":"place_of_worship"},{"id":"xx360255_496487","name":"مسجد پیامبر اعظم","lat":36.025512,"lng":49.648663,"addr":"","type":"place_of_worship"},{"id":"xx369827_493108","name":"امامزاده ابراهیم","lat":36.982686,"lng":49.310766,"addr":"","type":"shrine"},{"id":"xx380630_463952","name":"الزهرا","lat":38.063025,"lng":46.395153,"addr":"گلشن راز شمالی","type":"place_of_worship"},{"id":"xx363112_490745","name":"Prayer room","lat":36.311186,"lng":49.074455,"addr":"","type":"place_of_worship"},{"id":"xx385571_461454","name":"امامزاده هفت تن ارزیل","lat":38.557115,"lng":46.145398,"addr":"","type":"place_of_worship"},{"id":"xx366874_484609","name":"Islamic place","lat":36.687368,"lng":48.460946,"addr":"","type":"place_of_worship"},{"id":"xx376183_485246","name":"مسجد جمعه","lat":37.618314,"lng":48.524574,"addr":"خلخال","type":"place_of_worship"},{"id":"xx374824_494247","name":"مسجد صاحب الزمان","lat":37.482425,"lng":49.424711,"addr":"بیک محمدی","type":"place_of_worship"},{"id":"xx374811_494311","name":"حضرت ابوالفضل","lat":37.481117,"lng":49.431062,"addr":"","type":"place_of_worship"},{"id":"xx374796_494373","name":"امام حسین","lat":37.479579,"lng":49.437267,"addr":"","type":"place_of_worship"},{"id":"xx374782_494504","name":"امام سجاد","lat":37.478242,"lng":49.450439,"addr":"","type":"place_of_worship"},{"id":"xx374721_494546","name":"علی اصغر(ع","lat":37.472083,"lng":49.454553,"addr":"بهرام صفت","type":"place_of_worship"},{"id":"xx374742_494435","name":"امام علی","lat":37.474225,"lng":49.443452,"addr":"","type":"place_of_worship"},{"id":"xx374699_494300","name":"مسجد سید نبی آسیه","lat":37.469863,"lng":49.429994,"addr":"","type":"place_of_worship"},{"id":"xx374677_494333","name":"امام رضا","lat":37.467671,"lng":49.433337,"addr":"","type":"place_of_worship"},{"id":"xx379259_461126","name":"Islamic place","lat":37.925947,"lng":46.112614,"addr":"","type":"place_of_worship"},{"id":"xx374722_494257","name":"مسجد هیئت فاطمیه نویر","lat":37.472202,"lng":49.425715,"addr":"","type":"place_of_worship"},{"id":"xx374729_494245","name":"مسجد سید الشهداء","lat":37.472871,"lng":49.424491,"addr":"","type":"place_of_worship"},{"id":"xx380362_464325","name":"مسجدجامع کرکج","lat":38.036221,"lng":46.432503,"addr":"","type":"place_of_worship"},{"id":"xx375661_450920","name":"مسجد مسلم بن عقیل","lat":37.566065,"lng":45.091961,"addr":"","type":"mosque"},{"id":"xx376155_477737","name":"مسجد سنگی ترک","lat":37.615523,"lng":47.773701,"addr":"","type":"place_of_worship"},{"id":"xx394749_482324","name":"Islamic place","lat":39.474887,"lng":48.232393,"addr":"","type":"place_of_worship"},{"id":"xx375575_450904","name":"مسجد بلال","lat":37.557475,"lng":45.090415,"addr":"","type":"mosque"},{"id":"xx375509_450734","name":"مسجد علی اشرف","lat":37.550922,"lng":45.073391,"addr":"","type":"place_of_worship"},{"id":"xx357124_485929","name":"مسجد","lat":35.712409,"lng":48.592906,"addr":"","type":"place_of_worship"},{"id":"xx376158_485366","name":"مسجد علی ابن ابیطالب","lat":37.615796,"lng":48.53659,"addr":"بلوار سی متری قدس","type":"place_of_worship"},{"id":"xx362364_499295","name":"مسجد توحید","lat":36.236412,"lng":49.929457,"addr":"","type":"place_of_worship"},{"id":"xx362348_499245","name":"مسجد حضرت امیرالمومنین","lat":36.234759,"lng":49.92451,"addr":"","type":"place_of_worship"},{"id":"xx376187_485279","name":"مهدیه","lat":37.61872,"lng":48.527903,"addr":"خلخال","type":"place_of_worship"},{"id":"xx376177_485268","name":"Islamic place","lat":37.617657,"lng":48.526796,"addr":"خلخال","type":"place_of_worship"},{"id":"xx376248_485218","name":"مصلی","lat":37.624811,"lng":48.52177,"addr":"خلخال","type":"place_of_worship"},{"id":"xx376232_485350","name":"محمد رسول الله","lat":37.623236,"lng":48.534973,"addr":"","type":"place_of_worship"},{"id":"xx376346_485477","name":"مسجد جامع اندبیل","lat":37.634597,"lng":48.547715,"addr":"","type":"place_of_worship"},{"id":"xx377130_450525","name":"مسجد چاناقلو","lat":37.713042,"lng":45.05249,"addr":"","type":"place_of_worship"},{"id":"xx373544_484554","name":"Islamic place","lat":37.35442,"lng":48.455396,"addr":"","type":"place_of_worship"},{"id":"xx366598_485548","name":"مسجد","lat":36.659794,"lng":48.554803,"addr":"","type":"place_of_worship"},{"id":"xx376110_485256","name":"مسجد امام رضا","lat":37.611033,"lng":48.525555,"addr":"khalkhal","type":"place_of_worship"},{"id":"xx380662_463110","name":"مسجد دیزج","lat":38.066235,"lng":46.310952,"addr":"باغشمال جدید","type":"place_of_worship"},{"id":"xx394322_480914","name":"مسجدجامع جعفرآباد","lat":39.432249,"lng":48.091406,"addr":"جعفرآباد","type":"place_of_worship"},{"id":"xx394284_480959","name":"مسجدصاحب الزمان","lat":39.428372,"lng":48.095853,"addr":"جعفرآباد","type":"place_of_worship"},{"id":"xx359121_470241","name":"مسجد جامع","lat":35.912115,"lng":47.02414,"addr":"","type":"mosque"},{"id":"xx355959_471499","name":"مسجد باقلاوا","lat":35.595858,"lng":47.149908,"addr":"","type":"mosque"},{"id":"xx372755_495808","name":"مسجد الجواد لاکانی","lat":37.275545,"lng":49.580781,"addr":"","type":"place_of_worship"},{"id":"xx375441_484061","name":"Islamic place","lat":37.544091,"lng":48.406059,"addr":"","type":"place_of_worship"},{"id":"xx369491_453822","name":"مسجد سید عبدالله کمالی","lat":36.949074,"lng":45.382225,"addr":"نواب صفوی ۲","type":"mosque"},{"id":"xx384025_476846","name":"مسجد حسینیه","lat":38.40246,"lng":47.684564,"addr":"","type":"mosque"},{"id":"xx376198_485233","name":"مسجد شهیدلر","lat":37.619824,"lng":48.523294,"addr":"","type":"place_of_worship"},{"id":"xx362773_499976","name":"مسجد احمد بیک","lat":36.277294,"lng":49.997552,"addr":"","type":"place_of_worship"},{"id":"xx362998_499917","name":"مسجد فاطمه زهرا","lat":36.299763,"lng":49.991725,"addr":"","type":"place_of_worship"},{"id":"xx369905_482748","name":"مسجد امام رضا","lat":36.990544,"lng":48.274769,"addr":"","type":"mosque"},{"id":"xx376169_485109","name":"مسجد امام خمینی","lat":37.616855,"lng":48.510895,"addr":"","type":"place_of_worship"},{"id":"xx371914_499380","name":"مسجد سادات محله گلرودبار","lat":37.191402,"lng":49.937981,"addr":"","type":"place_of_worship"},{"id":"xx367505_457244","name":"مسجد نبی","lat":36.750496,"lng":45.724432,"addr":"","type":"place_of_worship"},{"id":"xx367565_457220","name":"مسجد حاج سید حسن","lat":36.756498,"lng":45.722002,"addr":"","type":"place_of_worship"},{"id":"xx375863_491596","name":"مسجد خیمه سر","lat":37.586263,"lng":49.159608,"addr":"","type":"place_of_worship"},{"id":"xx375915_491533","name":"مسجد شفارود","lat":37.591538,"lng":49.153277,"addr":"","type":"place_of_worship"},{"id":"xx353851_490343","name":"مسجد صاحب الزمان","lat":35.385072,"lng":49.034257,"addr":"","type":"place_of_worship"},{"id":"xx375871_491402","name":"اقا سید نور کرده","lat":37.587144,"lng":49.140182,"addr":"","type":"place_of_worship"},{"id":"xx365802_456586","name":"مسجد آمید","lat":36.580222,"lng":45.658562,"addr":"","type":"place_of_worship"},{"id":"xx364648_455118","name":"Islamic place","lat":36.464751,"lng":45.511817,"addr":"","type":"place_of_worship"},{"id":"xx376022_491180","name":"بقعه سید قربان","lat":37.602177,"lng":49.118043,"addr":"","type":"place_of_worship"},{"id":"xx375974_491354","name":"مسجد","lat":37.597431,"lng":49.135405,"addr":"","type":"place_of_worship"},{"id":"xx366676_465648","name":"مسجد اهل سنت","lat":36.667561,"lng":46.564764,"addr":"","type":"place_of_worship"},{"id":"xx374666_470709","name":"مسجد امام زمان (عج)","lat":37.466551,"lng":47.070858,"addr":"","type":"place_of_worship"},{"id":"xx375588_450837","name":"مولای متقیان","lat":37.558761,"lng":45.083669,"addr":"","type":"place_of_worship"},{"id":"xx362599_499968","name":"مسجد لعل","lat":36.259946,"lng":49.996759,"addr":"","type":"place_of_worship"},{"id":"xx374047_491186","name":"مسجد جامع شاندرمن","lat":37.404745,"lng":49.118575,"addr":"","type":"place_of_worship"},{"id":"xx380265_461491","name":"مسجد صاحب زمان","lat":38.026513,"lng":46.149081,"addr":"سردرود","type":"place_of_worship"},{"id":"xx375391_450739","name":"مسجد فاطمیه","lat":37.539128,"lng":45.073901,"addr":"","type":"place_of_worship"},{"id":"xx369546_463258","name":"مسجد جامع","lat":36.954578,"lng":46.325817,"addr":"","type":"place_of_worship"},{"id":"xx362724_499986","name":"مسچد امام حسن","lat":36.272377,"lng":49.998581,"addr":"","type":"place_of_worship"},{"id":"xx369510_463230","name":"مسجد شهدا","lat":36.950965,"lng":46.322992,"addr":"","type":"place_of_worship"},{"id":"xx369543_463233","name":"مسجد صاحب الزمان","lat":36.954323,"lng":46.323264,"addr":"خ نیایش","type":"mosque"},{"id":"xx369691_460999","name":"مسجد بهی","lat":36.969092,"lng":46.099927,"addr":"","type":"mosque"},{"id":"xx371353_460683","name":"مسجد باب الجوائج","lat":37.13532,"lng":46.068348,"addr":"","type":"place_of_worship"},{"id":"xx371341_460663","name":"مسجد حضرت ابولفضل (ع)","lat":37.134099,"lng":46.066264,"addr":"میدان امام حسین(ع)","type":"place_of_worship"},{"id":"xx371378_460690","name":"مسجد حاح عشقعلی","lat":37.137764,"lng":46.068969,"addr":"","type":"place_of_worship"},{"id":"xx371376_460704","name":"مسجد حاج آقاوردی","lat":37.13763,"lng":46.070367,"addr":"","type":"place_of_worship"},{"id":"xx371367_460649","name":"مسجد صاحب الزمان","lat":37.136735,"lng":46.064935,"addr":"","type":"place_of_worship"},{"id":"xx376110_474666","name":"مسجد جامع","lat":37.610957,"lng":47.466558,"addr":"میدان مسجد جامع","type":"place_of_worship"},{"id":"xx369545_463205","name":"مسجد حضرت ابوالفضل","lat":36.95447,"lng":46.32047,"addr":"خیابان امام","type":"mosque"},{"id":"xx369727_461090","name":"مسجد علی ابن ابی طالب","lat":36.972679,"lng":46.108959,"addr":"خیابان پاسداران","type":"place_of_worship"},{"id":"xx369715_460964","name":"مسجد تاریخیی طاق","lat":36.971469,"lng":46.096373,"addr":"هفده شهریور","type":"place_of_worship"},{"id":"xx369690_460919","name":"مسجد زینبیه","lat":36.969018,"lng":46.091898,"addr":"","type":"place_of_worship"},{"id":"xx369648_461108","name":"مسجد قائم آل محمد","lat":36.964777,"lng":46.11079,"addr":"خیابن شهدای شرقی","type":"place_of_worship"},{"id":"xx369499_463221","name":"حسینیه شهید فرجی","lat":36.94986,"lng":46.322135,"addr":"خیابان شهدا","type":"place_of_worship"},{"id":"xx369536_463259","name":"حسینیه قمربنی هاشم","lat":36.953566,"lng":46.325893,"addr":"باروق","type":"place_of_worship"},{"id":"xx382496_471180","name":"مسجد امام زمان","lat":38.24962,"lng":47.11799,"addr":"","type":"place_of_worship"},{"id":"xx382476_471165","name":"مسجد امام خمینی","lat":38.247623,"lng":47.11652,"addr":"","type":"place_of_worship"},{"id":"xx382499_471166","name":"مسجد کبود","lat":38.249916,"lng":47.116574,"addr":"","type":"place_of_worship"},{"id":"xx369527_461360","name":"مسجد شهدای قره ورن","lat":36.952683,"lng":46.135975,"addr":"","type":"place_of_worship"},{"id":"xx375330_450718","name":"مسجد بهنق","lat":37.533004,"lng":45.071847,"addr":"ارومیه","type":"place_of_worship"},{"id":"xx375179_450776","name":"مسجد امام خمینی","lat":37.517904,"lng":45.077616,"addr":"خیابان گلباد","type":"place_of_worship"},{"id":"xx375304_450449","name":"مسجد قبا","lat":37.530439,"lng":45.044933,"addr":"بهشتی","type":"place_of_worship"},{"id":"xx369892_455166","name":"Islamic place","lat":36.989183,"lng":45.516583,"addr":"","type":"place_of_worship"},{"id":"xx375529_450665","name":"مسجد جنرال","lat":37.552936,"lng":45.066545,"addr":"عسگرخان (مفتح)","type":"place_of_worship"},{"id":"xx369689_461050","name":"مسجد امام حسین","lat":36.968923,"lng":46.105032,"addr":"خیابان شهدای غربی","type":"place_of_worship"},{"id":"xx369559_463249","name":"حسینیه سید الشهدا","lat":36.955886,"lng":46.324935,"addr":"خیابان باکری","type":"place_of_worship"},{"id":"xx383912_476746","name":"مسجد حضرت ابوالفضل","lat":38.391194,"lng":47.674624,"addr":"","type":"place_of_worship"},{"id":"xx373024_495497","name":"boghe-agha-jeyhoon","lat":37.302415,"lng":49.549687,"addr":"","type":"place_of_worship"},{"id":"xx362881_499989","name":"مسجد چهارده معصوم","lat":36.288093,"lng":49.998889,"addr":"","type":"place_of_worship"},{"id":"xx362885_499990","name":"پیروان قائم آل محمد","lat":36.288489,"lng":49.999027,"addr":"","type":"place_of_worship"},{"id":"xx388694_460015","name":"مسجد امیرالمومنین","lat":38.869409,"lng":46.001502,"addr":"سیه رود","type":"place_of_worship"},{"id":"xx388714_460007","name":"مسجد جامع سیه رود","lat":38.871392,"lng":46.000713,"addr":"سیه رود","type":"place_of_worship"},{"id":"xx386856_452139","name":"مسجد","lat":38.685587,"lng":45.213874,"addr":"","type":"place_of_worship"},{"id":"xx396523_479150","name":"مصلای پارس آباد","lat":39.6523,"lng":47.915001,"addr":"","type":"place_of_worship"},{"id":"xx379835_460832","name":"مسجد امام زمان","lat":37.983544,"lng":46.083247,"addr":"","type":"place_of_worship"},{"id":"xx379852_460881","name":"مسجد جامع لاهیجان","lat":37.985195,"lng":46.088147,"addr":"","type":"place_of_worship"},{"id":"xx367761_457130","name":"مسجد فرهنگیان","lat":36.776062,"lng":45.71304,"addr":"","type":"place_of_worship"},{"id":"xx380630_462654","name":"عباسیه","lat":38.062958,"lng":46.265432,"addr":"","type":"place_of_worship"},{"id":"xx380737_462986","name":"مسجد میرزا سلمان حکیم","lat":38.073705,"lng":46.298566,"addr":"","type":"place_of_worship"},{"id":"xx374279_490907","name":"مسجد صاحب الزمان","lat":37.427905,"lng":49.090698,"addr":"","type":"place_of_worship"},{"id":"xx380859_462924","name":"مسجد سید آقا","lat":38.085864,"lng":46.292387,"addr":"","type":"place_of_worship"},{"id":"xx380851_462941","name":"مسجد حسن پاشا","lat":38.085119,"lng":46.294061,"addr":"","type":"place_of_worship"},{"id":"xx380833_462944","name":"مسجد حاج صفر علی","lat":38.083312,"lng":46.294411,"addr":"","type":"place_of_worship"},{"id":"xx367839_457113","name":"مسجد دارالاحسان  موکریان","lat":36.78388,"lng":45.711311,"addr":"","type":"place_of_worship"},{"id":"xx373990_462714","name":"مسجد الغدیر","lat":37.399034,"lng":46.271355,"addr":"مراغه","type":"place_of_worship"},{"id":"xx374020_462593","name":"مسجد النبی","lat":37.401969,"lng":46.259278,"addr":"مراغه","type":"place_of_worship"},{"id":"xx374062_462541","name":"مسجد خاتم الانبیا","lat":37.4062,"lng":46.254065,"addr":"","type":"place_of_worship"},{"id":"xx379128_461242","name":"مسجد پیر","lat":37.912799,"lng":46.124247,"addr":"خیابان شهید رجائی","type":"place_of_worship"},{"id":"xx379198_461055","name":"Islamic place","lat":37.919752,"lng":46.105472,"addr":"","type":"place_of_worship"},{"id":"xx374326_477371","name":"مسجد امام علی","lat":37.432626,"lng":47.737056,"addr":"","type":"place_of_worship"},{"id":"xx374300_477024","name":"مسجد حضرت فاطمةالزهرا (س)","lat":37.429973,"lng":47.702407,"addr":"فرمانداری","type":"place_of_worship"},{"id":"xx366783_465784","name":"مسجد فاطمیه","lat":36.678264,"lng":46.578422,"addr":"","type":"place_of_worship"},{"id":"xx367777_464370","name":"مسجد جامع احمدآباد","lat":36.77773,"lng":46.437043,"addr":"","type":"place_of_worship"},{"id":"xx380214_463588","name":"مسجد فاطمه الزهرای شاهگلی","lat":38.021437,"lng":46.358775,"addr":"توحید","type":"place_of_worship"},{"id":"xx380595_463800","name":"Islamic place","lat":38.059523,"lng":46.38004,"addr":"","type":"place_of_worship"},{"id":"xx381548_465831","name":"Islamic place","lat":38.154801,"lng":46.583055,"addr":"خواجه","type":"place_of_worship"},{"id":"xx371475_473913","name":"نمازخانه","lat":37.147506,"lng":47.391286,"addr":"","type":"place_of_worship"},{"id":"xx369618_453886","name":"مسجد جعفر صادق","lat":36.96183,"lng":45.388605,"addr":"بلوار کاشانی چهل متری","type":"place_of_worship"},{"id":"xx378423_468354","name":"مسجد جامع","lat":37.842268,"lng":46.835445,"addr":"بستان آباد","type":"place_of_worship"},{"id":"xx362418_495798","name":"مسجد موسی بن جعفر","lat":36.241762,"lng":49.579793,"addr":"","type":"place_of_worship"},{"id":"xx379274_461157","name":"مسجد پرکاب","lat":37.927362,"lng":46.115744,"addr":"","type":"place_of_worship"},{"id":"xx380745_462901","name":"مسجد حصیرچیلر","lat":38.074461,"lng":46.290142,"addr":"","type":"place_of_worship"},{"id":"xx380795_462928","name":"مسجد  مفید آقا-آیت الله طباطبایی","lat":38.079458,"lng":46.292789,"addr":"","type":"place_of_worship"},{"id":"xx350101_463847","name":"مسجد امام محمد غزالی","lat":35.010088,"lng":46.384658,"addr":"","type":"place_of_worship"},{"id":"xx380758_462875","name":"مسجد حیدر علی خان","lat":38.075751,"lng":46.287489,"addr":"","type":"place_of_worship"},{"id":"xx379450_460982","name":"مسجد الغدیر","lat":37.944959,"lng":46.098196,"addr":"","type":"place_of_worship"},{"id":"xx382463_471166","name":"مسجد حاج بخشعلی","lat":38.24628,"lng":47.116592,"addr":"","type":"place_of_worship"},{"id":"xx378787_470995","name":"مسجدصاحب الزمان(عج)","lat":37.878741,"lng":47.099454,"addr":"شربیان","type":"place_of_worship"},{"id":"xx378800_470995","name":"مسجد حضرت ابولفضل","lat":37.880009,"lng":47.099543,"addr":"","type":"place_of_worship"},{"id":"xx366753_484915","name":"مسجد فیضیه","lat":36.675277,"lng":48.491549,"addr":"","type":"place_of_worship"},{"id":"xx380330_480006","name":"مسجد جنت سرای نیر","lat":38.03303,"lng":48.000604,"addr":"نیر","type":"place_of_worship"},{"id":"xx384137_488682","name":"مسجد محمد رسول الله","lat":38.413709,"lng":48.868158,"addr":"","type":"place_of_worship"},{"id":"xx384473_488382","name":"مسجد قدس","lat":38.447269,"lng":48.838235,"addr":"","type":"place_of_worship"},{"id":"xx384460_488206","name":"مسجد روستای قلعه","lat":38.446028,"lng":48.820568,"addr":"","type":"place_of_worship"},{"id":"xx375005_451499","name":"مسجد روستای قورشالو","lat":37.500487,"lng":45.149901,"addr":"","type":"place_of_worship"},{"id":"xx354298_497962","name":"امامزاده هفت امام","lat":35.429812,"lng":49.796196,"addr":"","type":"place_of_worship"},{"id":"xx354277_497966","name":"مسجد قائم","lat":35.427673,"lng":49.796625,"addr":"","type":"place_of_worship"},{"id":"xx351337_489071","name":"مسجد سید الشهدا","lat":35.133742,"lng":48.907071,"addr":"","type":"place_of_worship"},{"id":"xx351444_488669","name":"مسجد","lat":35.144373,"lng":48.86687,"addr":"","type":"place_of_worship"},{"id":"xx355218_461658","name":"مسجد بلال حبشی","lat":35.5218,"lng":46.165812,"addr":"","type":"place_of_worship"},{"id":"xx353949_490356","name":"مسجد","lat":35.394863,"lng":49.035584,"addr":"","type":"place_of_worship"},{"id":"xx380697_463113","name":"مسجد سالار شهیدان","lat":38.069694,"lng":46.311259,"addr":"","type":"place_of_worship"},{"id":"xx385098_466447","name":"مسجد حضرت ابالفضل العباس","lat":38.509805,"lng":46.644684,"addr":"ورزقان","type":"place_of_worship"},{"id":"xx381325_469457","name":"مسجد جامع","lat":38.132532,"lng":46.945679,"addr":"","type":"place_of_worship"},{"id":"xx381046_469901","name":"مسجد صاحب الزمان","lat":38.104555,"lng":46.99008,"addr":"","type":"place_of_worship"},{"id":"xx380843_462785","name":"مسجد صدوقی","lat":38.084296,"lng":46.27854,"addr":"","type":"place_of_worship"},{"id":"xx380894_462725","name":"مسجد سیدالشهدا","lat":38.08937,"lng":46.272546,"addr":"","type":"place_of_worship"},{"id":"xx380921_462665","name":"مسجد الزهرا","lat":38.092134,"lng":46.266488,"addr":"","type":"place_of_worship"},{"id":"xx381042_462458","name":"مسجد قمر بنی هاشم","lat":38.104166,"lng":46.245754,"addr":"","type":"place_of_worship"},{"id":"xx383045_466091","name":"مسجد حضرت فاطمه زهرا(س)","lat":38.304534,"lng":46.609112,"addr":"","type":"place_of_worship"},{"id":"xx382515_471184","name":"مسجد امام سجاد","lat":38.251482,"lng":47.118352,"addr":"","type":"place_of_worship"},{"id":"xx380989_469893","name":"مسجد جامع کلوانق","lat":38.098899,"lng":46.989344,"addr":"","type":"place_of_worship"},{"id":"xx360116_494631","name":"Islamic place","lat":36.01164,"lng":49.463083,"addr":"","type":"place_of_worship"},{"id":"xx360062_494743","name":"مسجد صاحب الزمان","lat":36.006246,"lng":49.474322,"addr":"","type":"place_of_worship"},{"id":"xx378254_475144","name":"Islamic place","lat":37.825392,"lng":47.514429,"addr":"","type":"place_of_worship"},{"id":"xx380900_470822","name":"مسجد جامع زرنق","lat":38.090036,"lng":47.08222,"addr":"","type":"place_of_worship"},{"id":"xx382454_471143","name":"مسجد چمن","lat":38.245397,"lng":47.114256,"addr":"","type":"place_of_worship"},{"id":"xx382415_471151","name":"مسجد امیرالمومنین","lat":38.241512,"lng":47.115072,"addr":"","type":"place_of_worship"},{"id":"xx382420_471192","name":"مسجد امام رضا","lat":38.242018,"lng":47.119229,"addr":"","type":"place_of_worship"},{"id":"xx382487_471213","name":"مسجد","lat":38.248718,"lng":47.121274,"addr":"","type":"place_of_worship"},{"id":"xx382459_471180","name":"مسجد رحیمه","lat":38.24595,"lng":47.117959,"addr":"","type":"place_of_worship"},{"id":"xx381716_468542","name":"مسجد شیخ رجب","lat":38.171566,"lng":46.854201,"addr":"","type":"place_of_worship"},{"id":"xx373853_491188","name":"مسجد امام سجاد گیله سرا","lat":37.385342,"lng":49.118805,"addr":"","type":"place_of_worship"},{"id":"xx372710_495595","name":"حسینیه و مزار شهدای گمنام","lat":37.271042,"lng":49.559525,"addr":"","type":"place_of_worship"},{"id":"xx396361_478694","name":"Islamic place","lat":39.636061,"lng":47.869359,"addr":"","type":"place_of_worship"},{"id":"xx357592_492866","name":"مسجد فاطمیه","lat":35.759205,"lng":49.286585,"addr":"","type":"place_of_worship"},{"id":"xx364374_487988","name":"حسینیه اعظم","lat":36.437427,"lng":48.798793,"addr":"","type":"place_of_worship"},{"id":"xx361253_498353","name":"Islamic place","lat":36.12529,"lng":49.835334,"addr":"","type":"place_of_worship"},{"id":"xx350915_487702","name":"مقبره حسین حیدری پدربزگ","lat":35.091479,"lng":48.770162,"addr":"","type":"place_of_worship"},{"id":"xx374757_494493","name":"مسجد گلشن","lat":37.475713,"lng":49.449255,"addr":"باز یار","type":"place_of_worship"},{"id":"xx365192_462169","name":"مسجد حضرف فاروق","lat":36.519223,"lng":46.216897,"addr":"","type":"place_of_worship"},{"id":"xx364975_462091","name":"مسجد چهار یار نبی","lat":36.497484,"lng":46.209104,"addr":"","type":"place_of_worship"},{"id":"xx365079_462083","name":"مسجد بلال حبشی","lat":36.50791,"lng":46.208261,"addr":"","type":"place_of_worship"},{"id":"xx388874_450230","name":"مسجد جامع","lat":38.887354,"lng":45.022973,"addr":"قره ضیاءالدین","type":"place_of_worship"},{"id":"xx377407_450500","name":"مسجد اهل سنت (محمد رسول الله)","lat":37.740687,"lng":45.049985,"addr":"","type":"place_of_worship"},{"id":"xx365208_462207","name":"مسجد حضرت یوسف","lat":36.52083,"lng":46.220719,"addr":"","type":"place_of_worship"},{"id":"xx359870_458825","name":"مسجد چوار یار نبی","lat":35.986964,"lng":45.882478,"addr":"","type":"place_of_worship"},{"id":"xx357775_499427","name":"امیرالمؤمنین","lat":35.777463,"lng":49.942718,"addr":"","type":"mosque"},{"id":"xx359996_458751","name":"مسجد حضرت عمر","lat":35.999575,"lng":45.875054,"addr":"","type":"place_of_worship"},{"id":"xx380405_461026","name":"مسجد محمد رسول الله","lat":38.040485,"lng":46.102571,"addr":"باغ معروف","type":"place_of_worship"},{"id":"xx374783_494427","name":"مسجد محمدی","lat":37.478334,"lng":49.442697,"addr":"مزار","type":"place_of_worship"},{"id":"xx370445_463283","name":"Islamic place","lat":37.044457,"lng":46.328288,"addr":"","type":"place_of_worship"},{"id":"xx381061_461121","name":"Islamic place","lat":38.106103,"lng":46.112136,"addr":"","type":"place_of_worship"},{"id":"xx374582_494949","name":"مسجد باب الحوائج سوسر","lat":37.458182,"lng":49.494926,"addr":"سید رضا هویت طلب","type":"place_of_worship"},{"id":"xx374874_493979","name":"مسجد امام جواد (ع)","lat":37.48739,"lng":49.397879,"addr":"بلوار انصاری","type":"place_of_worship"},{"id":"xx374792_494152","name":"مسجد امام موسی بن جعفر ع","lat":37.479235,"lng":49.415211,"addr":"دریا","type":"place_of_worship"},{"id":"xx380420_464170","name":"مسجد نمایشگاه","lat":38.042006,"lng":46.416953,"addr":"","type":"place_of_worship"},{"id":"xx384611_458885","name":"Islamic place","lat":38.461128,"lng":45.888549,"addr":"","type":"place_of_worship"},{"id":"xx385754_450190","name":"مسجد صاحب الزمان (ع)","lat":38.575425,"lng":45.018984,"addr":"گوهران","type":"place_of_worship"},{"id":"xx379401_461288","name":"مسجد علی بن ابی طالب","lat":37.940125,"lng":46.128763,"addr":"سهند","type":"place_of_worship"},{"id":"xx374750_494567","name":"مسجد جامع بندرانزلی","lat":37.474967,"lng":49.456722,"addr":"سپه","type":"place_of_worship"},{"id":"xx357479_495630","name":"مسجد برزلجین","lat":35.74793,"lng":49.56298,"addr":"","type":"place_of_worship"},{"id":"xx389672_482073","name":"مسجد داشدبی","lat":38.967227,"lng":48.207289,"addr":"","type":"place_of_worship"},{"id":"xx365030_462044","name":"مسجد حضرت محمد","lat":36.502999,"lng":46.204427,"addr":"","type":"place_of_worship"},{"id":"xx381003_462470","name":"مسجد ابوذر","lat":38.100314,"lng":46.247042,"addr":"","type":"place_of_worship"},{"id":"xx379484_460520","name":"مسجد امام زمان عج","lat":37.948385,"lng":46.052031,"addr":"خسروشاه","type":"place_of_worship"},{"id":"xx379494_460531","name":"مسجد سجادیه","lat":37.949426,"lng":46.053068,"addr":"خسروشاه","type":"place_of_worship"},{"id":"xx379492_460534","name":"مسجد امیرالمومنین","lat":37.94921,"lng":46.053443,"addr":"خسروشاه","type":"place_of_worship"},{"id":"xx379485_460560","name":"مسجد سیدالشهدا (ع)","lat":37.948454,"lng":46.055981,"addr":"خسروشاه","type":"place_of_worship"},{"id":"xx380943_462948","name":"مسجد حاج مصطفی","lat":38.094267,"lng":46.294843,"addr":"","type":"place_of_worship"},{"id":"xx379434_459806","name":"مسجد شاه مردان","lat":37.943418,"lng":45.980568,"addr":"","type":"place_of_worship"},{"id":"xx384629_455691","name":"Islamic place","lat":38.462855,"lng":45.569085,"addr":"","type":"place_of_worship"},{"id":"xx373881_496672","name":"مسجد شهدای خمام","lat":37.388098,"lng":49.667205,"addr":"جاده انزلی - رشت","type":"place_of_worship"},{"id":"xx374465_496217","name":"مسجد شهدای حسن رود","lat":37.44653,"lng":49.621681,"addr":"جاده انزلی - رشت","type":"place_of_worship"},{"id":"xx388301_450098","name":"Islamic place","lat":38.830091,"lng":45.009847,"addr":"","type":"place_of_worship"},{"id":"xx352063_486956","name":"مسجد النبی","lat":35.206289,"lng":48.69561,"addr":"","type":"place_of_worship"},{"id":"xx352076_487235","name":"مسجد اعظم","lat":35.207593,"lng":48.723503,"addr":"","type":"place_of_worship"},{"id":"xx353981_490290","name":"مسجد علی ابن ابی طالب","lat":35.398103,"lng":49.02902,"addr":"","type":"place_of_worship"},{"id":"xx375668_450891","name":"مسجد حضرت رقیه (ع)","lat":37.566843,"lng":45.089143,"addr":"","type":"place_of_worship"},{"id":"xx375574_450417","name":"مسجد امام رضای کوی مریم","lat":37.557373,"lng":45.041731,"addr":"","type":"place_of_worship"},{"id":"xx375561_450456","name":"مسجد امیرالمومنین(ع)","lat":37.556145,"lng":45.045646,"addr":"","type":"place_of_worship"},{"id":"xx375613_450479","name":"مسجد خاتم","lat":37.561278,"lng":45.047867,"addr":"","type":"place_of_worship"},{"id":"xx375488_450487","name":"مسجد عمار","lat":37.54884,"lng":45.048676,"addr":"","type":"place_of_worship"},{"id":"xx375453_450500","name":"مسجد موسی بن جعفر","lat":37.545283,"lng":45.049984,"addr":"","type":"place_of_worship"},{"id":"xx375377_450379","name":"مسجد آل یاسین","lat":37.53771,"lng":45.037944,"addr":"","type":"place_of_worship"},{"id":"xx375472_450645","name":"مسجد چهارده معصوم","lat":37.547193,"lng":45.064531,"addr":"شهید مدنی ۲","type":"place_of_worship"},{"id":"xx375478_450703","name":"مسجد جوانمرد قصاب","lat":37.547831,"lng":45.070303,"addr":"","type":"place_of_worship"},{"id":"xx375511_450771","name":"Islamic place","lat":37.551099,"lng":45.0771,"addr":"","type":"place_of_worship"},{"id":"xx375504_450787","name":"داش مسجد","lat":37.550449,"lng":45.078689,"addr":"","type":"place_of_worship"},{"id":"xx375527_450774","name":"مسجد اهل سنت ارومیه (امام شافعی)","lat":37.552677,"lng":45.077373,"addr":"","type":"place_of_worship"},{"id":"xx375529_450751","name":"Islamic place","lat":37.552923,"lng":45.075129,"addr":"","type":"place_of_worship"},{"id":"xx375523_450729","name":"Islamic place","lat":37.55233,"lng":45.072906,"addr":"","type":"place_of_worship"},{"id":"xx375521_450718","name":"مسجد صغیرچیلر (تسوجی های مقیم)","lat":37.55205,"lng":45.071789,"addr":"","type":"place_of_worship"},{"id":"xx375532_450702","name":"مسجد میدان","lat":37.553173,"lng":45.07018,"addr":"","type":"place_of_worship"},{"id":"xx375565_450722","name":"مسجد رضا آباد","lat":37.556492,"lng":45.072222,"addr":"","type":"place_of_worship"},{"id":"xx375591_450724","name":"مسجد عرب باغی","lat":37.559064,"lng":45.072353,"addr":"","type":"place_of_worship"},{"id":"xx375605_450715","name":"مسجد سید چوپان","lat":37.560489,"lng":45.071452,"addr":"","type":"place_of_worship"},{"id":"xx375591_450745","name":"مسجد قره آغاج","lat":37.559096,"lng":45.074476,"addr":"","type":"place_of_worship"},{"id":"xx375598_450744","name":"مسجد میر یحیا","lat":37.559812,"lng":45.074399,"addr":"","type":"place_of_worship"},{"id":"xx375615_450897","name":"مسجد امیرالمومنین","lat":37.561532,"lng":45.089698,"addr":"","type":"place_of_worship"},{"id":"xx375506_450842","name":"مسجد جوادیه","lat":37.550604,"lng":45.084172,"addr":"","type":"place_of_worship"},{"id":"xx375208_450808","name":"مسجد سیدالشهدای گلباد","lat":37.520831,"lng":45.080809,"addr":"","type":"place_of_worship"},{"id":"xx375329_450770","name":"مسجد نرگس خاتون","lat":37.532901,"lng":45.077007,"addr":"","type":"place_of_worship"},{"id":"xx387154_452069","name":"Islamic place","lat":38.715412,"lng":45.206938,"addr":"","type":"place_of_worship"},{"id":"xx371963_499931","name":"مسجد صاحب الزمان","lat":37.196252,"lng":49.993088,"addr":"","type":"place_of_worship"},{"id":"xx384981_470683","name":"مسجد جوادالائمه","lat":38.498119,"lng":47.068271,"addr":"","type":"place_of_worship"},{"id":"xx373334_470381","name":"مسجد","lat":37.333352,"lng":47.038102,"addr":"","type":"place_of_worship"},{"id":"xx362768_491532","name":"مسجد جواد الائمه","lat":36.276776,"lng":49.153237,"addr":"","type":"place_of_worship"},{"id":"xx362830_499374","name":"نمازخانه صفا","lat":36.283029,"lng":49.937354,"addr":"","type":"place_of_worship"},{"id":"xx379310_461329","name":"امام حسین","lat":37.930962,"lng":46.132883,"addr":"سهند","type":"place_of_worship"},{"id":"xx352831_474260","name":"مسجد حضرت امام محمد غزالی","lat":35.283051,"lng":47.42603,"addr":"","type":"place_of_worship"},{"id":"xx360612_485790","name":"Islamic place","lat":36.06116,"lng":48.579037,"addr":"","type":"place_of_worship"},{"id":"xx366813_451452","name":"حضرت عثمان","lat":36.681287,"lng":45.145195,"addr":"","type":"place_of_worship"},{"id":"xx366803_451487","name":"صلاح الدین ایوبی","lat":36.680329,"lng":45.148714,"addr":"","type":"place_of_worship"},{"id":"xx366762_451471","name":"مسجد قبا","lat":36.676201,"lng":45.147117,"addr":"","type":"place_of_worship"},{"id":"xx366891_451330","name":"مسجد سلمان فارسی","lat":36.689099,"lng":45.133003,"addr":"","type":"place_of_worship"},{"id":"xx366894_451366","name":"مسجد حضرت ابراهیم","lat":36.689363,"lng":45.136638,"addr":"","type":"place_of_worship"},{"id":"xx366961_451360","name":"مسجد صاحب الزمان","lat":36.696132,"lng":45.136046,"addr":"","type":"place_of_worship"},{"id":"xx366982_451346","name":"مسجد امام حسین","lat":36.698196,"lng":45.134614,"addr":"","type":"place_of_worship"},{"id":"xx366991_451359","name":"مسجد امام شافعی","lat":36.69908,"lng":45.135867,"addr":"","type":"place_of_worship"},{"id":"xx367013_451373","name":"مسجد جامع قدیم","lat":36.701343,"lng":45.137271,"addr":"","type":"place_of_worship"},{"id":"xx366995_451309","name":"حضرت ابراهیم","lat":36.699488,"lng":45.130937,"addr":"","type":"place_of_worship"},{"id":"xx367058_451424","name":"مسجد امام خمینی","lat":36.705803,"lng":45.142352,"addr":"","type":"place_of_worship"},{"id":"xx367127_451558","name":"مسجد خالدبن ولید","lat":36.712749,"lng":45.155793,"addr":"","type":"place_of_worship"},{"id":"xx366981_451404","name":"مسجد حاج شفیع","lat":36.698059,"lng":45.140436,"addr":"","type":"place_of_worship"},{"id":"xx367044_451387","name":"مسجد امام محمد غزالی","lat":36.704446,"lng":45.138663,"addr":"","type":"place_of_worship"},{"id":"xx379548_462307","name":"Islamic place","lat":37.954782,"lng":46.230693,"addr":"","type":"place_of_worship"},{"id":"xx380854_462585","name":"مسجد امام حسین","lat":38.085424,"lng":46.258489,"addr":"","type":"place_of_worship"},{"id":"xx383899_488439","name":"مسجد جامع عباس آباد","lat":38.389867,"lng":48.843949,"addr":"","type":"mosque"},{"id":"xx383968_488235","name":"مسجد امام جعفر صادق هودول","lat":38.396763,"lng":48.823543,"addr":"","type":"place_of_worship"},{"id":"xx382887_487660","name":"مسجد شیری حیاتی","lat":38.28871,"lng":48.765956,"addr":"","type":"place_of_worship"},{"id":"xx381160_488797","name":"مسجد هنزنی","lat":38.116023,"lng":48.879675,"addr":"","type":"place_of_worship"},{"id":"xx383907_488409","name":"مسجدعباس آباد","lat":38.390697,"lng":48.840925,"addr":"","type":"place_of_worship"},{"id":"xx382947_487254","name":"مسجد بابالو","lat":38.294694,"lng":48.725447,"addr":"","type":"place_of_worship"},{"id":"xx383066_487484","name":"مسجد رسول اکرم","lat":38.306596,"lng":48.748447,"addr":"","type":"place_of_worship"},{"id":"xx352531_462637","name":"مسجد هورامان","lat":35.253068,"lng":46.263714,"addr":"","type":"place_of_worship"},{"id":"xx384328_457838","name":"مسجد","lat":38.432798,"lng":45.783831,"addr":"","type":"place_of_worship"},{"id":"xx372001_494670","name":"مسجد","lat":37.200097,"lng":49.466956,"addr":"","type":"place_of_worship"},{"id":"xx372577_493806","name":"مسجد","lat":37.257723,"lng":49.380574,"addr":"","type":"place_of_worship"},{"id":"xx375303_450289","name":"مسجد نور","lat":37.530265,"lng":45.028924,"addr":"","type":"place_of_worship"},{"id":"xx370178_495848","name":"مسجد ولیعصر","lat":37.017849,"lng":49.584847,"addr":"","type":"place_of_worship"},{"id":"xx387458_477475","name":"مسجد جامع","lat":38.745779,"lng":47.747548,"addr":"","type":"place_of_worship"},{"id":"xx380802_485060","name":"مسجد جامع هیر","lat":38.080225,"lng":48.506016,"addr":"","type":"place_of_worship"},{"id":"xx373928_487255","name":"Islamic place","lat":37.39281,"lng":48.725457,"addr":"","type":"place_of_worship"},{"id":"xx394429_474056","name":"مسجد جامع","lat":39.44289,"lng":47.40558,"addr":"","type":"place_of_worship"},{"id":"xx380725_462941","name":"حسینیه محله نوبر","lat":38.072549,"lng":46.294108,"addr":"","type":"place_of_worship"},{"id":"xx371284_469767","name":"مسجد فاطمه زهرا (س);خیابان بهشتی","lat":37.128431,"lng":46.976744,"addr":"قره آغاج","type":"place_of_worship"},{"id":"xx371280_469742","name":"مسجد جامع شهر قره آغاج","lat":37.128036,"lng":46.974155,"addr":"","type":"place_of_worship"},{"id":"xx368361_463553","name":"Islamic place","lat":36.836111,"lng":46.355311,"addr":"","type":"place_of_worship"},{"id":"xx381528_457406","name":"مسجد حضرت ابوالفضل","lat":38.152823,"lng":45.740581,"addr":"","type":"place_of_worship"},{"id":"xx373751_492835","name":"مسجد جامع امام جعفر صادق (کوده)","lat":37.375084,"lng":49.283491,"addr":"","type":"place_of_worship"},{"id":"xx385207_456399","name":"Islamic place","lat":38.520676,"lng":45.639864,"addr":"","type":"place_of_worship"},{"id":"xx368629_484148","name":"Islamic place","lat":36.862873,"lng":48.414806,"addr":"","type":"place_of_worship"},{"id":"xx368649_484138","name":"Islamic place","lat":36.864919,"lng":48.41384,"addr":"","type":"place_of_worship"},{"id":"xx369650_495703","name":"Islamic place","lat":36.965001,"lng":49.570309,"addr":"","type":"place_of_worship"},{"id":"xx376008_490714","name":"مسجد جامع حضرت ولیعصر","lat":37.600848,"lng":49.071377,"addr":"","type":"place_of_worship"},{"id":"xx374636_490922","name":"مسجد امام حسین","lat":37.463616,"lng":49.092174,"addr":"","type":"place_of_worship"},{"id":"xx378177_488758","name":"مسجد جامع سراگاه","lat":37.817662,"lng":48.87584,"addr":"","type":"mosque"},{"id":"xx353204_491026","name":"Islamic place","lat":35.320383,"lng":49.10258,"addr":"","type":"place_of_worship"},{"id":"xx353082_490995","name":"مسجد جامع قروه درجزین","lat":35.308181,"lng":49.099488,"addr":"","type":"place_of_worship"},{"id":"xx351066_498329","name":"مسجد جامع","lat":35.106556,"lng":49.832851,"addr":"","type":"place_of_worship"},{"id":"xx350853_465211","name":"مسجد روستای دیو از ناو","lat":35.085293,"lng":46.521051,"addr":"","type":"place_of_worship"},{"id":"xx379570_460977","name":"Islamic place","lat":37.956964,"lng":46.097714,"addr":"","type":"place_of_worship"},{"id":"xx352781_471234","name":"مسجد جامع صلوات آباد","lat":35.27814,"lng":47.123385,"addr":"سنندج - همدان","type":"place_of_worship"},{"id":"xx352799_471238","name":"مسجد سادات","lat":35.279897,"lng":47.123844,"addr":"سنندج - قروه - همدان","type":"place_of_worship"},{"id":"xx352830_471285","name":"مسجد صلوات آباد","lat":35.283032,"lng":47.128463,"addr":"سنندج - قروه - همدان","type":"place_of_worship"},{"id":"xx355673_483233","name":"مسجد","lat":35.567304,"lng":48.323348,"addr":"","type":"place_of_worship"},{"id":"xx352079_487285","name":"مسجد تکیه","lat":35.207904,"lng":48.728514,"addr":"","type":"place_of_worship"},{"id":"xx352110_487279","name":"مسجد جامع","lat":35.210986,"lng":48.727875,"addr":"","type":"place_of_worship"},{"id":"xx375974_485513","name":"مسجد عبدالله","lat":37.597386,"lng":48.551272,"addr":"خلخال","type":"place_of_worship"},{"id":"xx366281_495056","name":"حسینیه شهدای گمنام","lat":36.628106,"lng":49.505628,"addr":"","type":"place_of_worship"},{"id":"xx371257_469721","name":"مسجد صاحب زمان عج","lat":37.125721,"lng":46.972069,"addr":"","type":"place_of_worship"},{"id":"xx383800_488560","name":"مسجد حضرت ابوالفضل","lat":38.380043,"lng":48.855992,"addr":"","type":"place_of_worship"},{"id":"xx383887_488627","name":"مسجد امام حسین علیه السلام","lat":38.388713,"lng":48.862739,"addr":"","type":"place_of_worship"},{"id":"xx383132_483654","name":"مسجد جامع گیلانده","lat":38.31322,"lng":48.365449,"addr":"","type":"place_of_worship"},{"id":"xx371430_496699","name":"مسجد الغدیر","lat":37.14301,"lng":49.669857,"addr":"","type":"place_of_worship"},{"id":"xx362884_499403","name":"مسجد امام حسین","lat":36.288434,"lng":49.940298,"addr":"","type":"place_of_worship"},{"id":"xx359918_494470","name":"مسجد اعظم","lat":35.991821,"lng":49.447009,"addr":"","type":"place_of_worship"},{"id":"xx359942_494486","name":"مسجد فاطمه زهرا","lat":35.994207,"lng":49.448608,"addr":"","type":"place_of_worship"},{"id":"xx359959_494497","name":"مسجد جامع","lat":35.995892,"lng":49.449704,"addr":"","type":"place_of_worship"},{"id":"xx360285_494247","name":"مسجد جامع","lat":36.028532,"lng":49.42469,"addr":"","type":"place_of_worship"},{"id":"xx362145_491963","name":"مسجد امام حسین","lat":36.214493,"lng":49.196275,"addr":"خیابان سید جمال الدین","type":"place_of_worship"},{"id":"xx365567_476134","name":"مسجد چهارده معصوم","lat":36.556692,"lng":47.613421,"addr":"","type":"place_of_worship"},{"id":"xx357608_484767","name":"مسج جامع","lat":35.760776,"lng":48.476726,"addr":"","type":"place_of_worship"},{"id":"xx360697_484436","name":"مسجد امیر المومنین","lat":36.069716,"lng":48.443555,"addr":"","type":"place_of_worship"},{"id":"xx360688_484407","name":"مسجد جامع","lat":36.068797,"lng":48.440679,"addr":"","type":"place_of_worship"},{"id":"xx362365_485439","name":"مسجد تاریخی","lat":36.236517,"lng":48.543859,"addr":"","type":"place_of_worship"},{"id":"xx362371_485443","name":"مسجد جامع","lat":36.237054,"lng":48.544288,"addr":"","type":"place_of_worship"},{"id":"xx369248_489602","name":"مسجد صاحب الزمان","lat":36.924791,"lng":48.96025,"addr":"","type":"place_of_worship"},{"id":"xx361208_485970","name":"موسی ابن جعفر","lat":36.120793,"lng":48.596966,"addr":"","type":"place_of_worship"},{"id":"xx371641_494001","name":"مصلی شفت","lat":37.16409,"lng":49.400109,"addr":"","type":"place_of_worship"},{"id":"xx371691_494048","name":"مسجد جامع ولیعصر عج","lat":37.169148,"lng":49.404761,"addr":"","type":"place_of_worship"},{"id":"xx374278_492491","name":"مسجد آیت ا..ضیابری","lat":37.427758,"lng":49.249109,"addr":"","type":"place_of_worship"},{"id":"xx368834_494949","name":"Islamic place","lat":36.883443,"lng":49.494878,"addr":"","type":"place_of_worship"},{"id":"xx377505_489340","name":"مسجد عباسیه اعظم اوله کری طولارود","lat":37.750534,"lng":48.933987,"addr":"","type":"place_of_worship"},{"id":"xx374004_484637","name":"Islamic place","lat":37.40035,"lng":48.463716,"addr":"کرکزلو","type":"place_of_worship"},{"id":"xx375035_484394","name":"Islamic place","lat":37.503469,"lng":48.43939,"addr":"قزل دره","type":"place_of_worship"},{"id":"xx355412_483450","name":"مسجد","lat":35.541215,"lng":48.345045,"addr":"","type":"place_of_worship"},{"id":"xx355377_483466","name":"مسجد","lat":35.537691,"lng":48.346551,"addr":"","type":"place_of_worship"},{"id":"xx372279_495836","name":"مسجد سیدالشهدا","lat":37.227922,"lng":49.5836,"addr":"","type":"place_of_worship"},{"id":"xx371040_492661","name":"مسجد صاحب الزمان روستای حیدر آلات","lat":37.103973,"lng":49.266073,"addr":"","type":"mosque"},{"id":"xx371690_492823","name":"Islamic place","lat":37.169032,"lng":49.282268,"addr":"","type":"mosque"},{"id":"xx364895_462070","name":"مسجد نور","lat":36.489478,"lng":46.206962,"addr":"","type":"place_of_worship"},{"id":"xx375813_450615","name":"مسجد موسی","lat":37.581265,"lng":45.061488,"addr":"","type":"place_of_worship"},{"id":"xx375821_450586","name":"مسجد ابوذر","lat":37.582141,"lng":45.058614,"addr":"","type":"place_of_worship"},{"id":"xx365027_462089","name":"مسجد حضرت ابوبکر صدیق","lat":36.502722,"lng":46.208907,"addr":"","type":"place_of_worship"},{"id":"xx364975_462037","name":"مسجد معراج","lat":36.497483,"lng":46.203718,"addr":"","type":"place_of_worship"},{"id":"xx365018_462019","name":"مسجد حضرت حمزه","lat":36.501827,"lng":46.201868,"addr":"","type":"place_of_worship"},{"id":"xx365003_461982","name":"مسجد شیخ حسام الدین","lat":36.500265,"lng":46.19818,"addr":"","type":"place_of_worship"},{"id":"xx376910_483490","name":"مسجد جامع گیوی","lat":37.690952,"lng":48.349041,"addr":"","type":"place_of_worship"},{"id":"xx375405_450230","name":"مسجد امام حسین","lat":37.540537,"lng":45.022976,"addr":"","type":"place_of_worship"},{"id":"xx365132_462052","name":"مسجد الرسول","lat":36.513234,"lng":46.205199,"addr":"","type":"place_of_worship"},{"id":"xx365239_462061","name":"مسجد ایلخانی زاده","lat":36.523885,"lng":46.206073,"addr":"","type":"place_of_worship"},{"id":"xx365231_462040","name":"مسجد دار القرآن","lat":36.52309,"lng":46.203953,"addr":"","type":"place_of_worship"},{"id":"xx365268_462042","name":"مسجد الخلیل","lat":36.526778,"lng":46.204206,"addr":"","type":"place_of_worship"},{"id":"xx365263_462057","name":"مسجد صاحب الزمان","lat":36.526289,"lng":46.205664,"addr":"","type":"place_of_worship"},{"id":"xx365295_462050","name":"مسجد سید شکره","lat":36.52953,"lng":46.205003,"addr":"","type":"place_of_worship"},{"id":"xx365347_462077","name":"مسجد امام خمینی","lat":36.534652,"lng":46.207738,"addr":"","type":"place_of_worship"},{"id":"xx365377_462091","name":"مسجد علی نصیری","lat":36.537665,"lng":46.209052,"addr":"","type":"place_of_worship"},{"id":"xx365465_462102","name":"مسجد جامع علی آباد","lat":36.54653,"lng":46.21015,"addr":"","type":"place_of_worship"},{"id":"xx365530_462158","name":"مسجد خلفای راشدین","lat":36.552971,"lng":46.215774,"addr":"","type":"place_of_worship"},{"id":"xx365489_462172","name":"مسجد صلاح الدین ایوبی","lat":36.54886,"lng":46.217208,"addr":"","type":"place_of_worship"},{"id":"xx375082_491489","name":"مسجد امیرالمؤمنین خوشابر","lat":37.508186,"lng":49.148908,"addr":"","type":"place_of_worship"},{"id":"xx365126_462107","name":"مسجد دارالسلام","lat":36.512594,"lng":46.210726,"addr":"","type":"place_of_worship"},{"id":"xx365154_462165","name":"مسجد شیخ شلتوت","lat":36.515363,"lng":46.216512,"addr":"","type":"place_of_worship"},{"id":"xx365177_462158","name":"مسجد حضرت اسماعیل","lat":36.517732,"lng":46.215765,"addr":"","type":"place_of_worship"},{"id":"xx365156_462119","name":"مسجد دارالاحسان","lat":36.515569,"lng":46.211865,"addr":"","type":"place_of_worship"},{"id":"xx365162_462084","name":"مسجد قبله","lat":36.516177,"lng":46.208445,"addr":"","type":"place_of_worship"},{"id":"xx365189_462074","name":"مسجد عزیز خان سردار موکری","lat":36.51888,"lng":46.207385,"addr":"","type":"place_of_worship"},{"id":"xx365191_462108","name":"مسجد خانقاه","lat":36.519066,"lng":46.210757,"addr":"","type":"place_of_worship"},{"id":"xx365197_462115","name":"مسجد حضرت ابراهیم","lat":36.519709,"lng":46.211475,"addr":"","type":"place_of_worship"},{"id":"xx375653_450546","name":"مسجد اله اکبر","lat":37.565322,"lng":45.054567,"addr":"","type":"place_of_worship"},{"id":"xx375786_450286","name":"مسجد بزرگ اهل سنت اسلام آباد","lat":37.578583,"lng":45.02861,"addr":"","type":"place_of_worship"},{"id":"xx365221_462126","name":"مسجد امام شافعی","lat":36.522123,"lng":46.212638,"addr":"","type":"place_of_worship"},{"id":"xx365227_462101","name":"مسجدالنبی","lat":36.522695,"lng":46.210061,"addr":"","type":"place_of_worship"},{"id":"xx365226_462071","name":"مسجد بازار","lat":36.522629,"lng":46.207065,"addr":"","type":"place_of_worship"},{"id":"xx365272_462082","name":"مسجد حاج رحمان عبداللهی","lat":36.527217,"lng":46.208196,"addr":"","type":"place_of_worship"},{"id":"xx365294_462091","name":"مسجد حاج ابراهیم آذری","lat":36.52941,"lng":46.209056,"addr":"","type":"place_of_worship"},{"id":"xx365281_462131","name":"مسجد امام حسین","lat":36.528138,"lng":46.213101,"addr":"","type":"place_of_worship"},{"id":"xx365372_462151","name":"مسجد محمد غزالی","lat":36.537223,"lng":46.215098,"addr":"","type":"place_of_worship"},{"id":"xx365346_462131","name":"مسجد سید جمال الدین","lat":36.534603,"lng":46.213129,"addr":"","type":"place_of_worship"},{"id":"xx365377_462121","name":"مسجد شیخ سعدی","lat":36.537662,"lng":46.212144,"addr":"","type":"place_of_worship"},{"id":"xx365414_462146","name":"مسجد سلمان فارسی","lat":36.541444,"lng":46.214629,"addr":"","type":"place_of_worship"},{"id":"xx365413_462184","name":"مسجد احمد ملاصالح شیرزاد","lat":36.541304,"lng":46.21845,"addr":"","type":"place_of_worship"},{"id":"xx365319_462193","name":"مسجد امام فخر رازی","lat":36.531859,"lng":46.219333,"addr":"","type":"place_of_worship"},{"id":"xx359969_458882","name":"مسجد","lat":35.996892,"lng":45.888208,"addr":"","type":"place_of_worship"},{"id":"xx360015_458882","name":"مسجد توحید","lat":36.001501,"lng":45.888181,"addr":"","type":"place_of_worship"},{"id":"xx365230_461945","name":"مسجدالنبی","lat":36.522959,"lng":46.194526,"addr":"","type":"place_of_worship"},{"id":"xx365255_461950","name":"مسجد حضرت اسماعیل","lat":36.525549,"lng":46.194979,"addr":"","type":"place_of_worship"},{"id":"xx365276_461940","name":"مسجد حضرت محمد (ص)","lat":36.527647,"lng":46.193989,"addr":"","type":"place_of_worship"},{"id":"xx365299_461916","name":"مسجد جامع","lat":36.529853,"lng":46.191616,"addr":"","type":"place_of_worship"},{"id":"xx365319_461880","name":"مسجد مصطفی طوطی","lat":36.531932,"lng":46.188002,"addr":"","type":"place_of_worship"},{"id":"xx365327_461906","name":"مسجد امام حسن","lat":36.532711,"lng":46.190575,"addr":"","type":"place_of_worship"},{"id":"xx365233_462174","name":"مسجد سید قطب","lat":36.523251,"lng":46.217407,"addr":"","type":"place_of_worship"},{"id":"xx365251_462245","name":"مسجد حضرت فاطمه","lat":36.525128,"lng":46.224494,"addr":"","type":"place_of_worship"},{"id":"xx389215_480573","name":"KHAN KANDI MOSQUE","lat":38.921514,"lng":48.057317,"addr":"khan kandi","type":"place_of_worship"},{"id":"xx352034_461829","name":"Great Mala Nazir Mosque","lat":35.203384,"lng":46.182871,"addr":"","type":"place_of_worship"},{"id":"xx352004_461859","name":"مزگەوتی گەورەی تەوێلە","lat":35.200356,"lng":46.185897,"addr":"","type":"place_of_worship"},{"id":"xx375609_451008","name":"مسجد امام علی","lat":37.56085,"lng":45.100782,"addr":"","type":"place_of_worship"},{"id":"xx375692_450952","name":"مسجد خاتم الانبیا","lat":37.569218,"lng":45.095194,"addr":"کنارگذر بزرگراه خاتم الانبیا","type":"place_of_worship"},{"id":"xx352512_477809","name":"مسجد جامع","lat":35.251159,"lng":47.780938,"addr":"","type":"place_of_worship"},{"id":"xx350606_471533","name":"مسجد سیاه","lat":35.060632,"lng":47.15332,"addr":"","type":"place_of_worship"},{"id":"xx350632_479648","name":"مسجد جامع","lat":35.063247,"lng":47.964778,"addr":"","type":"place_of_worship"},{"id":"xx365185_462020","name":"مسجد حضرت عمر بن خطاب (رض)","lat":36.5185,"lng":46.201957,"addr":"","type":"place_of_worship"},{"id":"xx362541_462853","name":"مسجد حصرت ابراهیم","lat":36.254059,"lng":46.285283,"addr":"","type":"place_of_worship"},{"id":"xx362451_462693","name":"مسجد سلمان فارسی","lat":36.245141,"lng":46.269262,"addr":"","type":"place_of_worship"},{"id":"xx362429_462657","name":"Islamic place","lat":36.242889,"lng":46.265745,"addr":"","type":"place_of_worship"},{"id":"xx375627_450860","name":"مسجد یاوران مهدی","lat":37.562707,"lng":45.085978,"addr":"ولیعصر","type":"place_of_worship"},{"id":"xx375639_450501","name":"مسجد سید تاج الدین","lat":37.563852,"lng":45.05012,"addr":"","type":"place_of_worship"},{"id":"xx352212_482061","name":"مسجد امیرالمومنین","lat":35.221245,"lng":48.206089,"addr":"","type":"place_of_worship"},{"id":"xx362393_462690","name":"مسجد","lat":36.239287,"lng":46.269,"addr":"","type":"place_of_worship"},{"id":"xx362400_462678","name":"بابه شیخ","lat":36.239967,"lng":46.267767,"addr":"","type":"place_of_worship"},{"id":"xx372824_496058","name":"مسجد ابوذر","lat":37.28237,"lng":49.605817,"addr":"","type":"place_of_worship"},{"id":"xx372776_495823","name":"مسجد صالح آباد","lat":37.277555,"lng":49.582259,"addr":"","type":"place_of_worship"},{"id":"xx362452_462653","name":"حضرت عمر مسجد","lat":36.245174,"lng":46.265287,"addr":"","type":"place_of_worship"},{"id":"xx362373_462713","name":"مسجد حاج شیخ اسماعیل","lat":36.237267,"lng":46.27132,"addr":"","type":"place_of_worship"},{"id":"xx362368_462664","name":"مسجد شیخ مظهر","lat":36.236815,"lng":46.266372,"addr":"بلوار جمهوری","type":"place_of_worship"},{"id":"xx362362_462676","name":"مسجد دیمه کالان","lat":36.236202,"lng":46.267572,"addr":"","type":"place_of_worship"},{"id":"xx362392_462663","name":"پیر خزایی","lat":36.239238,"lng":46.266306,"addr":"پیر خزایی","type":"place_of_worship"},{"id":"xx362191_462661","name":"مسجد امام محمد شافعی","lat":36.219147,"lng":46.266093,"addr":"","type":"place_of_worship"},{"id":"xx362214_462635","name":"مسجد جامع نور قوخ","lat":36.221377,"lng":46.263547,"addr":"","type":"place_of_worship"},{"id":"xx362515_462658","name":"مسجد دار الصفا","lat":36.251539,"lng":46.26575,"addr":"","type":"place_of_worship"},{"id":"xx384290_457567","name":"مسجد امام حسن عسکری(ع)","lat":38.428985,"lng":45.756708,"addr":"","type":"place_of_worship"},{"id":"xx369505_461330","name":"مسجد جامع کوی قره ورن","lat":36.950546,"lng":46.132998,"addr":"","type":"place_of_worship"},{"id":"xx369526_463212","name":"حسینی انصارالحسین","lat":36.95261,"lng":46.321216,"addr":"باروق","type":"place_of_worship"},{"id":"xx373726_462046","name":"Islamic place","lat":37.372627,"lng":46.204562,"addr":"","type":"place_of_worship"},{"id":"xx372181_453091","name":"Islamic place","lat":37.218095,"lng":45.309068,"addr":"","type":"place_of_worship"},{"id":"xx380112_461724","name":"مسجد سیدالشهدا","lat":38.011174,"lng":46.172403,"addr":"خلجان","type":"place_of_worship"},{"id":"xx380103_461739","name":"(مسجد صاحب الزمان (ع","lat":38.01035,"lng":46.173935,"addr":"خلجان","type":"place_of_worship"},{"id":"xx373076_493332","name":"گلزار شهدا","lat":37.307644,"lng":49.333212,"addr":"","type":"place_of_worship"},{"id":"xx380289_461459","name":"مسجد‌جامع","lat":38.028862,"lng":46.145949,"addr":"","type":"place_of_worship"},{"id":"xx380258_461474","name":"مسجد حسینی","lat":38.025801,"lng":46.147402,"addr":"","type":"place_of_worship"},{"id":"xx380228_461486","name":"مسجد حاج ابراهیم","lat":38.0228,"lng":46.148575,"addr":"","type":"place_of_worship"},{"id":"xx380250_461524","name":"مسجد رسول الله","lat":38.025025,"lng":46.152399,"addr":"","type":"place_of_worship"},{"id":"xx380278_461539","name":"مهدیه سردرود","lat":38.027771,"lng":46.153932,"addr":"","type":"place_of_worship"},{"id":"xx380292_461548","name":"مسجد موسی بن جعفر","lat":38.029224,"lng":46.154753,"addr":"","type":"place_of_worship"},{"id":"xx384140_487670","name":"مسجد شونده چولا","lat":38.413967,"lng":48.766985,"addr":"","type":"place_of_worship"},{"id":"xx380454_462846","name":"مسجد امام حسن (ع)","lat":38.045407,"lng":46.28462,"addr":"","type":"place_of_worship"},{"id":"xx372861_483702","name":"مسجد روستای منامن","lat":37.28613,"lng":48.370151,"addr":"","type":"place_of_worship"},{"id":"xx372849_483707","name":"مسجد قدیم روستای منامن","lat":37.28492,"lng":48.37072,"addr":"","type":"place_of_worship"},{"id":"xx383643_488392","name":"مسجد حضرت رسول دربند","lat":38.364312,"lng":48.839174,"addr":"","type":"mosque"},{"id":"xx366875_485019","name":"مسجد نبی اکرم ص","lat":36.687482,"lng":48.501937,"addr":"","type":"place_of_worship"},{"id":"xx362389_462993","name":"مسجد جامع تازآباد","lat":36.238873,"lng":46.299312,"addr":"","type":"place_of_worship"},{"id":"xx362397_462597","name":"مسجد دارالاسلام","lat":36.239733,"lng":46.259714,"addr":"","type":"place_of_worship"},{"id":"xx362041_462219","name":"مسجد آرامستان آیچی","lat":36.204099,"lng":46.221925,"addr":"","type":"place_of_worship"},{"id":"xx387176_452103","name":"Mosque","lat":38.71765,"lng":45.210313,"addr":"","type":"place_of_worship"},{"id":"xx366917_484412","name":"مسجد ابوذر","lat":36.691742,"lng":48.441195,"addr":"","type":"place_of_worship"},{"id":"xx367160_465169","name":"مسجد جامع","lat":36.715984,"lng":46.516852,"addr":"","type":"place_of_worship"},{"id":"xx367227_465140","name":"مسجد امام حسین (ع)","lat":36.722744,"lng":46.514022,"addr":"","type":"place_of_worship"},{"id":"xx367200_465069","name":"مسجد محمد رسول الله (ص)","lat":36.720031,"lng":46.506922,"addr":"","type":"place_of_worship"},{"id":"xx367181_465175","name":"حسینه شهید معینی","lat":36.718078,"lng":46.517536,"addr":"","type":"place_of_worship"},{"id":"xx367174_465213","name":"حسینه اباعبدالله الحسین (ع)","lat":36.717442,"lng":46.521306,"addr":"","type":"place_of_worship"},{"id":"xx367177_465204","name":"حسینه قمر بنی هاشم (ع)","lat":36.717678,"lng":46.520391,"addr":"","type":"place_of_worship"},{"id":"xx360679_496924","name":"Islamic place","lat":36.067926,"lng":49.692382,"addr":"","type":"place_of_worship"},{"id":"xx352815_486895","name":"مسجد حضرت محمد رسول الله","lat":35.281477,"lng":48.689461,"addr":"میدان انقلاب","type":"mosque"},{"id":"xx362436_462564","name":"مسجد حضرت خدیجه کبری","lat":36.24364,"lng":46.256419,"addr":"","type":"place_of_worship"},{"id":"xx387987_476858","name":"مسجد سردی","lat":38.798691,"lng":47.685842,"addr":"","type":"place_of_worship"},{"id":"xx373342_462390","name":"مسجد شهدا","lat":37.334161,"lng":46.239007,"addr":"ورجوی","type":"place_of_worship"},{"id":"xx373353_462399","name":"مسجد","lat":37.335343,"lng":46.239863,"addr":"ورجوی","type":"place_of_worship"},{"id":"xx373345_462411","name":"مسجد جامع","lat":37.334488,"lng":46.241051,"addr":"ورجوی","type":"place_of_worship"},{"id":"xx373334_462424","name":"مسجد خان رئیس","lat":37.333446,"lng":46.242442,"addr":"ورجوی","type":"place_of_worship"},{"id":"xx373350_462430","name":"مسجد ولیعصر","lat":37.334975,"lng":46.243041,"addr":"ورجوی","type":"place_of_worship"},{"id":"xx373887_462323","name":"حسینیه اعظم قاسمیه","lat":37.388679,"lng":46.232309,"addr":"مراغه","type":"place_of_worship"},{"id":"xx373894_462330","name":"مسجد قاضی","lat":37.389424,"lng":46.232967,"addr":"مراغه","type":"place_of_worship"},{"id":"xx373907_462341","name":"مسجد ملا محمود","lat":37.39074,"lng":46.234112,"addr":"مراغه","type":"place_of_worship"},{"id":"xx373927_462336","name":"مسجد فواره","lat":37.392659,"lng":46.233609,"addr":"مراغه","type":"place_of_worship"},{"id":"xx373881_462383","name":"حسینیه حاج حسین پاشا","lat":37.388083,"lng":46.238269,"addr":"مراغه","type":"monastery"},{"id":"xx373862_462346","name":"مسجد ملامعزالدین","lat":37.386232,"lng":46.234573,"addr":"مراغه","type":"monastery"},{"id":"xx373835_462296","name":"مسجد دانادل","lat":37.383506,"lng":46.229626,"addr":"مراغه","type":"monastery"},{"id":"xx362261_462727","name":"مسجد چهار یار نبی","lat":36.226122,"lng":46.272694,"addr":"سقز","type":"place_of_worship"},{"id":"xx362261_462848","name":"مسجد امام محمد غزالی","lat":36.226099,"lng":46.284808,"addr":"","type":"place_of_worship"},{"id":"xx373849_462493","name":"مسجد حضرت محمد (ص)","lat":37.384945,"lng":46.24933,"addr":"مراغه","type":"place_of_worship"},{"id":"xx373379_462399","name":"حسینیه الزهراء","lat":37.337855,"lng":46.239884,"addr":"ورجوی","type":"place_of_worship"},{"id":"xx373351_462409","name":"حسینیه فاطمیه","lat":37.335121,"lng":46.240887,"addr":"ورجوی","type":"place_of_worship"},{"id":"xx369670_451860","name":"(ص) مسجد حصرت محمد","lat":36.967009,"lng":45.186043,"addr":"","type":"place_of_worship"},{"id":"xx375088_458633","name":"مسجد ولیعصر (عج)","lat":37.508831,"lng":45.863282,"addr":"بزرگراه آذر شهر - عجب شیر","type":"place_of_worship"},{"id":"xx384342_457680","name":"مدرسه اعظم","lat":38.434233,"lng":45.767981,"addr":"","type":"school"},{"id":"xx384340_457583","name":"مسجد باب الحوائج","lat":38.434033,"lng":45.758316,"addr":"","type":"place_of_worship"},{"id":"xx384331_457458","name":"مسجد ولی الله اعظم دیزج یکان","lat":38.433089,"lng":45.745798,"addr":"","type":"place_of_worship"},{"id":"xx384284_457751","name":"مسجد جان آقا","lat":38.428412,"lng":45.775118,"addr":"","type":"place_of_worship"},{"id":"xx384312_457777","name":"مسجد سرهنگ","lat":38.431195,"lng":45.777724,"addr":"","type":"place_of_worship"},{"id":"xx384302_457757","name":"حسینیه علی بن موسی الرضا","lat":38.430196,"lng":45.775696,"addr":"","type":"place_of_worship"},{"id":"xx384325_457716","name":"مسجد قره آغاج","lat":38.432484,"lng":45.771555,"addr":"","type":"place_of_worship"},{"id":"xx384299_457694","name":"مسجد سید فخرالدین","lat":38.429944,"lng":45.769356,"addr":"","type":"place_of_worship"},{"id":"xx384218_457885","name":"مسجد جواد المه","lat":38.421779,"lng":45.788525,"addr":"","type":"place_of_worship"},{"id":"xx384240_457935","name":"مسجد پنج تن آل عبا","lat":38.423972,"lng":45.793486,"addr":"","type":"place_of_worship"},{"id":"xx384265_457971","name":"مسجد علی اکبر","lat":38.426461,"lng":45.797116,"addr":"","type":"place_of_worship"},{"id":"xx384253_457994","name":"مسجد امام حسین","lat":38.425327,"lng":45.799434,"addr":"","type":"place_of_worship"},{"id":"xx384259_458018","name":"مسجد اسماعیل خان","lat":38.425864,"lng":45.801752,"addr":"","type":"place_of_worship"},{"id":"xx384294_457902","name":"مسجد امام جواد","lat":38.429371,"lng":45.79022,"addr":"","type":"place_of_worship"},{"id":"xx384431_457785","name":"مسجد امام حسین","lat":38.44313,"lng":45.778549,"addr":"","type":"place_of_worship"},{"id":"xx384251_457963","name":"مسجد فاطمه زهرا","lat":38.425063,"lng":45.796253,"addr":"","type":"place_of_worship"},{"id":"xx384209_457858","name":"مسجد چهارده معصوم","lat":38.420914,"lng":45.785752,"addr":"","type":"place_of_worship"},{"id":"xx384207_457805","name":"مسجد موسی ابن جعفر","lat":38.420731,"lng":45.780535,"addr":"","type":"place_of_worship"},{"id":"xx368534_495656","name":"مسجد ولیعصر","lat":36.853377,"lng":49.565581,"addr":"","type":"mosque"},{"id":"xx368879_495327","name":"مسجد امام خمینی","lat":36.887915,"lng":49.532697,"addr":"","type":"place_of_worship"},{"id":"xx366759_450447","name":"مزگەوتی گەورەی حاجی ئۆمەران","lat":36.675868,"lng":45.044726,"addr":"","type":"place_of_worship"},{"id":"xx366707_450498","name":"Islamic place","lat":36.670672,"lng":45.049753,"addr":"","type":"place_of_worship"},{"id":"xx350286_479729","name":"مسجد امیرالمونین صندوق آباد","lat":35.028617,"lng":47.972872,"addr":"","type":"place_of_worship"},{"id":"xx375948_490592","name":"مسجد ملامحله","lat":37.594809,"lng":49.05918,"addr":"","type":"place_of_worship"},{"id":"xx351680_478019","name":"‌مسجد جامع قروه","lat":35.167958,"lng":47.801865,"addr":"","type":"place_of_worship"},{"id":"xx373538_460224","name":"مسجد صاحب الزمان","lat":37.353786,"lng":46.022402,"addr":"","type":"place_of_worship"},{"id":"xx373553_460172","name":"مسجد امام حسین (ع)","lat":37.355302,"lng":46.01721,"addr":"","type":"place_of_worship"},{"id":"xx379519_461227","name":"مسجد جواد الائمه","lat":37.951943,"lng":46.122749,"addr":"سهند","type":"place_of_worship"},{"id":"xx350475_463680","name":"مسجد جامع پاوه","lat":35.047476,"lng":46.367999,"addr":"","type":"place_of_worship"},{"id":"xx374253_477129","name":"مسجد حضرت ابوالفضل (ع)","lat":37.425308,"lng":47.712944,"addr":"امام خمینی","type":"place_of_worship"},{"id":"xx352302_461211","name":"مزگەوت ومەدرەسەوخانەقای بیارەی شەریفە","lat":35.230225,"lng":46.121124,"addr":"بیاره","type":"place_of_worship"},{"id":"xx351967_461849","name":"مزگەوت ومەدرەسە و خانەقای تەوێڵە","lat":35.196719,"lng":46.184912,"addr":"","type":"place_of_worship"},{"id":"xx380731_463319","name":"قله","lat":38.073055,"lng":46.331871,"addr":"تبریز","type":"place_of_worship"},{"id":"xx369324_457224","name":"مسجد","lat":36.932412,"lng":45.722394,"addr":"","type":"place_of_worship"},{"id":"xx370169_456925","name":"مسجد","lat":37.016869,"lng":45.692506,"addr":"","type":"place_of_worship"},{"id":"xx362565_462756","name":"مسجد گلستان اسلام","lat":36.256519,"lng":46.275602,"addr":"","type":"place_of_worship"},{"id":"xx371711_499296","name":"امامزاده آقا سید حسن","lat":37.17115,"lng":49.929562,"addr":"","type":"place_of_worship"},{"id":"xx379552_469581","name":"مسجد صاحب الزمان","lat":37.955182,"lng":46.958146,"addr":"خیابان مصلی","type":"place_of_worship"},{"id":"xx380333_479983","name":"مسجد جامع نیر","lat":38.033301,"lng":47.998308,"addr":"","type":"place_of_worship"},{"id":"xx387019_458012","name":"مسجد ملانوروز","lat":38.701886,"lng":45.801206,"addr":"","type":"place_of_worship"},{"id":"xx387019_458010","name":"زینبیه","lat":38.701916,"lng":45.800971,"addr":"","type":"place_of_worship"},{"id":"xx384271_457735","name":"مسجد المهدی","lat":38.427078,"lng":45.773505,"addr":"","type":"place_of_worship"},{"id":"xx384745_470701","name":"(مسجد رسول الله (شکٖلّو","lat":38.474541,"lng":47.070139,"addr":"","type":"place_of_worship"},{"id":"xx384779_470655","name":"(مسجد امام خمینی (سفید","lat":38.477909,"lng":47.065546,"addr":"","type":"place_of_worship"},{"id":"xx384781_470684","name":"مسجد مجتهد","lat":38.478148,"lng":47.068406,"addr":"","type":"place_of_worship"},{"id":"xx384742_470804","name":"مسجد چهارده معصوم","lat":38.474159,"lng":47.080362,"addr":"","type":"place_of_worship"},{"id":"xx384783_470592","name":"مسجد صاحب الزمان","lat":38.478275,"lng":47.059246,"addr":"","type":"place_of_worship"},{"id":"xx384426_457874","name":"حسینیه حضرت ابالفضل (ع)","lat":38.442599,"lng":45.787444,"addr":"","type":"place_of_worship"},{"id":"xx362672_499958","name":"درب آشپزخانه مسجد صالحيه","lat":36.267204,"lng":49.995841,"addr":"","type":"place_of_worship"},{"id":"xx366713_484675","name":"مسجد غریبیه پایین","lat":36.671304,"lng":48.467479,"addr":"","type":"place_of_worship"},{"id":"xx380733_462662","name":"دبیرستان مهرپویا","lat":38.073295,"lng":46.266174,"addr":"کوی اسلامی","type":"school"},{"id":"xx379277_460652","name":"مسجد جامع روستای دیزج","lat":37.927667,"lng":46.065174,"addr":"","type":"place_of_worship"},{"id":"xx379166_461084","name":"مسجد محله ی بالا","lat":37.916643,"lng":46.108411,"addr":"اسکو","type":"place_of_worship"},{"id":"xx379196_461075","name":"Islamic place","lat":37.919559,"lng":46.107478,"addr":"","type":"place_of_worship"},{"id":"xx380170_461390","name":"مسجد حضرت ابوالفضل (ع)","lat":38.016977,"lng":46.139008,"addr":"حافظ","type":"place_of_worship"},{"id":"xx379545_461121","name":"مسجد امام رضا(ع)","lat":37.954468,"lng":46.112145,"addr":"سهند","type":"place_of_worship"},{"id":"xx379429_461129","name":"Islamic place","lat":37.942894,"lng":46.112869,"addr":"مجلسی سوم","type":"place_of_worship"},{"id":"xx380508_462793","name":"مسجد باب الحوائج (ع)","lat":38.050805,"lng":46.279349,"addr":"ابوریحان جنوبی ، بلوار مهدیه ، کوی ارم","type":"place_of_worship"},{"id":"xx380610_461378","name":"مسجد جامع کوجووار","lat":38.060981,"lng":46.13781,"addr":"","type":"place_of_worship"},{"id":"xx380598_461378","name":"مسجد امام زمان کوجووار","lat":38.059849,"lng":46.137815,"addr":"","type":"place_of_worship"},{"id":"xx380634_461380","name":"مسجد محمد حنفیه کوجووار","lat":38.063372,"lng":46.137971,"addr":"","type":"place_of_worship"},{"id":"xx380626_461369","name":"مسجد حاجیه نرگس کوجووار","lat":38.062609,"lng":46.136946,"addr":"","type":"place_of_worship"},{"id":"xx380641_461435","name":"Islamic place","lat":38.06407,"lng":46.143453,"addr":"","type":"grave_yard"},{"id":"xx350050_458623","name":"مزگەوتی گوندی گمە","lat":35.004996,"lng":45.862341,"addr":"","type":"place_of_worship"},{"id":"xx374277_477113","name":"مسجد چراغ","lat":37.427733,"lng":47.711341,"addr":"","type":"place_of_worship"},{"id":"xx365301_462264","name":"مسجد دانیال نبی مسکن مهر","lat":36.530144,"lng":46.226442,"addr":"مسکن مهر","type":"place_of_worship"},{"id":"xx371174_488736","name":"مسجد حضرت ابوالفضل (ع) سياهورود","lat":37.117434,"lng":48.873568,"addr":"سیاهورود","type":"place_of_worship"},{"id":"xx369516_453812","name":"مسجد حاجی بابا آغا","lat":36.951641,"lng":45.381228,"addr":"","type":"place_of_worship"},{"id":"xx372969_496226","name":"مسجد امام حسن مجتبی","lat":37.296946,"lng":49.622558,"addr":"","type":"place_of_worship"},{"id":"xx374201_477151","name":"مسجد بازار","lat":37.42005,"lng":47.715105,"addr":"","type":"place_of_worship"},{"id":"xx361562_454770","name":"مسجد سرچاوه","lat":36.156153,"lng":45.476989,"addr":"میدان سه ر چاوه","type":"place_of_worship"},{"id":"xx371833_460555","name":"مسجد جامع مبارک شهر","lat":37.183301,"lng":46.055528,"addr":"خیابان شهریار","type":"place_of_worship"},{"id":"xx371200_460388","name":"Islamic place","lat":37.120018,"lng":46.038819,"addr":"","type":"place_of_worship"},{"id":"xx370101_462022","name":"مسجد امیر مومنین","lat":37.010125,"lng":46.202207,"addr":"","type":"place_of_worship"},{"id":"xx370117_462068","name":"مسجد جامع","lat":37.011743,"lng":46.206769,"addr":"","type":"place_of_worship"},{"id":"xx370113_462054","name":"مسجد سادات","lat":37.011285,"lng":46.205354,"addr":"","type":"place_of_worship"},{"id":"xx370097_462071","name":"مسجد صاحب الزمان","lat":37.009687,"lng":46.207093,"addr":"","type":"place_of_worship"},{"id":"xx370242_461631","name":"Islamic place","lat":37.024238,"lng":46.163118,"addr":"","type":"place_of_worship"},{"id":"xx372566_480628","name":"مسجد جامع","lat":37.256562,"lng":48.062752,"addr":"","type":"place_of_worship"},{"id":"xx372592_480646","name":"مسجد حشمت","lat":37.259203,"lng":48.06461,"addr":"","type":"place_of_worship"},{"id":"xx381718_469378","name":"مسجد جامع","lat":38.171847,"lng":46.937759,"addr":"","type":"place_of_worship"},{"id":"xx382153_456269","name":"مسجد چهارده معصوم","lat":38.215251,"lng":45.626868,"addr":"","type":"place_of_worship"},{"id":"xx381768_454879","name":"مسجد جامع","lat":38.176822,"lng":45.487921,"addr":"","type":"place_of_worship"},{"id":"xx367721_457278","name":"مسجد حاج صالح شاطری","lat":36.772062,"lng":45.727817,"addr":"","type":"place_of_worship"},{"id":"xx378437_459752","name":"مسجد حضرت ابوالفضل","lat":37.843729,"lng":45.975235,"addr":"","type":"place_of_worship"},{"id":"xx377186_472013","name":"مسجد","lat":37.718578,"lng":47.201299,"addr":"","type":"place_of_worship"},{"id":"xx380622_462721","name":"مسجد کلاهی تبریز","lat":38.0622,"lng":46.272112,"addr":"","type":"place_of_worship"},{"id":"xx353680_471409","name":"مزگەوتی تازاوای کانی گوڵزار","lat":35.368008,"lng":47.140938,"addr":"","type":"place_of_worship"},{"id":"xx373371_491244","name":"مسجد حضرت ابوالفضل","lat":37.337062,"lng":49.124366,"addr":"","type":"mosque"},{"id":"xx352119_490489","name":"Islamic place","lat":35.211907,"lng":49.048901,"addr":"","type":"mosque"},{"id":"xx379527_487188","name":"Islamic place","lat":37.952694,"lng":48.718784,"addr":"لاسم - سوباتان","type":"grave_yard"},{"id":"xx379989_460396","name":"مسجد الزهرا بارانلو","lat":37.998933,"lng":46.039572,"addr":"","type":"place_of_worship"},{"id":"xx367751_497552","name":"مسجد جامع شهر بره سر","lat":36.775085,"lng":49.755181,"addr":"","type":"place_of_worship"},{"id":"xx396367_478921","name":"مسجد فاطمه الزهرا","lat":39.636657,"lng":47.892085,"addr":"فجر","type":"place_of_worship"},{"id":"xx375103_478413","name":"مسجد چتاب سفلی","lat":37.510324,"lng":47.841295,"addr":"","type":"place_of_worship"},{"id":"xx388058_456859","name":"امامزاده اسماعیل","lat":38.805833,"lng":45.685875,"addr":"","type":"imamzadeh"},{"id":"xx353031_469979","name":"مجتمع آموزشی استادان","lat":35.303103,"lng":46.997948,"addr":"نوبهار","type":"mosque"},{"id":"xx358731_476069","name":"مسجد جامع بیجار","lat":35.873134,"lng":47.606907,"addr":"","type":"place_of_worship"},{"id":"xx358689_476102","name":"Islamic place","lat":35.868904,"lng":47.610174,"addr":"","type":"place_of_worship"},{"id":"xx369529_453881","name":"مسجد جامع نقده","lat":36.952896,"lng":45.388128,"addr":"","type":"place_of_worship"},{"id":"xx375591_452040","name":"مسجد محمد رسول الله (ص)","lat":37.559133,"lng":45.204021,"addr":"","type":"place_of_worship"},{"id":"xx380443_460373","name":"Islamic place","lat":38.044271,"lng":46.037307,"addr":"نوجه ده","type":"place_of_worship"},{"id":"xx380480_460407","name":"مسجد امام حسین (ع) جامع نوودی","lat":38.048001,"lng":46.040686,"addr":"نوجه ده","type":"place_of_worship"},{"id":"xx369569_453979","name":"مسجد حضرت ابوالفضل","lat":36.956928,"lng":45.397896,"addr":"","type":"place_of_worship"},