[{"id":"xx358362_509094","name":"مسجد علی ابن ابی طالب","lat":35.836239,"lng":50.909358,"addr":"","type":"place_of_worship"},{"id":"xx358670_509631","name":"Islamic place","lat":35.867024,"lng":50.963071,"addr":"","type":"place_of_worship"},{"id":"xx358317_509713","name":"مسجد امام جعفر صادق","lat":35.831728,"lng":50.971312,"addr":"","type":"place_of_worship"},{"id":"xx359821_509086","name":"امامزاده عبد القهار","lat":35.982121,"lng":50.908608,"addr":"","type":"place_of_worship"},{"id":"xx355548_511138","name":"Islamic place","lat":35.554838,"lng":51.113772,"addr":"","type":"place_of_worship"},{"id":"xx356664_514793","name":"حسینیه","lat":35.666419,"lng":51.479308,"addr":"","type":"husayniyyah"},{"id":"xx358632_509729","name":"Islamic place","lat":35.863201,"lng":50.972879,"addr":"","type":"place_of_worship"},{"id":"xx365557_530399","name":"Islamic place","lat":36.555732,"lng":53.039924,"addr":"","type":"place_of_worship"},{"id":"xx365545_530559","name":"Islamic place","lat":36.554492,"lng":53.05587,"addr":"","type":"mosque"},{"id":"xx362940_528864","name":"Islamic place","lat":36.293963,"lng":52.886351,"addr":"","type":"place_of_worship"},{"id":"xx363058_528849","name":"مسجد صاحب الزمان","lat":36.305772,"lng":52.884929,"addr":"","type":"place_of_worship"},{"id":"xx362875_528871","name":"Islamic place","lat":36.287477,"lng":52.887081,"addr":"","type":"place_of_worship"},{"id":"xx362989_528879","name":"مسجد جامع شیرگاه","lat":36.298943,"lng":52.887869,"addr":"","type":"place_of_worship"},{"id":"xx362940_528887","name":"مسجد راه آهن","lat":36.293956,"lng":52.888683,"addr":"","type":"place_of_worship"},{"id":"xx363149_528813","name":"امامزاده حمزه","lat":36.314907,"lng":52.881314,"addr":"","type":"place_of_worship"},{"id":"xx363153_528819","name":"مسجد اعظم","lat":36.315283,"lng":52.881899,"addr":"","type":"place_of_worship"},{"id":"xx359654_506829","name":"Islamic place","lat":35.965367,"lng":50.682939,"addr":"","type":"place_of_worship"},{"id":"xx359253_506819","name":"Islamic place","lat":35.925281,"lng":50.681923,"addr":"","type":"place_of_worship"},{"id":"xx359710_507296","name":"Islamic place","lat":35.971047,"lng":50.729562,"addr":"","type":"place_of_worship"},{"id":"xx359642_506848","name":"مسجد امام زمان","lat":35.964193,"lng":50.684763,"addr":"","type":"place_of_worship"},{"id":"xx357697_513566","name":"مسجد حضرت ابوالفضل","lat":35.769746,"lng":51.356565,"addr":"","type":"place_of_worship"},{"id":"xx357958_514555","name":"مسجد قائم چیذر","lat":35.795762,"lng":51.455549,"addr":"","type":"place_of_worship"},{"id":"xx355647_533943","name":"مسجد ابوالفضل العباس","lat":35.564654,"lng":53.394331,"addr":"","type":"place_of_worship"},{"id":"xx355662_533993","name":"مسجد جامع","lat":35.566233,"lng":53.399281,"addr":"","type":"place_of_worship"},{"id":"xx355664_534008","name":"مسجد امام خمینی","lat":35.566412,"lng":53.400804,"addr":"","type":"place_of_worship"},{"id":"xx355698_534111","name":"حسینیه جهادیه","lat":35.569758,"lng":53.411128,"addr":"","type":"place_of_worship"},{"id":"xx355918_534027","name":"مهدیه اعظم","lat":35.591833,"lng":53.402653,"addr":"جلال آل احمد","type":"place_of_worship"},{"id":"xx355658_533997","name":"امامزاده یحیی","lat":35.565776,"lng":53.399725,"addr":"","type":"place_of_worship"},{"id":"xx355694_534050","name":"مسجد امام جعفر صادق","lat":35.569412,"lng":53.405039,"addr":"","type":"place_of_worship"},{"id":"xx358105_509458","name":"مسجد حضرت قمر بنی هاشم (ع)","lat":35.81049,"lng":50.945815,"addr":"","type":"place_of_worship"},{"id":"xx358581_509451","name":"مسجد علی ابن ابیطالب","lat":35.858143,"lng":50.945096,"addr":"","type":"place_of_worship"},{"id":"xx357056_514441","name":"مسجد بنی هاشم","lat":35.705604,"lng":51.444059,"addr":"","type":"place_of_worship"},{"id":"xx354331_516651","name":"Islamic place","lat":35.433137,"lng":51.665069,"addr":"","type":"place_of_worship"},{"id":"xx358268_516615","name":"Islamic place","lat":35.82679,"lng":51.661511,"addr":"","type":"place_of_worship"},{"id":"xx371909_501531","name":"بقعه متبرکه آقا سید عبدالله","lat":37.190904,"lng":50.153139,"addr":"","type":"yes"},{"id":"xx371954_501523","name":"مسجد شهدا","lat":37.195369,"lng":50.152256,"addr":"","type":"yes"},{"id":"xx371425_500291","name":"زیارتگاه آقا سید حسینی","lat":37.142471,"lng":50.029084,"addr":"","type":"place_of_worship"},{"id":"xx357659_500594","name":"مسجد جامع","lat":35.765918,"lng":50.059417,"addr":"","type":"place_of_worship"},{"id":"xx356465_513400","name":"مسجد امام هادی ع","lat":35.646456,"lng":51.340009,"addr":"","type":"place_of_worship"},{"id":"xx358033_515331","name":"حسینیه سوهانک","lat":35.803309,"lng":51.533099,"addr":"","type":"place_of_worship"},{"id":"xx364130_549562","name":"مهدیه شاهرود","lat":36.413025,"lng":54.956207,"addr":"","type":"place_of_worship"},{"id":"xx372893_501596","name":"مسجد میان محله کورنده","lat":37.289252,"lng":50.159612,"addr":"","type":"place_of_worship"},{"id":"xx364183_549695","name":"مسجد جواد الائمه","lat":36.418321,"lng":54.969495,"addr":"","type":"place_of_worship"},{"id":"xx364204_549717","name":"مسجد زینبیه","lat":36.42043,"lng":54.971716,"addr":"","type":"place_of_worship"},{"id":"xx364201_549665","name":"مسجد صاحب الزمان","lat":36.420085,"lng":54.966485,"addr":"","type":"place_of_worship"},{"id":"xx371941_501539","name":"بقعه بی بی زینب","lat":37.19413,"lng":50.153854,"addr":"","type":"shrine"},{"id":"xx372865_501662","name":"مسجد پایین محله کورنده","lat":37.286479,"lng":50.166206,"addr":"","type":"mosque"},{"id":"xx372072_501714","name":"بقعه امامزاده آقا سید جواد موبندان","lat":37.207223,"lng":50.171368,"addr":"","type":"shrine"},{"id":"xx371494_501762","name":"بقعه آقا سید حسن","lat":37.149389,"lng":50.176173,"addr":"","type":"place_of_worship"},{"id":"xx371499_501771","name":"مسجد جامع","lat":37.149861,"lng":50.177141,"addr":"24 meter st.","type":"place_of_worship"},{"id":"xx371485_501798","name":"وادی کومله","lat":37.148453,"lng":50.179845,"addr":"","type":"grave_yard"},{"id":"xx350853_508981","name":"مسجد الجهاد","lat":35.085325,"lng":50.898127,"addr":"","type":"place_of_worship"},{"id":"xx358136_517305","name":"مسجد امام رضا (ع)","lat":35.813629,"lng":51.730501,"addr":"","type":"mosque"},{"id":"xx354414_517507","name":"مسجد امامزاده طالب","lat":35.441424,"lng":51.750713,"addr":"","type":"place_of_worship"},{"id":"xx357113_514466","name":"مسجد کاظمین","lat":35.711251,"lng":51.446555,"addr":"","type":"place_of_worship"},{"id":"xx372585_500055","name":"آقاسید حسن","lat":37.258451,"lng":50.005481,"addr":"","type":"place_of_worship"},{"id":"xx358148_509815","name":"مسجدالرضا","lat":35.814783,"lng":50.981532,"addr":"","type":"place_of_worship"},{"id":"xx356935_512487","name":"مسجد رسول اکرم تهرانسر","lat":35.693475,"lng":51.248742,"addr":"","type":"mosque"},{"id":"xx357112_514498","name":"مسجد الجلیل","lat":35.711162,"lng":51.449778,"addr":"موسی نامجو شمالی","type":"place_of_worship"},{"id":"xx357137_514526","name":"مسجد آیت الله صدر","lat":35.713654,"lng":51.452583,"addr":"","type":"place_of_worship"},{"id":"xx357136_514457","name":"مسجد کمیل","lat":35.713618,"lng":51.445729,"addr":"","type":"place_of_worship"},{"id":"xx358005_515039","name":"امام رضا","lat":35.800505,"lng":51.503927,"addr":"","type":"place_of_worship"},{"id":"xx357988_515092","name":"مسجد امام حسن مجتبی","lat":35.798796,"lng":51.509196,"addr":"","type":"place_of_worship"},{"id":"xx358017_515216","name":"مسجد الزهراء","lat":35.801745,"lng":51.521611,"addr":"","type":"place_of_worship"},{"id":"xx357498_515310","name":"مسجد امیرالمؤمنین","lat":35.749769,"lng":51.530982,"addr":"","type":"place_of_worship"},{"id":"xx357263_515071","name":"مسجد باقریه","lat":35.726314,"lng":51.50709,"addr":"","type":"place_of_worship"},{"id":"xx357200_514928","name":"حسینیه سیدالشهداء","lat":35.719996,"lng":51.492767,"addr":"","type":"place_of_worship"},{"id":"xx356625_512631","name":"مسجد الجواد","lat":35.662511,"lng":51.263109,"addr":"","type":"place_of_worship"},{"id":"xx357021_514426","name":"حسینیه قائم","lat":35.702088,"lng":51.442586,"addr":"","type":"husayniyyah"},{"id":"xx356962_510293","name":"مسجد امام علی","lat":35.696205,"lng":51.029306,"addr":"","type":"place_of_worship"},{"id":"xx357106_533418","name":"مسجد موسی بن جعفر","lat":35.710613,"lng":53.341774,"addr":"قائم","type":"place_of_worship"},{"id":"xx357084_533522","name":"مسجد سیدالشهدا","lat":35.708373,"lng":53.352231,"addr":"","type":"place_of_worship"},{"id":"xx357021_512576","name":"مسجد المهدی","lat":35.702061,"lng":51.257593,"addr":"","type":"place_of_worship"},{"id":"xx362560_500107","name":"سجادیه","lat":36.255963,"lng":50.010701,"addr":"","type":"place_of_worship"},{"id":"xx357069_514664","name":"Islamic place","lat":35.706883,"lng":51.466363,"addr":"","type":"place_of_worship"},{"id":"xx365502_526811","name":"امامزاده قاسم","lat":36.550217,"lng":52.681081,"addr":"","type":"place_of_worship"},{"id":"xx350891_508982","name":"مسجد الجهاد","lat":35.089124,"lng":50.89817,"addr":"","type":"place_of_worship"},{"id":"xx356985_514500","name":"مسجد باب الحوائج","lat":35.698527,"lng":51.449951,"addr":"","type":"place_of_worship"},{"id":"xx356889_510318","name":"مسجد باب الحوائج","lat":35.688913,"lng":51.031758,"addr":"","type":"place_of_worship"},{"id":"xx356281_514213","name":"حضرت علی بن ابی طالب","lat":35.628075,"lng":51.421256,"addr":"","type":"place_of_worship"},{"id":"xx355311_511828","name":"مسجد فاطمیه","lat":35.53107,"lng":51.182774,"addr":"","type":"place_of_worship"},{"id":"xx357748_533380","name":"امامزاده یحیی","lat":35.77482,"lng":53.337981,"addr":"شهمیرزاد","type":"place_of_worship"},{"id":"xx357750_533366","name":"امامزاده عبدالله","lat":35.774999,"lng":53.336582,"addr":"شهمیرزاد","type":"place_of_worship"},{"id":"xx357728_533287","name":"تکیه رودبار","lat":35.772818,"lng":53.328733,"addr":"","type":"place_of_worship"},{"id":"xx357782_533482","name":"مسجد علی بن ابی طالب","lat":35.778233,"lng":53.348197,"addr":"","type":"place_of_worship"},{"id":"xx357690_533259","name":"مسجد قائم - هیئت صاحب الزمان","lat":35.768976,"lng":53.325938,"addr":"","type":"place_of_worship"},{"id":"xx357703_533284","name":"حسینیه محرم دشت","lat":35.770274,"lng":53.328429,"addr":"کوی محرم دشت","type":"place_of_worship"},{"id":"xx357703_533246","name":"تکیه مصلی","lat":35.770304,"lng":53.324636,"addr":"","type":"place_of_worship"},{"id":"xx357746_533446","name":"مسجد ولیعصر","lat":35.774606,"lng":53.344567,"addr":"","type":"place_of_worship"},{"id":"xx364564_526991","name":"مسجد شهدا","lat":36.456399,"lng":52.699143,"addr":"","type":"place_of_worship"},{"id":"xx364587_527046","name":"مسجد امام زمان","lat":36.458707,"lng":52.704642,"addr":"","type":"place_of_worship"},{"id":"xx357719_533285","name":"مسجد جامع","lat":35.7719,"lng":53.328524,"addr":"","type":"place_of_worship"},{"id":"xx353614_512049","name":"مسجد قبا","lat":35.361401,"lng":51.2049,"addr":"","type":"mosque"},{"id":"xx355323_511818","name":"مسجد حضرت ابولفضل","lat":35.532255,"lng":51.181761,"addr":"","type":"place_of_worship"},{"id":"xx364911_503395","name":"Islamic place","lat":36.491105,"lng":50.339506,"addr":"","type":"place_of_worship"},{"id":"xx358779_509605","name":"مسجد حضرت ابوالفضل","lat":35.877935,"lng":50.960549,"addr":"","type":"place_of_worship"},{"id":"xx360680_513061","name":"امامزاده","lat":36.067972,"lng":51.306106,"addr":"","type":"imamzadeh"},{"id":"xx363817_517300","name":"Islamic place","lat":36.381697,"lng":51.729959,"addr":"","type":"place_of_worship"},{"id":"xx358081_510005","name":"امامزاده حسن","lat":35.808078,"lng":51.000526,"addr":"","type":"place_of_worship"},{"id":"xx358057_509939","name":"مسجد جامع","lat":35.80571,"lng":50.993858,"addr":"","type":"place_of_worship"},{"id":"xx358061_509930","name":"مسجد مصطفی خمینی","lat":35.806094,"lng":50.993049,"addr":"","type":"place_of_worship"},{"id":"xx358343_509913","name":"مسجد قمر بنی هاشم","lat":35.834334,"lng":50.991295,"addr":"","type":"place_of_worship"},{"id":"xx358369_509915","name":"مسجد امام رضا","lat":35.836891,"lng":50.991503,"addr":"","type":"place_of_worship"},{"id":"xx358367_509868","name":"مسجد حاجی آباد","lat":35.836659,"lng":50.986775,"addr":"","type":"place_of_worship"},{"id":"xx358226_509462","name":"مسجد","lat":35.822585,"lng":50.946202,"addr":"","type":"place_of_worship"},{"id":"xx358212_509046","name":"Islamic place","lat":35.821179,"lng":50.904595,"addr":"","type":"place_of_worship"},{"id":"xx358592_509373","name":"مسجد ۱۴ معصوم","lat":35.859239,"lng":50.937274,"addr":"","type":"place_of_worship"},{"id":"xx358507_509186","name":"مسجد انصارالمهدی","lat":35.850738,"lng":50.918576,"addr":"","type":"place_of_worship"},{"id":"xx358529_509243","name":"مسجد جامع حصارک","lat":35.852895,"lng":50.924298,"addr":"","type":"place_of_worship"},{"id":"xx358490_509919","name":"مسجد امام علی","lat":35.848989,"lng":50.9919,"addr":"","type":"place_of_worship"},{"id":"xx358115_509768","name":"مسجد علی ابن ابیطالب (ع)","lat":35.811452,"lng":50.976768,"addr":"","type":"place_of_worship"},{"id":"xx358175_509609","name":"مسجد جامع حجت بن الحسن العسکری","lat":35.81755,"lng":50.96088,"addr":"","type":"place_of_worship"},{"id":"xx358121_509987","name":"مسجد امام سجاد","lat":35.812131,"lng":50.998692,"addr":"","type":"place_of_worship"},{"id":"xx366163_502485","name":"شاه رشید","lat":36.616294,"lng":50.248496,"addr":"","type":"place_of_worship"},{"id":"xx363275_500640","name":"شهدای گمنام","lat":36.327516,"lng":50.06401,"addr":"","type":"place_of_worship"},{"id":"xx362724_500013","name":"مسجد حضرت فاطمه زهرا","lat":36.272351,"lng":50.001296,"addr":"","type":"place_of_worship"},{"id":"xx362715_500023","name":"ملاباشی","lat":36.271549,"lng":50.002342,"addr":"","type":"place_of_worship"},{"id":"xx362738_500000","name":"حسینیه رضوی","lat":36.273842,"lng":50.000012,"addr":"","type":"place_of_worship"},{"id":"xx362735_500037","name":"سوخته چنار","lat":36.273534,"lng":50.003701,"addr":"","type":"place_of_worship"},{"id":"xx362739_500032","name":"مسجد ستوده","lat":36.273914,"lng":50.003239,"addr":"","type":"place_of_worship"},{"id":"xx364900_504301","name":"حرم حضرت علی اصغر (ع)","lat":36.489956,"lng":50.430075,"addr":"زرآباد","type":"place_of_worship"},{"id":"xx365004_501716","name":"امامزاده اسماعیل","lat":36.50041,"lng":50.171644,"addr":"","type":"place_of_worship"},{"id":"xx363552_502079","name":"امامزاده ابراهیم","lat":36.355243,"lng":50.207918,"addr":"","type":"place_of_worship"},{"id":"xx363078_501966","name":"امامزاده اباذر","lat":36.307844,"lng":50.196632,"addr":"","type":"place_of_worship"},{"id":"xx357213_514517","name":"مسجد خاتم","lat":35.72129,"lng":51.451729,"addr":"","type":"place_of_worship"},{"id":"xx362627_500107","name":"امامزاده علی","lat":36.262694,"lng":50.010746,"addr":"","type":"place_of_worship"},{"id":"xx361189_542696","name":"مسجد حضرت ابوالفضل","lat":36.118871,"lng":54.269579,"addr":"","type":"place_of_worship"},{"id":"xx364148_549783","name":"مسجد امام رضا (ع)","lat":36.414827,"lng":54.978269,"addr":"","type":"mosque"},{"id":"xx352163_524912","name":"ایستگاه راه‌آهن یاتری","lat":35.216345,"lng":52.491218,"addr":"","type":"place_of_worship"},{"id":"xx357434_515653","name":"مسجد باب الحوائج ع","lat":35.743398,"lng":51.565264,"addr":"","type":"place_of_worship"},{"id":"xx356751_514213","name":"چهار سوق کوچک","lat":35.675078,"lng":51.421262,"addr":"","type":"place_of_worship"},{"id":"xx356744_514235","name":"چهار سوق بزرگ","lat":35.674404,"lng":51.423454,"addr":"","type":"place_of_worship"},{"id":"xx356750_514247","name":"مسجد جامع","lat":35.675033,"lng":51.424661,"addr":"","type":"place_of_worship"},{"id":"xx356702_514281","name":"مسجد حضرتی","lat":35.670193,"lng":51.428114,"addr":"","type":"mosque"},{"id":"xx356694_514225","name":"مسجد حاج ابوالفتح","lat":35.6694,"lng":51.422521,"addr":"","type":"mosque"},{"id":"xx356687_514214","name":"مسجد سعادت","lat":35.668731,"lng":51.421432,"addr":"","type":"mosque"},{"id":"xx356739_514289","name":"مسجد امام حسن مجتبی","lat":35.67392,"lng":51.428907,"addr":"","type":"place_of_worship"},{"id":"xx356752_514289","name":"مسجد بهبهانی","lat":35.675243,"lng":51.42891,"addr":"","type":"place_of_worship"},{"id":"xx356757_514286","name":"مسجد چهارده معصوم","lat":35.675714,"lng":51.428641,"addr":"","type":"place_of_worship"},{"id":"xx356762_514269","name":"مسجد عودلاجان","lat":35.676152,"lng":51.426877,"addr":"","type":"place_of_worship"},{"id":"xx356755_514242","name":"مسجد بین الحرمین","lat":35.675517,"lng":51.424154,"addr":"","type":"place_of_worship"},{"id":"xx356707_514193","name":"غیاث الدین جزایری","lat":35.670697,"lng":51.419287,"addr":"","type":"mosque"},{"id":"xx356709_514174","name":"مسجد قبله","lat":35.670869,"lng":51.417396,"addr":"","type":"mosque"},{"id":"xx356732_514191","name":"مسجد نارون","lat":35.673172,"lng":51.419091,"addr":"","type":"place_of_worship"},{"id":"xx356761_514211","name":"مسجد عبدالله خان","lat":35.676125,"lng":51.421078,"addr":"","type":"place_of_worship"},{"id":"xx356739_514252","name":"مسجد خاتم النبیین","lat":35.673897,"lng":51.425153,"addr":"","type":"place_of_worship"},{"id":"xx356762_514260","name":"مسجد شیخ علی","lat":35.676182,"lng":51.426027,"addr":"","type":"place_of_worship"},{"id":"xx356808_514228","name":"مسجد ثامن الائمه","lat":35.680793,"lng":51.42281,"addr":"","type":"place_of_worship"},{"id":"xx357474_512636","name":"مسجد جامع المهدی","lat":35.747359,"lng":51.263619,"addr":"","type":"place_of_worship"},{"id":"xx356773_514125","name":"حاج رجب علی","lat":35.677272,"lng":51.412548,"addr":"","type":"place_of_worship"},{"id":"xx356755_514146","name":"مسجد مستوفی الممالک","lat":35.675485,"lng":51.414556,"addr":"","type":"place_of_worship"},{"id":"xx356022_514358","name":"مسجد مرتضی علی","lat":35.602225,"lng":51.435843,"addr":"بلوار امام حسین","type":"place_of_worship"},{"id":"xx360776_506560","name":"امام زاده موسی (سیراب)","lat":36.077584,"lng":50.656028,"addr":"شلمزار","type":"place_of_worship"},{"id":"xx365703_520131","name":"مسجد صاحب الزمان (عج)","lat":36.570309,"lng":52.013115,"addr":"","type":"place_of_worship"},{"id":"xx356702_514294","name":"مسجد شاهچراغی","lat":35.670182,"lng":51.429406,"addr":"","type":"mosque"},{"id":"xx356769_514302","name":"مسجد ابوالحسن","lat":35.676884,"lng":51.43023,"addr":"","type":"place_of_worship"},{"id":"xx366721_527878","name":"Islamic place","lat":36.672095,"lng":52.787791,"addr":"","type":"mosque"},{"id":"xx359284_514263","name":"امامزادگان سید زاهد و سید طاهر علیهما الاسلام","lat":35.928407,"lng":51.426349,"addr":"شکرآب","type":"place_of_worship"},{"id":"xx359361_514601","name":"حسینیه اعظم آهار","lat":35.936108,"lng":51.460067,"addr":"","type":"place_of_worship"},{"id":"xx372083_500056","name":"حسینیه علی ابن ابی طالب","lat":37.208304,"lng":50.005581,"addr":"","type":"place_of_worship"},{"id":"xx372113_500023","name":"مسجد بیگم آباد","lat":37.211343,"lng":50.00231,"addr":"","type":"place_of_worship"},{"id":"xx372075_500009","name":"مسجد امام خمینی (ره)","lat":37.207461,"lng":50.000892,"addr":"","type":"place_of_worship"},{"id":"xx372047_500005","name":"بقعه مبارکه جواهر پشته","lat":37.2047,"lng":50.0005,"addr":"","type":"shrine"},{"id":"xx356048_510303","name":"مسجد جامع وحیدیه","lat":35.60479,"lng":51.030331,"addr":"","type":"place_of_worship"},{"id":"xx354789_510801","name":"امامزاده عمادالدین (ع)","lat":35.478948,"lng":51.080104,"addr":"","type":"place_of_worship"},{"id":"xx356849_514334","name":"حسینیه بنی فاطمه","lat":35.684913,"lng":51.433405,"addr":"","type":"place_of_worship"},{"id":"xx370654_501875","name":"امامزاده ابراهیم و اسماعیل","lat":37.065365,"lng":50.187546,"addr":"amlash","type":"shrine"},{"id":"xx370566_501472","name":"مسجد","lat":37.056636,"lng":50.147208,"addr":"Amlash","type":"place_of_worship"},{"id":"xx370980_501827","name":"مسجد باب الحوائج","lat":37.097999,"lng":50.182703,"addr":"","type":"place_of_worship"},{"id":"xx363109_500314","name":"مسجد فاطمه الزهرای پونک","lat":36.310938,"lng":50.031417,"addr":"بلوار نخبگان","type":"place_of_worship"},{"id":"xx365945_522802","name":"مسجد ترسیاب","lat":36.594534,"lng":52.280174,"addr":"","type":"mosque"},{"id":"xx363070_523673","name":"حسینیه شهیدان کاظمی دینان","lat":36.306974,"lng":52.367289,"addr":"","type":"place_of_worship"},{"id":"xx358655_521392","name":"آستان مقدس امامزادگان علی و جعفر علیها السلام","lat":35.865529,"lng":52.139219,"addr":"","type":"place_of_worship"},{"id":"xx357662_519661","name":"مسجد علی ابن ابی طالب علیه الاسلام","lat":35.766213,"lng":51.966112,"addr":"","type":"place_of_worship"},{"id":"xx366007_521437","name":"مسجد جامع ایزده","lat":36.600734,"lng":52.143656,"addr":"","type":"mosque"},{"id":"xx366018_521490","name":"مسجد هاشمی ایزدشهر","lat":36.601792,"lng":52.149021,"addr":"","type":"mosque"},{"id":"xx357306_518726","name":"مسجد صاحب الزمان عج","lat":35.730639,"lng":51.872606,"addr":"","type":"place_of_worship"},{"id":"xx357770_515638","name":"مسجد","lat":35.777048,"lng":51.563815,"addr":"","type":"place_of_worship"},{"id":"xx368526_504665","name":"مسجد آدینه","lat":36.852586,"lng":50.466505,"addr":"","type":"mosque"},{"id":"xx353137_511717","name":"Islamic place","lat":35.313657,"lng":51.171749,"addr":"","type":"place_of_worship"},{"id":"xx363512_531330","name":"Islamic place","lat":36.351216,"lng":53.132984,"addr":"","type":"place_of_worship"},{"id":"xx357768_514535","name":"هدایت","lat":35.776765,"lng":51.453495,"addr":"","type":"place_of_worship"},{"id":"xx358509_509641","name":"مسجد امام حسین","lat":35.850939,"lng":50.964085,"addr":"","type":"place_of_worship"},{"id":"xx357648_513531","name":"ثامن الائمه","lat":35.764797,"lng":51.353053,"addr":"","type":"place_of_worship"},{"id":"xx368356_544246","name":"Islamic place","lat":36.835607,"lng":54.424605,"addr":"سرخواجه","type":"place_of_worship"},{"id":"xx370080_544490","name":"Islamic place","lat":37.008033,"lng":54.449035,"addr":"استاندارد","type":"place_of_worship"},{"id":"xx370033_544479","name":"Islamic place","lat":37.003343,"lng":54.44794,"addr":"دژیازدهم","type":"place_of_worship"},{"id":"xx370076_544539","name":"Islamic place","lat":37.007572,"lng":54.453906,"addr":"قدس۷","type":"place_of_worship"},{"id":"xx358053_513983","name":"مسجد النبی","lat":35.80534,"lng":51.398275,"addr":"","type":"place_of_worship"},{"id":"xx370129_544549","name":"مصلی نماز جمعه","lat":37.012941,"lng":54.45493,"addr":"","type":"place_of_worship"},{"id":"xx368409_544235","name":"سقاخانه میدان عباسعلی","lat":36.840885,"lng":54.423527,"addr":"سرخواجه","type":"place_of_worship"},{"id":"xx370083_544559","name":"Islamic place","lat":37.008347,"lng":54.455895,"addr":"","type":"place_of_worship"},{"id":"xx370080_544571","name":"مسجد صاحب الزمان","lat":37.007995,"lng":54.457085,"addr":"قدس یکم","type":"place_of_worship"},{"id":"xx370105_544550","name":"مسجد قربان محمد آخوند صحنه","lat":37.010541,"lng":54.455002,"addr":"","type":"place_of_worship"},{"id":"xx370109_544508","name":"Islamic place","lat":37.010922,"lng":54.450833,"addr":"","type":"place_of_worship"},{"id":"xx370109_544370","name":"مسجد چاودار آخوند","lat":37.010921,"lng":54.436962,"addr":"","type":"place_of_worship"},{"id":"xx369978_544539","name":"Islamic place","lat":36.99778,"lng":54.453942,"addr":"","type":"place_of_worship"},{"id":"xx369833_543054","name":"مسجد پسلق ایشان","lat":36.983323,"lng":54.305414,"addr":"","type":"place_of_worship"},{"id":"xx369870_543041","name":"Islamic place","lat":36.98698,"lng":54.304055,"addr":"","type":"place_of_worship"},{"id":"xx357649_512488","name":"Islamic place","lat":35.764862,"lng":51.248832,"addr":"","type":"place_of_worship"},{"id":"xx368388_544318","name":"امامزاده بی بی نور بی بی حور","lat":36.838835,"lng":54.431774,"addr":"","type":"shrine"},{"id":"xx370158_544668","name":"Islamic place","lat":37.015763,"lng":54.466848,"addr":"","type":"place_of_worship"},{"id":"xx370173_544610","name":"مسجد پوری (داولی حاجی)","lat":37.017298,"lng":54.460966,"addr":"","type":"place_of_worship"},{"id":"xx360318_512303","name":"مسجد ماهان","lat":36.031785,"lng":51.230332,"addr":"","type":"mosque"},{"id":"xx357832_514374","name":"المتقین","lat":35.783174,"lng":51.437431,"addr":"","type":"place_of_worship"},{"id":"xx357789_514445","name":"مسجد امام حسین","lat":35.778893,"lng":51.444548,"addr":"","type":"place_of_worship"},{"id":"xx357070_526798","name":"Islamic place","lat":35.707029,"lng":52.679791,"addr":"","type":"place_of_worship"},{"id":"xx357797_515159","name":"مسجد جامع شهرک لویزان یک ۱","lat":35.779653,"lng":51.515886,"addr":"","type":"place_of_worship"},{"id":"xx357595_514377","name":"مسجد الغدیر","lat":35.759454,"lng":51.437721,"addr":"بلوار میرداماد","type":"place_of_worship"},{"id":"xx356644_513869","name":"حسینیه ولیعصر","lat":35.66445,"lng":51.38689,"addr":"تهران","type":"place_of_worship"},{"id":"xx357395_515026","name":"مسجد وحدت","lat":35.739549,"lng":51.502644,"addr":"","type":"yes"},{"id":"xx357373_514956","name":"مسجد احمدیه","lat":35.737309,"lng":51.495567,"addr":"","type":"yes"},{"id":"xx370205_544988","name":"Islamic place","lat":37.020456,"lng":54.49877,"addr":"","type":"place_of_worship"},{"id":"xx370009_544510","name":"Islamic place","lat":37.000923,"lng":54.451026,"addr":"","type":"place_of_worship"},{"id":"xx356185_513427","name":"Islamic place","lat":35.618532,"lng":51.342704,"addr":"","type":"place_of_worship"},{"id":"xx357378_514168","name":"نمازخانه","lat":35.737796,"lng":51.416822,"addr":"","type":"place_of_worship"},{"id":"xx371841_501689","name":"مسجد امام حسین (ع)","lat":37.184131,"lng":50.168887,"addr":"","type":"place_of_worship"},{"id":"xx371924_501588","name":"کمنی ها","lat":37.192371,"lng":50.158755,"addr":"","type":"mosque"},{"id":"xx371955_501514","name":"بازار","lat":37.195547,"lng":50.151449,"addr":"","type":"place_of_worship"},{"id":"xx370225_544533","name":"مسجد و دارالقرآن ابراهیم خلیل الله","lat":37.022464,"lng":54.453307,"addr":"","type":"place_of_worship"},{"id":"xx356547_512675","name":"مسجد جامع حضرت رسول اکرم","lat":35.654733,"lng":51.267484,"addr":"","type":"place_of_worship"},{"id":"xx356368_512109","name":"مسجد امام موسی بن جعفر","lat":35.636848,"lng":51.210887,"addr":"امام خمینی","type":"place_of_worship"},{"id":"xx357146_509862","name":"مسجد جامع المهدی و گلزار شهدای گمنام فردیس","lat":35.714608,"lng":50.9862,"addr":"","type":"place_of_worship"},{"id":"xx357623_512834","name":"Islamic place","lat":35.762325,"lng":51.283401,"addr":"","type":"place_of_worship"},{"id":"xx358062_513836","name":"Islamic place","lat":35.806164,"lng":51.38359,"addr":"","type":"place_of_worship"},{"id":"xx374375_546240","name":"Islamic place","lat":37.437528,"lng":54.624042,"addr":"","type":"place_of_worship"},{"id":"xx369857_549179","name":"Islamic place","lat":36.985653,"lng":54.917872,"addr":"","type":"mosque"},{"id":"xx369454_541927","name":"زیارتگاه بهاالدین نقش بندی","lat":36.945444,"lng":54.192725,"addr":"","type":"place_of_worship"},{"id":"xx363994_549930","name":"Islamic place","lat":36.399431,"lng":54.993011,"addr":"","type":"place_of_worship"},{"id":"xx371795_501677","name":"الزهرا","lat":37.179481,"lng":50.167672,"addr":"","type":"place_of_worship"},{"id":"xx354503_518292","name":"Islamic place","lat":35.450339,"lng":51.829193,"addr":"","type":"place_of_worship"},{"id":"xx355239_516405","name":"مصلی","lat":35.523944,"lng":51.640492,"addr":"","type":"place_of_worship"},{"id":"xx355346_517165","name":"امام زاده محمد (ع)","lat":35.534608,"lng":51.716468,"addr":"جاده حصار امیر توچال","type":"place_of_worship"},{"id":"xx362266_501990","name":"Islamic place","lat":36.226593,"lng":50.199017,"addr":"محمدیه","type":"place_of_worship"},{"id":"xx357877_514895","name":"Islamic place","lat":35.787664,"lng":51.48951,"addr":"گلزار","type":"mosque"},{"id":"xx357388_515410","name":"مسجد حضرت امیر المومنین علیه السلام","lat":35.738775,"lng":51.540979,"addr":"","type":"place_of_worship"},{"id":"xx361903_517226","name":"Islamic place","lat":36.19029,"lng":51.722569,"addr":"","type":"place_of_worship"},{"id":"xx361962_513381","name":"مسجد","lat":36.196182,"lng":51.338093,"addr":"","type":"place_of_worship"},{"id":"xx357760_514802","name":"مسجد کنی","lat":35.776034,"lng":51.480232,"addr":"","type":"place_of_worship"},{"id":"xx356395_514889","name":"مسجد امام جعفر صادق (ع)","lat":35.63952,"lng":51.488903,"addr":"بلوار خاتم الانبیا","type":"place_of_worship"},{"id":"xx357233_515039","name":"مسجد امام رضا ع","lat":35.723276,"lng":51.503852,"addr":"","type":"place_of_worship"},{"id":"xx356389_514984","name":"مسجد امام حسن مجتبی","lat":35.638883,"lng":51.498438,"addr":"سعیدغلامی","type":"place_of_worship"},{"id":"xx357186_514956","name":"بقیه الله","lat":35.718599,"lng":51.495601,"addr":"مهریزی","type":"place_of_worship"},{"id":"xx356849_514071","name":"مسجد محمدیه","lat":35.684918,"lng":51.407084,"addr":"باستیون شرقی","type":"place_of_worship"},{"id":"xx357366_514461","name":"مسجد پیامبر اعظم","lat":35.736587,"lng":51.446071,"addr":"","type":"place_of_worship"},{"id":"xx357295_515019","name":"مسجد سید الشهداء","lat":35.729484,"lng":51.501916,"addr":"جانبازان شرقی","type":"place_of_worship"},{"id":"xx357327_514989","name":"مسجد ولیعصر ع","lat":35.732652,"lng":51.498884,"addr":"مدائن","type":"place_of_worship"},{"id":"xx357236_514967","name":"مسجد امام سجاد ع","lat":35.723553,"lng":51.496688,"addr":"مدائن","type":"place_of_worship"},{"id":"xx357238_515201","name":"مسجد حضرت خدیجه","lat":35.723811,"lng":51.520059,"addr":"","type":"construction"},{"id":"xx357361_514931","name":"Islamic place","lat":35.736076,"lng":51.493104,"addr":"","type":"place_of_worship"},{"id":"xx357380_514431","name":"مسجد حجت ابن الحسن","lat":35.737998,"lng":51.443116,"addr":"سهروردی شمالی","type":"place_of_worship"},{"id":"xx359543_514893","name":"مسجد فاطمه زهرا","lat":35.954337,"lng":51.489341,"addr":"","type":"place_of_worship"},{"id":"xx359553_514898","name":"مسجد جامع میگون","lat":35.955304,"lng":51.489806,"addr":"","type":"place_of_worship"},{"id":"xx359551_514911","name":"امامزاده سید میرسلیم","lat":35.955065,"lng":51.491051,"addr":"","type":"place_of_worship"},{"id":"xx359549_514910","name":"سید میر سلیم","lat":35.954923,"lng":51.490968,"addr":"","type":"place_of_worship"},{"id":"xx358083_513816","name":"حسینه درکه (تکیه)","lat":35.808315,"lng":51.381628,"addr":"","type":"place_of_worship"},{"id":"xx358083_513813","name":"مسجد جامع درکه","lat":35.808292,"lng":51.381323,"addr":"","type":"place_of_worship"},{"id":"xx356705_514199","name":"امامزاده غیبی","lat":35.670471,"lng":51.419874,"addr":"","type":"shrine"},{"id":"xx357745_514903","name":"مسجد جامع لویزان","lat":35.77447,"lng":51.490272,"addr":"","type":"place_of_worship"},{"id":"xx355225_516452","name":"مسجد حضرت ابوالفضل ( پایگاه بسیج شهید مدنی )","lat":35.522549,"lng":51.645221,"addr":"شهرک قیامدشت","type":"place_of_worship"},{"id":"xx356828_520297","name":"مسجد الرضا (ع)","lat":35.682756,"lng":52.029658,"addr":"گیلاوند","type":"place_of_worship"},{"id":"xx356939_520294","name":"مسجد امام زمان عج","lat":35.693901,"lng":52.029439,"addr":"","type":"place_of_worship"},{"id":"xx357146_520700","name":"حسینیه محله فرامه","lat":35.714646,"lng":52.069979,"addr":"","type":"place_of_worship"},{"id":"xx357178_520714","name":"حسینیه محله قاضی","lat":35.717753,"lng":52.071442,"addr":"","type":"place_of_worship"},{"id":"xx357217_520711","name":"حسینیه محله درویش","lat":35.721699,"lng":52.071084,"addr":"","type":"place_of_worship"},{"id":"xx357255_520742","name":"حسینسه محله روح افزاء","lat":35.725478,"lng":52.074199,"addr":"","type":"place_of_worship"},{"id":"xx357342_520701","name":"امامزاده قاسم","lat":35.734196,"lng":52.070095,"addr":"","type":"shrine"},{"id":"xx357441_520739","name":"حسینیه محله دشتمزار","lat":35.744111,"lng":52.073898,"addr":"","type":"mosque"},{"id":"xx357562_520607","name":"امامزاده","lat":35.756203,"lng":52.060676,"addr":"","type":"shrine"},{"id":"xx356958_520264","name":"حسینیه","lat":35.695845,"lng":52.026405,"addr":"","type":"place_of_worship"},{"id":"xx356946_520230","name":"حسینیه محک","lat":35.694617,"lng":52.023027,"addr":"","type":"place_of_worship"},{"id":"xx356922_520169","name":"مسجد و حسینیه شهرک توحید","lat":35.692194,"lng":52.016875,"addr":"","type":"place_of_worship"},{"id":"xx357169_520700","name":"مسجد جامع دماوند","lat":35.716948,"lng":52.069968,"addr":"","type":"place_of_worship"},{"id":"xx357178_520673","name":"حسینیه محله چالکاء","lat":35.717778,"lng":52.067258,"addr":"","type":"place_of_worship"},{"id":"xx356904_520344","name":"حسینیه حضرت اباالفضل علیه السلام شهرک جهاد","lat":35.690435,"lng":52.034449,"addr":"","type":"place_of_worship"},{"id":"xx356790_520495","name":"امامزاده محمد بن موسی کاظم","lat":35.678976,"lng":52.049543,"addr":"","type":"shrine"},{"id":"xx356868_520355","name":"حسینیه گیلاوند","lat":35.686765,"lng":52.035496,"addr":"","type":"place_of_worship"},{"id":"xx357940_514646","name":"مسجد الرضا","lat":35.794032,"lng":51.464647,"addr":"","type":"place_of_worship"},{"id":"xx357354_515525","name":"مسجد محمد باقر ع","lat":35.735354,"lng":51.552523,"addr":"","type":"place_of_worship"},{"id":"xx357357_514792","name":"مسجد سید الشهدا","lat":35.735665,"lng":51.479243,"addr":"","type":"place_of_worship"},{"id":"xx355545_515615","name":"مسجد امام رضا","lat":35.554534,"lng":51.561522,"addr":"","type":"place_of_worship"},{"id":"xx356226_514933","name":"مسجد سیدالشهدا (ع)","lat":35.622639,"lng":51.493299,"addr":"","type":"place_of_worship"},{"id":"xx357087_514537","name":"مسجد حضرت یحیی ع","lat":35.708686,"lng":51.453694,"addr":"","type":"place_of_worship"},{"id":"xx357207_520704","name":"امامزاده ۷ تن ۸ تن","lat":35.720666,"lng":52.070372,"addr":"","type":"shrine"},{"id":"xx360380_505336","name":"مسجد حضرت ولی عصر (عج)","lat":36.037984,"lng":50.533621,"addr":"آبیک","type":"place_of_worship"},{"id":"xx357492_515106","name":"مسجد جامع الزهرا","lat":35.749152,"lng":51.510587,"addr":"","type":"place_of_worship"},{"id":"xx362205_501842","name":"مسجد جامع و کتابخانه در بخش زیر زمین مسجد","lat":36.220479,"lng":50.184201,"addr":"زیباشهر","type":"place_of_worship"},{"id":"xx356580_513898","name":"مسجد امام حسین","lat":35.65796,"lng":51.389836,"addr":"تهران","type":"place_of_worship"},{"id":"xx364843_523457","name":"مسجد حضرت ابوالفضل","lat":36.484295,"lng":52.345723,"addr":"شهید رمضانی - دریا ۳۲","type":"place_of_worship"},{"id":"xx357171_514567","name":"مسجد حضرت امیرالمومنین","lat":35.717117,"lng":51.456701,"addr":"اکبرنژاد","type":"place_of_worship"},{"id":"xx357090_514656","name":"مسجد خاتم الاوصیا","lat":35.708968,"lng":51.465615,"addr":"","type":"place_of_worship"},{"id":"xx365981_524002","name":"زیارتگاه فرزندان رسول الله","lat":36.598082,"lng":52.400178,"addr":"","type":"place_of_worship"},{"id":"xx356269_515103","name":"مسجد رسول اکرم صلی الله","lat":35.626889,"lng":51.510299,"addr":"کلهر","type":"place_of_worship"},{"id":"xx357150_514704","name":"مسجد امام علی النقی ع","lat":35.714955,"lng":51.470397,"addr":"","type":"place_of_worship"},{"id":"xx357213_514924","name":"مسجد فاطمه الزهرا","lat":35.721318,"lng":51.492405,"addr":"دکتر آیت","type":"place_of_worship"},{"id":"xx356556_513938","name":"مسجد حضرت زهرا","lat":35.655558,"lng":51.393806,"addr":"تهران","type":"place_of_worship"},{"id":"xx356560_513849","name":"مسجد سیدالشهدا","lat":35.656022,"lng":51.384869,"addr":"تهران","type":"place_of_worship"},{"id":"xx357573_515403","name":"مسجد پارک پلیس","lat":35.757297,"lng":51.540293,"addr":"","type":"place_of_worship"},{"id":"xx357128_514748","name":"Islamic place","lat":35.712817,"lng":51.474835,"addr":"","type":"mosque"},{"id":"xx356535_513941","name":"مسجد حضرت ابوالفضل","lat":35.653545,"lng":51.394063,"addr":"تهران","type":"place_of_worship"},{"id":"xx356562_513870","name":"مسجد اصغریه","lat":35.656172,"lng":51.386953,"addr":"تهران","type":"place_of_worship"},{"id":"xx356530_513865","name":"مسجد قائم","lat":35.653019,"lng":51.386503,"addr":"تهران","type":"place_of_worship"},{"id":"xx357235_514765","name":"مسجد امام جعفر صادق","lat":35.723455,"lng":51.47645,"addr":"","type":"place_of_worship"},{"id":"xx357134_514588","name":"مسجد امام حسن مجتبی","lat":35.713402,"lng":51.458759,"addr":"","type":"place_of_worship"},{"id":"xx357064_514496","name":"مسجد جامع صفا","lat":35.706388,"lng":51.449552,"addr":"","type":"place_of_worship"},{"id":"xx356678_514644","name":"آستان مقدس چهل تن دولاب و شهدای گمنام","lat":35.667794,"lng":51.464372,"addr":"","type":"mosque"},{"id":"xx356723_514519","name":"مسجد شهدا","lat":35.672316,"lng":51.451885,"addr":"","type":"place_of_worship"},{"id":"xx358168_514580","name":"مسجد جامع جماران","lat":35.816812,"lng":51.458005,"addr":"تهران","type":"place_of_worship"},{"id":"xx358156_514572","name":"حسینیه شماره ۲ جماران","lat":35.815573,"lng":51.457208,"addr":"","type":"place_of_worship"},{"id":"xx357366_515103","name":"مسجد موسی بن جعفر","lat":35.736607,"lng":51.510339,"addr":"رحمتی","type":"place_of_worship"},{"id":"xx357152_515013","name":"مسجد الحسین","lat":35.715169,"lng":51.501343,"addr":"","type":"place_of_worship"},{"id":"xx357326_515019","name":"مسجد امام حسن عسگری","lat":35.732616,"lng":51.501933,"addr":"","type":"place_of_worship"},{"id":"xx357456_513086","name":"مسجد صادق آل محمد","lat":35.745622,"lng":51.308557,"addr":"بلوار شهید مصطفی پژوهنده","type":"place_of_worship"},{"id":"xx356664_514560","name":"مسجد","lat":35.666387,"lng":51.456004,"addr":"","type":"mosque"},{"id":"xx356674_514295","name":"مسجد مهدویه","lat":35.667376,"lng":51.429477,"addr":"","type":"mosque"},{"id":"xx357325_514828","name":"مسجد خلیل الله","lat":35.732543,"lng":51.482791,"addr":"","type":"place_of_worship"},{"id":"xx356351_514921","name":"مسجد جامع مسعودیه","lat":35.635073,"lng":51.492076,"addr":"قائم","type":"place_of_worship"},{"id":"xx356442_509601","name":"لم آباد","lat":35.644216,"lng":50.960121,"addr":"جاده لم آباد","type":"place_of_worship"},{"id":"xx356670_509782","name":"مسجد جامع ملارد","lat":35.667043,"lng":50.978173,"addr":"","type":"place_of_worship"},{"id":"xx357379_511614","name":"Islamic place","lat":35.73792,"lng":51.161448,"addr":"","type":"place_of_worship"},{"id":"xx357462_514729","name":"مسجد","lat":35.746188,"lng":51.47294,"addr":"","type":"place_of_worship"},{"id":"xx357278_509890","name":"مسجد سید الشهدا","lat":35.727837,"lng":50.988979,"addr":"","type":"place_of_worship"},{"id":"xx356440_514228","name":"مسجد حضرت موسی بن جعفر","lat":35.643955,"lng":51.422798,"addr":"","type":"mosque"},{"id":"xx357420_514522","name":"مسجد رسالت","lat":35.741961,"lng":51.452172,"addr":"","type":"place_of_worship"},{"id":"xx357194_514145","name":"حسینیه حضرت سجاد ع","lat":35.719354,"lng":51.414475,"addr":"","type":"place_of_worship"},{"id":"xx350528_502917","name":"مسجد","lat":35.052783,"lng":50.291745,"addr":"","type":"place_of_worship"},{"id":"xx357888_514874","name":"Islamic place","lat":35.788763,"lng":51.487356,"addr":"","type":"place_of_worship"},{"id":"xx357555_515275","name":"مسجد الکوثر","lat":35.755524,"lng":51.52754,"addr":"بیست متری مسجد","type":"mosque"},{"id":"xx356606_513714","name":"مسجد حضرت مهدی عج","lat":35.660589,"lng":51.371385,"addr":"محمدرضا شهسوار حقیقی شمال","type":"place_of_worship"},{"id":"xx357536_509142","name":"مسجد جامع صاحب الزمان","lat":35.75357,"lng":50.914196,"addr":"","type":"place_of_worship"},{"id":"xx357429_515602","name":"مسجد قدس","lat":35.742885,"lng":51.560151,"addr":"","type":"place_of_worship"},{"id":"xx356517_513543","name":"Islamic place","lat":35.651656,"lng":51.354311,"addr":"اسلامی","type":"place_of_worship"},{"id":"xx356557_513842","name":"مسجد سیدالشهدا","lat":35.655691,"lng":51.384187,"addr":"تهران","type":"place_of_worship"},{"id":"xx357326_515048","name":"حسینیه باب الحوائج","lat":35.732573,"lng":51.504814,"addr":"","type":"place_of_worship"},{"id":"xx361636_523951","name":"حسینیه روستای الیمستان","lat":36.163632,"lng":52.395102,"addr":"","type":"place_of_worship"},{"id":"xx356583_513755","name":"مسجد محمدی","lat":35.658276,"lng":51.375504,"addr":"ابوذر","type":"place_of_worship"},{"id":"xx357182_513022","name":"مسجد انصار الحسین(ع)","lat":35.718244,"lng":51.302154,"addr":"","type":"place_of_worship"},{"id":"xx363092_500033","name":"مسجد امام حسن عسگری (ع)","lat":36.309166,"lng":50.003326,"addr":"بلوار رزمندگان","type":"mosque"},{"id":"xx363633_548903","name":"مسجد امام علی ابن موسی الرضا علیه السلام","lat":36.363314,"lng":54.890301,"addr":"","type":"mosque"},{"id":"xx362641_500039","name":"مسجد شیخ الاسلام","lat":36.264069,"lng":50.003928,"addr":"شیخ السلام","type":"place_of_worship"},{"id":"xx362648_500024","name":"امامزاده اسماعیل","lat":36.264837,"lng":50.002353,"addr":"","type":"place_of_worship"},{"id":"xx355779_511160","name":"حسینیه اعظم","lat":35.577936,"lng":51.115955,"addr":"جمهوری اسلامی","type":"husayniyyah"},{"id":"xx362803_500026","name":"مسجد ثاراالله","lat":36.280297,"lng":50.002588,"addr":"","type":"place_of_worship"},{"id":"xx357915_514621","name":"مسجد جامع مهدیه علیه السلام","lat":35.791473,"lng":51.462109,"addr":"دیباجی جنوبی","type":"place_of_worship"},{"id":"xx358126_509514","name":"مسجد و حسینیه شهدا","lat":35.812552,"lng":50.951357,"addr":"","type":"place_of_worship"},{"id":"xx358177_509326","name":"مسجد ابوذر","lat":35.817665,"lng":50.932552,"addr":"","type":"place_of_worship"},{"id":"xx357987_509753","name":"حسینه حضرت آیت‌الله طالقانی","lat":35.798728,"lng":50.975311,"addr":"","type":"place_of_worship"},{"id":"xx363766_520371","name":"(مسجد امام حسن عسگری (ع","lat":36.376614,"lng":52.037114,"addr":"","type":"place_of_worship"},{"id":"xx368432_544272","name":"امامزاده نور","lat":36.843164,"lng":54.427216,"addr":"","type":"shrine"},{"id":"xx362654_500100","name":"امامزاده آمنه خاتون","lat":36.265418,"lng":50.010032,"addr":"","type":"place_of_worship"},{"id":"xx362634_500060","name":"مسجد محمدیه","lat":36.263396,"lng":50.006005,"addr":"","type":"place_of_worship"},{"id":"xx356341_513762","name":"مسجد باب‌ الحوائج","lat":35.634131,"lng":51.376208,"addr":"مرتضی اردانی","type":"place_of_worship"},{"id":"xx367007_526519","name":"مسجد جامع","lat":36.700665,"lng":52.65192,"addr":"","type":"place_of_worship"},{"id":"xx362104_507109","name":"مسجد","lat":36.210423,"lng":50.710887,"addr":"","type":"place_of_worship"},{"id":"xx357194_515068","name":"مسجد امام صادق علیه‌السلام","lat":35.719436,"lng":51.50678,"addr":"دماوند","type":"place_of_worship"},{"id":"xx366829_525198","name":"مسجد ولیعصر","lat":36.682925,"lng":52.519756,"addr":"","type":"place_of_worship"},{"id":"xx367489_508666","name":"مسجد جامع سیاورز","lat":36.748927,"lng":50.86658,"addr":"","type":"place_of_worship"},{"id":"xx356553_513558","name":"مسجد چهارده معصوم","lat":35.655304,"lng":51.355753,"addr":"","type":"place_of_worship"},{"id":"xx356618_509789","name":"مسجد صاحب الزمان","lat":35.661794,"lng":50.978884,"addr":"جاده ملارد خیابان شهدا","type":"place_of_worship"},{"id":"xx357969_500649","name":"مسجد صاحب الزمان","lat":35.796922,"lng":50.064946,"addr":"","type":"place_of_worship"},{"id":"xx357229_503600","name":"مسجد امام رضا","lat":35.72287,"lng":50.359994,"addr":"","type":"place_of_worship"},{"id":"xx357233_503712","name":"مسجد شهرک وحدت","lat":35.723347,"lng":50.371189,"addr":"","type":"place_of_worship"},{"id":"xx357989_500645","name":"مسجد امیر المومنین","lat":35.798882,"lng":50.064546,"addr":"","type":"place_of_worship"},{"id":"xx373152_501438","name":"آقا سید بر","lat":37.315204,"lng":50.143791,"addr":"","type":"place_of_worship"},{"id":"xx356569_513528","name":"مسجد مسلم ابن عقیل","lat":35.656872,"lng":51.35284,"addr":"","type":"place_of_worship"},{"id":"xx356541_513584","name":"مسجد باب الحوائج","lat":35.654107,"lng":51.358438,"addr":"","type":"place_of_worship"},{"id":"xx356589_513515","name":"مسجد باب الحوائج (ع)","lat":35.658859,"lng":51.351478,"addr":"","type":"place_of_worship"},{"id":"xx358007_514970","name":"مسجد حضرت فاطمه س","lat":35.800712,"lng":51.497017,"addr":"","type":"place_of_worship"},{"id":"xx363105_500129","name":"مسجد امام جعفر صادق","lat":36.310488,"lng":50.012935,"addr":"بلوار دانشگاه بین‌المللی امام خمینی","type":"place_of_worship"},{"id":"xx357574_519658","name":"حسینیه صاحب الزمان(عج) آبعلی","lat":35.757433,"lng":51.965754,"addr":"","type":"place_of_worship"},{"id":"xx357570_519650","name":"مسجد احمدیه آبعلی","lat":35.756971,"lng":51.964973,"addr":"","type":"place_of_worship"},{"id":"xx357228_519194","name":"مسجد دانشگاه","lat":35.722763,"lng":51.919433,"addr":"","type":"place_of_worship"},{"id":"xx362200_501714","name":"مسجد حضرت فاطمه زهرا (س)","lat":36.220038,"lng":50.171368,"addr":"","type":"place_of_worship"},{"id":"xx356892_513765","name":"مسجد حجت ابن الحسن","lat":35.689165,"lng":51.376467,"addr":"","type":"place_of_worship"},{"id":"xx356537_513542","name":"حسینیه طاهری","lat":35.653712,"lng":51.354153,"addr":"","type":"place_of_worship"},{"id":"xx357579_513169","name":"مسجد امام حسین علیه السلام","lat":35.757859,"lng":51.316934,"addr":"تهران","type":"place_of_worship"},{"id":"xx357457_514563","name":"مسجد جامع آل یاسین","lat":35.745709,"lng":51.456275,"addr":"نهم","type":"place_of_worship"},{"id":"xx357014_513557","name":"مسجد حجت الله","lat":35.70142,"lng":51.355749,"addr":"","type":"place_of_worship"},{"id":"xx357750_514012","name":"مسجد نواب صفوی","lat":35.774991,"lng":51.401159,"addr":"تهران","type":"place_of_worship"},{"id":"xx356752_513806","name":"مسجد غفوری","lat":35.675201,"lng":51.380629,"addr":"نواب صفوی","type":"mosque"},{"id":"xx357347_514844","name":"حسینیه مکتب الغدیر شرق تهران","lat":35.734731,"lng":51.484369,"addr":"","type":"place_of_worship"},{"id":"xx357348_514837","name":"حسینیه کانون اسلامی انصار","lat":35.734832,"lng":51.483671,"addr":"","type":"place_of_worship"},{"id":"xx357119_514756","name":"حسینیه بیت الحسین","lat":35.71193,"lng":51.475556,"addr":"شهید ارمغانی","type":"place_of_worship"},{"id":"xx356614_513483","name":"مسجد صاحب الزمان","lat":35.661397,"lng":51.34829,"addr":"","type":"place_of_worship"},{"id":"xx356552_513533","name":"مسجد علویون","lat":35.655175,"lng":51.353277,"addr":"","type":"place_of_worship"},{"id":"xx361858_500570","name":"مسجد امام رضا","lat":36.185812,"lng":50.057037,"addr":"","type":"place_of_worship"},{"id":"xx370046_544512","name":"پیش دبستانی ومهد کودک قرآنی ایلیاز","lat":37.004594,"lng":54.451192,"addr":"دژ هفدهم","type":"kindergarten"},{"id":"xx357317_515201","name":"مهدیه تهرانپارس","lat":35.731657,"lng":51.520141,"addr":"","type":"place_of_worship"},{"id":"xx357298_514864","name":"هیئت یا حسین","lat":35.729819,"lng":51.486367,"addr":"","type":"place_of_worship"},{"id":"xx357152_514752","name":"مسجد باب الحوائج","lat":35.715222,"lng":51.47519,"addr":"","type":"place_of_worship"},{"id":"xx363034_500278","name":"مسجد جواد الائمه","lat":36.30343,"lng":50.027772,"addr":"","type":"place_of_worship"},{"id":"xx356436_513528","name":"مسجد جامع سید الشهدا","lat":35.643612,"lng":51.352815,"addr":"تهران","type":"place_of_worship"},{"id":"xx370644_501865","name":"شهید مطهری","lat":37.064408,"lng":50.18654,"addr":"","type":"mosque"},{"id":"xx356999_514062","name":"نمازخانه","lat":35.699923,"lng":51.406186,"addr":"","type":"place_of_worship"},{"id":"xx357136_514030","name":"مسجد موسی بن جعفر","lat":35.713589,"lng":51.40301,"addr":"","type":"mosque"},{"id":"xx359902_530399","name":"مسجد سفیدارگله","lat":35.990157,"lng":53.039857,"addr":"","type":"mosque"},{"id":"xx357138_514637","name":"مسجد رسول الله","lat":35.71378,"lng":51.463685,"addr":"","type":"place_of_worship"},{"id":"xx357578_512765","name":"حسینیه سید الشهدا","lat":35.757784,"lng":51.276504,"addr":"","type":"place_of_worship"},{"id":"xx358252_512681","name":"امامزاده سید محمد نوربخش","lat":35.825222,"lng":51.268054,"addr":"","type":"shrine"},{"id":"xx356556_514641","name":"مسجد حضرت عباس","lat":35.65558,"lng":51.464097,"addr":"","type":"mosque"},{"id":"xx361201_505294","name":"مسجد ولی عصر","lat":36.120052,"lng":50.52938,"addr":"","type":"place_of_worship"},{"id":"xx361259_505296","name":"مسجد رضوی","lat":36.125907,"lng":50.529625,"addr":"","type":"place_of_worship"},{"id":"xx361237_505291","name":"آرامگاه","lat":36.123677,"lng":50.529129,"addr":"","type":"grave_yard"},{"id":"xx361239_505294","name":"آرامگاه قدیمی","lat":36.123903,"lng":50.529423,"addr":"","type":"grave_yard"},{"id":"xx357364_515636","name":"مسجد ائمه اطهار (ص)","lat":35.736413,"lng":51.563561,"addr":"","type":"place_of_worship"},{"id":"xx357268_515033","name":"امام حسن مجتبی","lat":35.726786,"lng":51.503257,"addr":"","type":"place_of_worship"},{"id":"xx357473_514379","name":"مسجد حضرت خدیجه","lat":35.747311,"lng":51.437928,"addr":"","type":"place_of_worship"},{"id":"xx356411_513609","name":"مسجد پنج تن آل عبا","lat":35.641053,"lng":51.360857,"addr":"","type":"place_of_worship"},{"id":"xx357573_520570","name":"حسینیه محله دشتک","lat":35.757255,"lng":52.056978,"addr":"","type":"place_of_worship"},{"id":"xx356537_513664","name":"مسجد اعظم امام خمینی","lat":35.653693,"lng":51.366381,"addr":"تهران","type":"place_of_worship"},{"id":"xx356534_513684","name":"موسی بن جعفر","lat":35.65339,"lng":51.368433,"addr":"تهران","type":"place_of_worship"},{"id":"xx354099_511550","name":"Islamic place","lat":35.409858,"lng":51.155021,"addr":"","type":"place_of_worship"},{"id":"xx357142_511818","name":"امام حسن مجتبی","lat":35.714177,"lng":51.181759,"addr":"","type":"place_of_worship"},{"id":"xx368616_507700","name":"امامزاده","lat":36.861592,"lng":50.770022,"addr":"","type":"place_of_worship"},{"id":"xx370119_549888","name":"مصلی نماز جمعه","lat":37.011935,"lng":54.988779,"addr":"","type":"place_of_worship"},{"id":"xx357193_514765","name":"مسجد امام حسین علیه السلام","lat":35.719337,"lng":51.476543,"addr":"","type":"place_of_worship"},{"id":"xx358012_514406","name":"مسجد فاطمه الزهرا","lat":35.801166,"lng":51.440627,"addr":"رمضانی","type":"place_of_worship"},{"id":"xx356926_511980","name":"Islamic place","lat":35.692621,"lng":51.198019,"addr":"","type":"place_of_worship"},{"id":"xx362682_500123","name":"مسجد امام حسین","lat":36.268178,"lng":50.012343,"addr":"","type":"place_of_worship"},{"id":"xx362723_500228","name":"مسجد ابوالفضل","lat":36.27234,"lng":50.022794,"addr":"","type":"place_of_worship"},{"id":"xx355430_512236","name":"مسجد امام جعفر صادق","lat":35.542972,"lng":51.223634,"addr":"","type":"place_of_worship"},{"id":"xx356523_513557","name":"Islamic place","lat":35.652339,"lng":51.355721,"addr":"","type":"place_of_worship"},{"id":"xx357179_514315","name":"Islamic place","lat":35.717941,"lng":51.431468,"addr":"","type":"place_of_worship"},{"id":"xx357957_500265","name":"Islamic place","lat":35.795715,"lng":50.026509,"addr":"","type":"place_of_worship"},{"id":"xx357948_514395","name":"مسجد جعفری","lat":35.794787,"lng":51.439531,"addr":"","type":"place_of_worship"},{"id":"xx358550_508695","name":"Islamic place","lat":35.855011,"lng":50.869541,"addr":"","type":"place_of_worship"},{"id":"xx358647_508731","name":"Islamic place","lat":35.864732,"lng":50.873121,"addr":"","type":"place_of_worship"},{"id":"xx356716_510686","name":"مسجد قمر بنی هاشم","lat":35.671635,"lng":51.068626,"addr":"","type":"place_of_worship"},{"id":"xx358199_514065","name":"Islamic place","lat":35.819896,"lng":51.40652,"addr":"","type":"place_of_worship"},{"id":"xx362662_500181","name":"مسجد ولیعصر","lat":36.266182,"lng":50.018145,"addr":"","type":"place_of_worship"},{"id":"xx362088_543930","name":"مسجد جامع و حسینیه اعظم سیدالشهدا","lat":36.208755,"lng":54.39298,"addr":"جزن","type":"place_of_worship"},{"id":"xx362093_543915","name":"حسینیه امام سجاد (ع)","lat":36.20931,"lng":54.391527,"addr":"جزن","type":"place_of_worship"},{"id":"xx356692_514196","name":"Islamic place","lat":35.669168,"lng":51.419595,"addr":"","type":"mosque"},{"id":"xx354788_516731","name":"حسینه امام رضا","lat":35.478843,"lng":51.673144,"addr":"","type":"place_of_worship"},{"id":"xx362718_500083","name":"مسجد المهدی","lat":36.27181,"lng":50.00828,"addr":"","type":"place_of_worship"},{"id":"xx354768_509365","name":"مسجد امام جواد","lat":35.476819,"lng":50.936479,"addr":"","type":"place_of_worship"},{"id":"xx354761_509302","name":"مسجد امام رضا","lat":35.476131,"lng":50.930247,"addr":"","type":"place_of_worship"},{"id":"xx357418_515161","name":"حسینیه باب الحوائج","lat":35.741805,"lng":51.516123,"addr":"","type":"place_of_worship"},{"id":"xx357482_515186","name":"مسجد امام جعفر صادق ع","lat":35.748228,"lng":51.518607,"addr":"","type":"place_of_worship"},{"id":"xx361807_500577","name":"مسجد ولیعصر","lat":36.180723,"lng":50.05767,"addr":"","type":"place_of_worship"},{"id":"xx361803_500564","name":"مسجد المهدی","lat":36.180329,"lng":50.056353,"addr":"","type":"place_of_worship"},{"id":"xx361834_500633","name":"مسجد امام سجاد","lat":36.183433,"lng":50.063343,"addr":"","type":"place_of_worship"},{"id":"xx361864_500611","name":"مسجد سید الشهدا","lat":36.18636,"lng":50.061137,"addr":"","type":"place_of_worship"},{"id":"xx361858_500587","name":"مسجد بقیه الله العظم","lat":36.185794,"lng":50.058667,"addr":"","type":"place_of_worship"},{"id":"xx361849_500588","name":"مسجد قمر بنی هاشم","lat":36.18487,"lng":50.058781,"addr":"","type":"place_of_worship"},{"id":"xx361822_500578","name":"مسجد امام علی","lat":36.182181,"lng":50.05784,"addr":"","type":"place_of_worship"},{"id":"xx359216_500730","name":"Islamic place","lat":35.921608,"lng":50.072997,"addr":"","type":"place_of_worship"},{"id":"xx366660_530364","name":"مسجد ابالفضل","lat":36.665979,"lng":53.036376,"addr":"","type":"place_of_worship"},{"id":"xx357985_514460","name":"مسجد صاحب الامر","lat":35.798493,"lng":51.446015,"addr":"ساده","type":"place_of_worship"},{"id":"xx357534_512161","name":"مسجد علی ابن ابی طالب","lat":35.753353,"lng":51.216062,"addr":"","type":"mosque"},{"id":"xx357969_514443","name":"مسجد مفتخر","lat":35.796926,"lng":51.444316,"addr":"","type":"construction"},{"id":"xx355424_511284","name":"مسجد چهارده معصوم","lat":35.542355,"lng":51.128433,"addr":"","type":"place_of_worship"},{"id":"xx351279_504591","name":"مسجد امیر المومنین","lat":35.127855,"lng":50.459101,"addr":"","type":"place_of_worship"},{"id":"xx353641_506792","name":"مسجد حضرت ابولفضل (ع)","lat":35.364144,"lng":50.679233,"addr":"","type":"place_of_worship"},{"id":"xx362340_545594","name":"مسجد","lat":36.234047,"lng":54.55945,"addr":"","type":"place_of_worship"},{"id":"xx352413_524038","name":"مسجد صاحب الزمان (عج)","lat":35.241324,"lng":52.403806,"addr":"","type":"place_of_worship"},{"id":"xx356579_513580","name":"مسجد امام حسن عسگری","lat":35.657853,"lng":51.357985,"addr":"","type":"place_of_worship"},{"id":"xx365743_530706","name":"مسجد حاج محمد حسن باقرزادگان","lat":36.574317,"lng":53.070597,"addr":"","type":"place_of_worship"},{"id":"xx355108_512312","name":"حسینیه چهارده معصوم تولونیها","lat":35.510831,"lng":51.231181,"addr":"","type":"place_of_worship"},{"id":"xx363528_524273","name":"امامزاده بلیران","lat":36.352838,"lng":52.427292,"addr":"","type":"shrine"},{"id":"xx357777_513312","name":"دبیرستان دخترانه هیات امنایی ستایش","lat":35.777661,"lng":51.331249,"addr":"مصطفی چمران","type":"school"},{"id":"xx354698_510121","name":"مسجد امام حسین","lat":35.469843,"lng":51.012073,"addr":"","type":"place_of_worship"},{"id":"xx350113_503701","name":"کوثر","lat":35.011341,"lng":50.370138,"addr":"","type":"place_of_worship"},{"id":"xx350101_503629","name":"مسجد جامع ساوه","lat":35.010053,"lng":50.362931,"addr":"","type":"place_of_worship"},{"id":"xx350109_503735","name":"امامزاده سید اسحاق","lat":35.010917,"lng":50.373522,"addr":"","type":"shrine"},{"id":"xx350258_503519","name":"مسجد امام حسن","lat":35.025755,"lng":50.351887,"addr":"","type":"place_of_worship"},{"id":"xx350474_503529","name":"مسجد فاطمه زهرا","lat":35.047355,"lng":50.352868,"addr":"","type":"place_of_worship"},{"id":"xx355653_521832","name":"امامزاده عیسی الله","lat":35.565305,"lng":52.183228,"addr":"","type":"place_of_worship"},{"id":"xx356535_513362","name":"مسجد امیرالمؤمنین ع","lat":35.653491,"lng":51.336238,"addr":"","type":"place_of_worship"},{"id":"xx356536_513902","name":"مسجد محمدیه","lat":35.653634,"lng":51.390239,"addr":"تهران","type":"place_of_worship"},{"id":"xx362591_500099","name":"مسجد راه چمان","lat":36.259082,"lng":50.009854,"addr":"","type":"place_of_worship"},{"id":"xx357209_514589","name":"مسجد موسی بن جعفر","lat":35.720925,"lng":51.458915,"addr":"","type":"place_of_worship"},{"id":"xx368418_544241","name":"مسجد گلشن","lat":36.841801,"lng":54.424073,"addr":"","type":"place_of_worship"},{"id":"xx368452_544262","name":"مسجد امام حسن عسگری","lat":36.845167,"lng":54.426175,"addr":"","type":"place_of_worship"},{"id":"xx368424_544306","name":"مسجد جامع گرگان","lat":36.842416,"lng":54.430585,"addr":"","type":"place_of_worship"},{"id":"xx357578_515371","name":"مسجد امام حسن مجتبی","lat":35.757807,"lng":51.53712,"addr":"","type":"place_of_worship"},{"id":"xx368278_544542","name":"مسجد قدس گلشهر","lat":36.827827,"lng":54.45418,"addr":"بلوار گلشهر","type":"place_of_worship"},{"id":"xx368436_544230","name":"مسجد المهدی","lat":36.843613,"lng":54.423037,"addr":"","type":"place_of_worship"},{"id":"xx368231_544384","name":"مسجد علی ابن ابیطالب","lat":36.82309,"lng":54.438432,"addr":"","type":"place_of_worship"},{"id":"xx362651_500002","name":"مسجد هفت درب","lat":36.265055,"lng":50.000207,"addr":"","type":"place_of_worship"},{"id":"xx362741_500179","name":"مسجد توحید","lat":36.274059,"lng":50.017863,"addr":"","type":"place_of_worship"},{"id":"xx358820_509747","name":"مسجد امام حسین","lat":35.882043,"lng":50.974744,"addr":"","type":"place_of_worship"},{"id":"xx366824_529802","name":"شاهرضا","lat":36.682393,"lng":52.980215,"addr":"شاهرضامحله","type":"place_of_worship"},{"id":"xx366723_529362","name":"مسجد مهدیه","lat":36.672321,"lng":52.936167,"addr":"","type":"place_of_worship"},{"id":"xx366719_529296","name":"مسجد ابوالفضل","lat":36.671924,"lng":52.929629,"addr":"","type":"place_of_worship"},{"id":"xx356386_513752","name":"چهارده معصوم","lat":35.638596,"lng":51.375223,"addr":"","type":"mosque"},{"id":"xx356366_513777","name":"مسجد حضرت ابوالفضل","lat":35.636556,"lng":51.377665,"addr":"","type":"mosque"},{"id":"xx357489_514712","name":"مسجد امام علی","lat":35.748883,"lng":51.471247,"addr":"","type":"place_of_worship"},{"id":"xx365887_526722","name":"مسجد امام حسین ع","lat":36.588729,"lng":52.672246,"addr":"","type":"place_of_worship"},{"id":"xx365926_526748","name":"مسجد ولیکدان","lat":36.592596,"lng":52.674802,"addr":"","type":"place_of_worship"},{"id":"xx365982_526728","name":"Islamic place","lat":36.598216,"lng":52.672824,"addr":"","type":"place_of_worship"},{"id":"xx366034_526695","name":"Islamic place","lat":36.603404,"lng":52.669484,"addr":"","type":"place_of_worship"},{"id":"xx357721_514876","name":"مسجد ولیعصر","lat":35.772105,"lng":51.487636,"addr":"","type":"place_of_worship"},{"id":"xx364700_523387","name":"حسینیه کوثر","lat":36.470008,"lng":52.338738,"addr":"شهید کلارستافی - فجر ۱۲","type":"place_of_worship"},{"id":"xx357994_515661","name":"نمازخانه","lat":35.799387,"lng":51.566117,"addr":"","type":"place_of_worship"},{"id":"xx356513_514512","name":"مسجد نبوی","lat":35.65128,"lng":51.451187,"addr":"","type":"mosque"},{"id":"xx357946_514586","name":"امامزاده اسماعیل","lat":35.794583,"lng":51.458631,"addr":"","type":"place_of_worship"},{"id":"xx356293_515022","name":"مسجد امام حسین","lat":35.629335,"lng":51.502247,"addr":"","type":"mosque"},{"id":"xx356281_514929","name":"مسجد امام حسن","lat":35.628127,"lng":51.492947,"addr":"","type":"mosque"},{"id":"xx356937_514149","name":"مسجد حضرت ابراهیم","lat":35.693742,"lng":51.414907,"addr":"نوبهار","type":"place_of_worship"},{"id":"xx357334_515793","name":"مسجد امام رضا علیه السلام","lat":35.733408,"lng":51.579311,"addr":"","type":"mosque"},{"id":"xx356589_513692","name":"مسجد امین الله","lat":35.658877,"lng":51.369222,"addr":"تهران","type":"place_of_worship"},{"id":"xx357200_513620","name":"مسجد المهدی","lat":35.719959,"lng":51.362032,"addr":"","type":"place_of_worship"},{"id":"xx356183_514770","name":"مسجد صاحب‌الزمان (عج)","lat":35.618274,"lng":51.477016,"addr":"","type":"place_of_worship"},{"id":"xx356163_514792","name":"مسجد ولی عصر (عج)","lat":35.616317,"lng":51.479239,"addr":"","type":"place_of_worship"},{"id":"xx356237_514859","name":"مسجد النبی","lat":35.62373,"lng":51.485863,"addr":"","type":"place_of_worship"},{"id":"xx365542_530812","name":"مسجد امام جعفر صادق","lat":36.554196,"lng":53.081198,"addr":"","type":"place_of_worship"},{"id":"xx356957_514315","name":"مسجد خانقاه صفی علیشاه","lat":35.695739,"lng":51.431463,"addr":"صفی علیشاه","type":"shrine"},{"id":"xx370633_540867","name":"خلفای راشدین","lat":37.063314,"lng":54.086715,"addr":"","type":"place_of_worship"},{"id":"xx356875_514297","name":"مسجد شهدای انقلاب","lat":35.687469,"lng":51.429654,"addr":"","type":"place_of_worship"},{"id":"xx365007_523444","name":"مسجد علی ابن ابیطالب","lat":36.50066,"lng":52.344383,"addr":"","type":"place_of_worship"},{"id":"xx356328_513565","name":"مسجد امام زمان","lat":35.632785,"lng":51.356501,"addr":"","type":"mosque"},{"id":"xx356745_513429","name":"مسجد امام جعفر صادق ع","lat":35.674469,"lng":51.34286,"addr":"","type":"place_of_worship"},{"id":"xx356453_513056","name":"مسجد امیرالمومنین","lat":35.645295,"lng":51.305578,"addr":"","type":"place_of_worship"},{"id":"xx356453_513057","name":"حسینیه حضرت زین العابدین","lat":35.6453,"lng":51.305677,"addr":"","type":"place_of_worship"},{"id":"xx368443_544449","name":"مسجد امام اعظم","lat":36.844324,"lng":54.444899,"addr":"","type":"place_of_worship"},{"id":"xx356397_513007","name":"مسجد صاحب الزمان","lat":35.639671,"lng":51.300678,"addr":"","type":"place_of_worship"},{"id":"xx356485_513112","name":"مسجد جامع متحدان","lat":35.6485,"lng":51.311225,"addr":"","type":"place_of_worship"},{"id":"xx363353_538197","name":"پایین مسجد","lat":36.335338,"lng":53.819654,"addr":"","type":"place_of_worship"},{"id":"xx363360_538174","name":"بالا مسجد","lat":36.335981,"lng":53.817356,"addr":"","type":"place_of_worship"},{"id":"xx363345_538189","name":"حسینه","lat":36.334458,"lng":53.818866,"addr":"","type":"place_of_worship"},{"id":"xx357060_513563","name":"مسجد امام حسین","lat":35.705954,"lng":51.356302,"addr":"","type":"place_of_worship"},{"id":"xx365393_526869","name":"Islamic place","lat":36.539262,"lng":52.686921,"addr":"","type":"place_of_worship"},{"id":"xx356637_514245","name":"حسینیه","lat":35.663699,"lng":51.424486,"addr":"","type":"place_of_worship"},{"id":"xx356928_514332","name":"مسجد","lat":35.692797,"lng":51.433155,"addr":"","type":"place_of_worship"},{"id":"xx357609_513330","name":"مسجد امام علی","lat":35.760945,"lng":51.333033,"addr":"","type":"place_of_worship"},{"id":"xx354842_510908","name":"نمازخانه","lat":35.484175,"lng":51.090763,"addr":"","type":"place_of_worship"},{"id":"xx356890_514415","name":"مسجد حضرت زهرا","lat":35.68897,"lng":51.441513,"addr":"","type":"place_of_worship"},{"id":"xx356803_514407","name":"حسینیه","lat":35.680274,"lng":51.440691,"addr":"","type":"place_of_worship"},{"id":"xx356785_514379","name":"حسینیه","lat":35.67847,"lng":51.437928,"addr":"","type":"place_of_worship"},{"id":"xx354967_510694","name":"نمازخانه","lat":35.496665,"lng":51.069392,"addr":"","type":"place_of_worship"},{"id":"xx354729_510675","name":"نمازخانه","lat":35.472872,"lng":51.067521,"addr":"","type":"place_of_worship"},{"id":"xx356766_514344","name":"سقاخانه گذر امام‌زاده یحیی","lat":35.676561,"lng":51.434354,"addr":"","type":"place_of_worship"},{"id":"xx371944_501468","name":"جوادالائمه","lat":37.194376,"lng":50.146834,"addr":"","type":"place_of_worship"},{"id":"xx365064_526882","name":"مسجد صاحب الزمان","lat":36.506446,"lng":52.688206,"addr":"","type":"place_of_worship"},{"id":"xx354679_532013","name":"مسجد امام رضا","lat":35.467859,"lng":53.201298,"addr":"","type":"mosque"},{"id":"xx356146_514949","name":"مسجد امام سجاد (ع)","lat":35.614595,"lng":51.494897,"addr":"","type":"place_of_worship"},{"id":"xx358136_509977","name":"مهدیه کرج","lat":35.81364,"lng":50.997699,"addr":"","type":"place_of_worship"},{"id":"xx358062_510000","name":"Islamic place","lat":35.806153,"lng":51.000043,"addr":"","type":"place_of_worship"},{"id":"xx358028_509966","name":"Islamic place","lat":35.802816,"lng":50.996583,"addr":"","type":"place_of_worship"},{"id":"xx362792_500200","name":"دبیرستان حضرت قاسم (ع) و خلیج فارس","lat":36.279237,"lng":50.019953,"addr":"آبان","type":"school"},{"id":"xx357337_513515","name":"مسجد امیرالمؤمنین","lat":35.733654,"lng":51.351488,"addr":"","type":"place_of_worship"},{"id":"xx368466_545718","name":"مسجد روستای دودانگه","lat":36.846595,"lng":54.571808,"addr":"","type":"place_of_worship"},{"id":"xx368467_545715","name":"حسینیه روستای دودانگه","lat":36.846691,"lng":54.571496,"addr":"","type":"place_of_worship"},{"id":"xx368469_545722","name":"فاطمیه روستای دودانگه","lat":36.846871,"lng":54.572152,"addr":"","type":"place_of_worship"},{"id":"xx356325_514878","name":"مسجد الحسین","lat":35.632457,"lng":51.48777,"addr":"مظاهر","type":"place_of_worship"},{"id":"xx354820_510764","name":"Islamic place","lat":35.481997,"lng":51.076355,"addr":"","type":"place_of_worship"},{"id":"xx356997_514040","name":"حسینیه","lat":35.699664,"lng":51.403989,"addr":"","type":"place_of_worship"},{"id":"xx355810_514847","name":"مسجد جامع امین آباد","lat":35.581016,"lng":51.484722,"addr":"","type":"place_of_worship"},{"id":"xx362247_501984","name":"مسجد المهدی","lat":36.22467,"lng":50.19839,"addr":"","type":"mosque"},{"id":"xx356774_513523","name":"مسجد صاحب الزمان","lat":35.67738,"lng":51.352337,"addr":"","type":"mosque"},{"id":"xx357192_514475","name":"مسجد اعظم","lat":35.719223,"lng":51.44753,"addr":"شیخ صفی","type":"place_of_worship"},{"id":"xx356891_513526","name":"مسجد حضرت علی اکبر","lat":35.689123,"lng":51.352622,"addr":"","type":"place_of_worship"},{"id":"xx358247_509843","name":"مسجد رسول اکرم","lat":35.824733,"lng":50.984318,"addr":"","type":"place_of_worship"},{"id":"xx356948_514780","name":"مسجد زینب کبری(س)","lat":35.694816,"lng":51.477958,"addr":"شهید علوی","type":"place_of_worship"},{"id":"xx371893_500043","name":"مسجد امام رضا (ع)","lat":37.189296,"lng":50.004272,"addr":"","type":"place_of_worship"},{"id":"xx371899_500106","name":"مسجد دانشگاه آزاد لاهیجان","lat":37.189897,"lng":50.010633,"addr":"","type":"place_of_worship"},{"id":"xx365254_530167","name":"مسجد و حسینیه صاحب الزمان (عج)","lat":36.525385,"lng":53.0167,"addr":"کشاورز","type":"place_of_worship"},{"id":"xx350919_507445","name":"امامزاده سید باباغار","lat":35.091889,"lng":50.744482,"addr":"","type":"imamzadeh"},{"id":"xx358215_510124","name":"حضرت ابوالفضل","lat":35.821475,"lng":51.012391,"addr":"","type":"place_of_worship"},{"id":"xx356230_514764","name":"مسجد امام علی","lat":35.622988,"lng":51.476441,"addr":"","type":"place_of_worship"},{"id":"xx356475_513685","name":"مسجد","lat":35.647521,"lng":51.368467,"addr":"خوش کردار","type":"place_of_worship"},{"id":"xx357786_514897","name":"مسجد باب الحوائج","lat":35.778571,"lng":51.489703,"addr":"","type":"place_of_worship"},{"id":"xx357754_513492","name":"مسجد باقرالعلوم","lat":35.775361,"lng":51.349225,"addr":"","type":"place_of_worship"},{"id":"xx354874_513440","name":"حسینیه أمیر المؤمنین","lat":35.487384,"lng":51.344009,"addr":"","type":"place_of_worship"},{"id":"xx357775_510480","name":"Islamic place","lat":35.777467,"lng":51.048008,"addr":"","type":"place_of_worship"},{"id":"xx357775_510399","name":"مسجد شهرک خاتم انبیا","lat":35.777523,"lng":51.039935,"addr":"","type":"place_of_worship"},{"id":"xx355716_510847","name":"مسجد جامع شاهدشهر","lat":35.571563,"lng":51.084727,"addr":"","type":"place_of_worship"},{"id":"xx362181_537390","name":"مسجد تلمادره","lat":36.218104,"lng":53.738973,"addr":"","type":"place_of_worship"},{"id":"xx356082_513785","name":"مسجد صاحب الزمان","lat":35.608202,"lng":51.378478,"addr":"آرایشی","type":"mosque"},{"id":"xx356082_513815","name":"حسینیه تویسرکانی ها","lat":35.608194,"lng":51.38155,"addr":"","type":"place_of_worship"},{"id":"xx363306_523528","name":"امامزادگان ۱۸ تن","lat":36.330608,"lng":52.352806,"addr":"","type":"place_of_worship"},{"id":"xx357101_514782","name":"مسجد قمر بنی هاشم","lat":35.710133,"lng":51.478247,"addr":"","type":"place_of_worship"},{"id":"xx357105_514848","name":"مسجد علی ابن موسی الرضا","lat":35.710472,"lng":51.484819,"addr":"","type":"place_of_worship"},{"id":"xx357121_514885","name":"مسجد امام حسن مجتبی","lat":35.71215,"lng":51.488476,"addr":"","type":"place_of_worship"},{"id":"xx357815_514194","name":"مسجد الزهرا","lat":35.781462,"lng":51.419441,"addr":"","type":"place_of_worship"},{"id":"xx356516_514211","name":"مسجد قدس","lat":35.65164,"lng":51.421055,"addr":"","type":"place_of_worship"},{"id":"xx358951_508853","name":"نمازخانه","lat":35.895147,"lng":50.885282,"addr":"","type":"place_of_worship"},{"id":"xx356604_509645","name":"امامزاده ابراهیم ملارد","lat":35.660421,"lng":50.964463,"addr":"","type":"place_of_worship"},{"id":"xx357700_514938","name":"مسجد موسسه رفاهی کشتیرانی","lat":35.770011,"lng":51.49383,"addr":"","type":"place_of_worship"},{"id":"xx357163_514588","name":"مسجد رضوان","lat":35.716308,"lng":51.458754,"addr":"","type":"mosque"},{"id":"xx357095_513822","name":"مسجد المهدی","lat":35.709515,"lng":51.382185,"addr":"","type":"place_of_worship"},{"id":"xx368364_543718","name":"محمد رسول الله","lat":36.836371,"lng":54.371789,"addr":"شهرک زیتون،فلکه سوم","type":"place_of_worship"},{"id":"xx357187_515052","name":"حسینیه گلپایگانی","lat":35.718659,"lng":51.505152,"addr":"","type":"place_of_worship"},{"id":"xx356676_514427","name":"مسجد محمدی","lat":35.667554,"lng":51.44269,"addr":"محمدمهدی مشهدی رحیم","type":"place_of_worship"},{"id":"xx354274_517741","name":"مسجد امام حسین","lat":35.427354,"lng":51.774074,"addr":"","type":"place_of_worship"},{"id":"xx367612_538831","name":"Islamic place","lat":36.761223,"lng":53.883127,"addr":"","type":"place_of_worship"},{"id":"xx357081_514483","name":"مسجد حضرت قایم (عج)","lat":35.708116,"lng":51.448285,"addr":"سلمان فارسی","type":"place_of_worship"},{"id":"xx357176_503759","name":"مصلی اشتهارد","lat":35.717557,"lng":50.375921,"addr":"","type":"place_of_worship"},{"id":"xx360571_541398","name":"مسجد الغدیر ۱۱۰","lat":36.057114,"lng":54.139794,"addr":"","type":"place_of_worship"},{"id":"xx356714_514422","name":"مسجد الزهراء سلام الله علیها","lat":35.671365,"lng":51.442241,"addr":"عبدالله رضوی (آبمنگل)","type":"place_of_worship"},{"id":"xx357346_509912","name":"مسجد الزهرا","lat":35.73462,"lng":50.991229,"addr":"","type":"place_of_worship"},{"id":"xx357999_509926","name":"Islamic place","lat":35.799865,"lng":50.992596,"addr":"","type":"place_of_worship"},{"id":"xx357981_509973","name":"مسجد","lat":35.798116,"lng":50.997321,"addr":"","type":"place_of_worship"},{"id":"xx357349_509798","name":"Islamic place","lat":35.734881,"lng":50.979774,"addr":"","type":"place_of_worship"},{"id":"xx355963_534417","name":"پارک جنگلی سوکان","lat":35.59625,"lng":53.441676,"addr":"","type":"place_of_worship"},{"id":"xx353982_526980","name":"امامزاده جعفر (ع)","lat":35.398164,"lng":52.697979,"addr":"","type":"place_of_worship"},{"id":"xx357433_517008","name":"مسجد امام رضا","lat":35.74335,"lng":51.700815,"addr":"","type":"place_of_worship"},{"id":"xx353960_526777","name":"مسجد","lat":35.39599,"lng":52.677676,"addr":"","type":"place_of_worship"},{"id":"xx353991_526795","name":"مزار شهدا","lat":35.399136,"lng":52.679455,"addr":"","type":"place_of_worship"},{"id":"xx355853_521497","name":"مسجد کوهان","lat":35.585348,"lng":52.149742,"addr":"","type":"place_of_worship"},{"id":"xx355844_521558","name":"مسجد کردر","lat":35.584416,"lng":52.155763,"addr":"","type":"place_of_worship"},{"id":"xx362951_523657","name":"Islamic place","lat":36.295096,"lng":52.365654,"addr":"","type":"place_of_worship"},{"id":"xx354121_532655","name":"امامزاده عباسعلی","lat":35.412138,"lng":53.265504,"addr":"","type":"place_of_worship"},{"id":"xx354117_532673","name":"مسجد","lat":35.411717,"lng":53.267313,"addr":"","type":"place_of_worship"},{"id":"xx357738_512741","name":"مسجد الزهرا","lat":35.773849,"lng":51.274124,"addr":"","type":"place_of_worship"},{"id":"xx357104_514545","name":"مسجد بنی فاطمه","lat":35.710429,"lng":51.454477,"addr":"","type":"place_of_worship"},{"id":"xx365918_532069","name":"مسجد امام حسین شهر سورک","lat":36.591787,"lng":53.206856,"addr":"","type":"place_of_worship"},{"id":"xx356180_514568","name":"مسجد الامام حسن المجتبى دولت اباد","lat":35.617964,"lng":51.456809,"addr":"","type":"place_of_worship"},{"id":"xx360920_542015","name":"مسجد","lat":36.092017,"lng":54.201509,"addr":"","type":"place_of_worship"},{"id":"xx369963_544470","name":"مسجد محمد رسول الله","lat":36.996297,"lng":54.446976,"addr":"","type":"place_of_worship"},{"id":"xx356383_514682","name":"مسجد امام حسن مجتبی (ع)","lat":35.638345,"lng":51.468198,"addr":"شهرک شهید بروجردی","type":"place_of_worship"},{"id":"xx366090_526555","name":"گلزار شهدا و حسینیه درزیکلاشیخ","lat":36.609043,"lng":52.655534,"addr":"","type":"place_of_worship"},{"id":"xx366030_526680","name":"مسجد موسی بی جعفر","lat":36.602979,"lng":52.66803,"addr":"","type":"place_of_worship"},{"id":"xx366062_526463","name":"مسجد جامع کردکلا","lat":36.606153,"lng":52.646291,"addr":"","type":"place_of_worship"},{"id":"xx365950_526634","name":"Islamic place","lat":36.595019,"lng":52.663366,"addr":"","type":"place_of_worship"},{"id":"xx365982_526641","name":"مسجد امام حسین","lat":36.598199,"lng":52.664139,"addr":"","type":"place_of_worship"},{"id":"xx365990_526586","name":"مسجد امام حسن عسکری","lat":36.599046,"lng":52.658597,"addr":"","type":"place_of_worship"},{"id":"xx356571_510552","name":"مسجد جامع شهریار","lat":35.657106,"lng":51.055178,"addr":"","type":"yes"},{"id":"xx357491_510686","name":"مسجد جامع شهر گرمدره","lat":35.749091,"lng":51.068635,"addr":"","type":"place_of_worship"},{"id":"xx368490_533761","name":"Islamic place","lat":36.848978,"lng":53.376126,"addr":"","type":"place_of_worship"},{"id":"xx361303_526095","name":"مسجد چلیاسر","lat":36.130279,"lng":52.60953,"addr":"چلیاسر","type":"place_of_worship"},{"id":"xx355419_513528","name":"مسجد الزهرا","lat":35.541908,"lng":51.352804,"addr":"","type":"place_of_worship"},{"id":"xx357330_511894","name":"مسجد خاتم الانبیا","lat":35.73303,"lng":51.189374,"addr":"","type":"place_of_worship"},{"id":"xx355478_514830","name":"مسجد صاحب الزمان","lat":35.547836,"lng":51.483007,"addr":"","type":"place_of_worship"},{"id":"xx355420_514828","name":"مسجد امام حسن مجتبی","lat":35.541999,"lng":51.482771,"addr":"","type":"place_of_worship"},{"id":"xx356362_513998","name":"حسینیه جوانان حسین ابن علی","lat":35.636186,"lng":51.399759,"addr":"","type":"place_of_worship"},{"id":"xx367600_508490","name":"مسجد قلعه گردن","lat":36.76001,"lng":50.84897,"addr":"","type":"place_of_worship"},{"id":"xx357453_510004","name":"مسجد صاحب الزمان","lat":35.745292,"lng":51.00039,"addr":"اهری","type":"place_of_worship"},{"id":"xx356774_513223","name":"مسجد الزهرا","lat":35.677422,"lng":51.322319,"addr":"","type":"place_of_worship"},{"id":"xx356905_514957","name":"مسجد بقیه الله اعظم","lat":35.690528,"lng":51.495729,"addr":"","type":"place_of_worship"},{"id":"xx364595_528201","name":"مسجد","lat":36.45951,"lng":52.820073,"addr":"","type":"place_of_worship"},{"id":"xx355443_511370","name":"Islamic place","lat":35.544254,"lng":51.137042,"addr":"","type":"place_of_worship"},{"id":"xx357983_515134","name":"مسجد امام خمینی (ره)","lat":35.798292,"lng":51.51338,"addr":"","type":"place_of_worship"},{"id":"xx365610_530740","name":"مسجد سالخورده","lat":36.561009,"lng":53.073972,"addr":"","type":"place_of_worship"},{"id":"xx355615_511708","name":"مسجد حضرت رقیه","lat":35.561475,"lng":51.170834,"addr":"","type":"place_of_worship"},{"id":"xx355605_511700","name":"Islamic place","lat":35.560482,"lng":51.16995,"addr":"","type":"place_of_worship"},{"id":"xx358125_514712","name":"نمازخانه","lat":35.812481,"lng":51.471211,"addr":"","type":"place_of_worship"},{"id":"xx365574_519351","name":"Islamic place","lat":36.557407,"lng":51.935121,"addr":"","type":"place_of_worship"},{"id":"xx358129_510078","name":"مسجد جامع کرج","lat":35.812869,"lng":51.007753,"addr":"","type":"place_of_worship"},{"id":"xx357831_510060","name":"مسجد الرضا","lat":35.783081,"lng":51.00602,"addr":"","type":"place_of_worship"},{"id":"xx358044_510110","name":"مسجد امام علی ابن ابی طالب","lat":35.804381,"lng":51.011,"addr":"","type":"place_of_worship"},{"id":"xx358208_509674","name":"Islamic place","lat":35.820776,"lng":50.967415,"addr":"","type":"place_of_worship"},{"id":"xx354614_511165","name":"Islamic place","lat":35.461397,"lng":51.1165,"addr":"","type":"place_of_worship"},{"id":"xx358120_508931","name":"Islamic place","lat":35.811965,"lng":50.893069,"addr":"","type":"place_of_worship"},{"id":"xx370188_544630","name":"مسجد ملا شاجان","lat":37.018842,"lng":54.463006,"addr":"ایثار معلم","type":"place_of_worship"},{"id":"xx358078_514704","name":"نمازخانه","lat":35.807836,"lng":51.47045,"addr":"","type":"place_of_worship"},{"id":"xx355415_514198","name":"Islamic place","lat":35.541481,"lng":51.419768,"addr":"","type":"place_of_worship"},{"id":"xx357349_515040","name":"Islamic place","lat":35.734935,"lng":51.503967,"addr":"","type":"place_of_worship"},{"id":"xx357756_513285","name":"مسجد حضرت بقیه الله الاعظم(عج)","lat":35.775603,"lng":51.328517,"addr":"","type":"mosque"},{"id":"xx365610_530535","name":"تکیه شکرآباد","lat":36.561024,"lng":53.053505,"addr":"","type":"place_of_worship"},{"id":"xx365607_530542","name":"تکیه باقرآباد","lat":36.560739,"lng":53.054234,"addr":"","type":"place_of_worship"},{"id":"xx372711_502153","name":"مسجد جامع چاف","lat":37.271079,"lng":50.215265,"addr":"","type":"place_of_worship"},{"id":"xx361623_533351","name":"تکیه دینه سر","lat":36.162335,"lng":53.335143,"addr":"","type":"place_of_worship"},{"id":"xx355498_521687","name":"مسجد جامع کیلان","lat":35.549803,"lng":52.168737,"addr":"","type":"place_of_worship"},{"id":"xx355491_521695","name":"مسجد صاحب الزمان","lat":35.54909,"lng":52.169516,"addr":"","type":"place_of_worship"},{"id":"xx355509_521689","name":"حسینیه کیلان","lat":35.550903,"lng":52.168904,"addr":"","type":"place_of_worship"},{"id":"xx359296_515263","name":"حسینیه فشم","lat":35.929569,"lng":51.526287,"addr":"","type":"place_of_worship"},{"id":"xx358998_515244","name":"حسینیه اوشان","lat":35.899787,"lng":51.524411,"addr":"","type":"place_of_worship"},{"id":"xx358326_510193","name":"مسجد حجت","lat":35.832578,"lng":51.019284,"addr":"","type":"place_of_worship"},{"id":"xx356266_509255","name":"حسینیه آذری ها","lat":35.626619,"lng":50.925539,"addr":"","type":"place_of_worship"},{"id":"xx355499_513427","name":"نمازخانه","lat":35.549932,"lng":51.342662,"addr":"","type":"place_of_worship"},{"id":"xx357100_509706","name":"Islamic place","lat":35.710012,"lng":50.97065,"addr":"","type":"place_of_worship"},{"id":"xx357551_510691","name":"مهدیه گرمدره","lat":35.755079,"lng":51.069062,"addr":"","type":"place_of_worship"},{"id":"xx359574_507861","name":"امامزاده عبدالله و صالح","lat":35.95736,"lng":50.78609,"addr":"","type":"place_of_worship"},{"id":"xx357316_514267","name":"نمازخانه","lat":35.731573,"lng":51.426712,"addr":"","type":"place_of_worship"},{"id":"xx357401_512797","name":"مسجد صاحب الزمان","lat":35.740107,"lng":51.279663,"addr":"","type":"place_of_worship"},{"id":"xx357506_515190","name":"Islamic place","lat":35.750552,"lng":51.519024,"addr":"","type":"place_of_worship"},{"id":"xx361862_518587","name":"مسجد حضرت علی ابن ابیطالب","lat":36.18621,"lng":51.858694,"addr":"","type":"place_of_worship"},{"id":"xx369855_545790","name":"مسجد امام اعظم ابوحنیفه","lat":36.985493,"lng":54.578964,"addr":"","type":"place_of_worship"},{"id":"xx353352_520905","name":"مسجد الزهرا","lat":35.335209,"lng":52.090497,"addr":"","type":"place_of_worship"},{"id":"xx358605_509829","name":"مسجد شهرک بهداری","lat":35.860546,"lng":50.982926,"addr":"","type":"place_of_worship"},{"id":"xx358487_509973","name":"مسجد جامع امام حسین","lat":35.848675,"lng":50.997272,"addr":"","type":"place_of_worship"},{"id":"xx352167_525493","name":"Islamic place","lat":35.216712,"lng":52.549332,"addr":"","type":"place_of_worship"},{"id":"xx354732_510831","name":"مسجد جامع رباط کریم","lat":35.473184,"lng":51.083103,"addr":"","type":"place_of_worship"},{"id":"xx354715_510816","name":"امامزاده محمد تقی","lat":35.471529,"lng":51.081569,"addr":"","type":"place_of_worship"},{"id":"xx357458_518298","name":"مسجد امیرالمومنین علیه السلام","lat":35.745817,"lng":51.829821,"addr":"معلم","type":"place_of_worship"},{"id":"xx357598_515797","name":"مسجد سید الشهدا","lat":35.759812,"lng":51.57969,"addr":"","type":"place_of_worship"},{"id":"xx357585_515710","name":"مسجد امام رضا","lat":35.758499,"lng":51.571008,"addr":"","type":"place_of_worship"},{"id":"xx356776_516054","name":"مسجد جامع","lat":35.677616,"lng":51.605365,"addr":"","type":"place_of_worship"},{"id":"xx357190_514775","name":"نمازخانه بوستان بهارستان","lat":35.718995,"lng":51.477457,"addr":"","type":"place_of_worship"},{"id":"xx355237_516221","name":"مسجد","lat":35.523697,"lng":51.622056,"addr":"","type":"place_of_worship"},{"id":"xx356319_514096","name":"مسجد اباعبدالله","lat":35.631918,"lng":51.409604,"addr":"","type":"place_of_worship"},{"id":"xx359852_506870","name":"مسجد","lat":35.985215,"lng":50.686961,"addr":"","type":"place_of_worship"},{"id":"xx357189_513227","name":"مسجد امام حسن عسکری","lat":35.718903,"lng":51.322695,"addr":"","type":"place_of_worship"},{"id":"xx359739_506026","name":"مسجد","lat":35.973874,"lng":50.602603,"addr":"","type":"place_of_worship"},{"id":"xx359463_506121","name":"مسجد","lat":35.946338,"lng":50.612087,"addr":"","type":"place_of_worship"},{"id":"xx357704_514941","name":"حسینیه حضرت ابوالفضل ماکوییان تهران","lat":35.77041,"lng":51.494141,"addr":"","type":"place_of_worship"},{"id":"xx358868_522059","name":"حسینیه کندلو","lat":35.886769,"lng":52.205852,"addr":"","type":"place_of_worship"},{"id":"xx358868_522055","name":"مسجد کندلو","lat":35.886752,"lng":52.205525,"addr":"","type":"place_of_worship"},{"id":"xx355351_513071","name":"Islamic place","lat":35.535084,"lng":51.307055,"addr":"","type":"place_of_worship"},{"id":"xx365472_526859","name":"تکیه مقدس پیرعلم","lat":36.54716,"lng":52.685948,"addr":"","type":"place_of_worship"},{"id":"xx357458_515705","name":"حسینیه قمر بنی هاشم","lat":35.74581,"lng":51.570525,"addr":"","type":"place_of_worship"},{"id":"xx357922_510170","name":"مسجد ابوالفضل","lat":35.79224,"lng":51.016985,"addr":"","type":"place_of_worship"},{"id":"xx357951_510147","name":"مسجد المهدی","lat":35.795115,"lng":51.014681,"addr":"","type":"place_of_worship"},{"id":"xx357218_513375","name":"مسجد امام جعفر صادق","lat":35.721839,"lng":51.33753,"addr":"","type":"place_of_worship"},{"id":"xx356375_514604","name":"مسجد جامع صاحب الزمان","lat":35.637546,"lng":51.460402,"addr":"","type":"place_of_worship"},{"id":"xx365419_530674","name":"مسجد دارالسلام (شکوهی)","lat":36.541859,"lng":53.067436,"addr":"","type":"place_of_worship"},{"id":"xx355944_533969","name":"مسجد اباصالح المهدی","lat":35.59445,"lng":53.396938,"addr":"","type":"place_of_worship"},{"id":"xx355828_533815","name":"مسجد سید الشهدا","lat":35.582798,"lng":53.381482,"addr":"","type":"place_of_worship"},{"id":"xx355685_533927","name":"مسجد فاطمیه","lat":35.568523,"lng":53.392709,"addr":"","type":"place_of_worship"},{"id":"xx355687_534114","name":"Islamic place","lat":35.568729,"lng":53.41144,"addr":"","type":"mosque"},{"id":"xx370679_540816","name":"Islamic place","lat":37.067877,"lng":54.081551,"addr":"","type":"place_of_worship"},{"id":"xx370723_540800","name":"Islamic place","lat":37.072287,"lng":54.080032,"addr":"","type":"place_of_worship"},{"id":"xx370732_540808","name":"Islamic place","lat":37.073192,"lng":54.08077,"addr":"","type":"place_of_worship"},{"id":"xx370755_540812","name":"Islamic place","lat":37.075504,"lng":54.081182,"addr":"","type":"place_of_worship"},{"id":"xx370758_540830","name":"Islamic place","lat":37.07576,"lng":54.082962,"addr":"","type":"place_of_worship"},{"id":"xx370669_540781","name":"Islamic place","lat":37.066916,"lng":54.07812,"addr":"","type":"place_of_worship"},{"id":"xx370680_540770","name":"Islamic place","lat":37.06801,"lng":54.077031,"addr":"","type":"place_of_worship"},{"id":"xx370704_540760","name":"Islamic place","lat":37.070385,"lng":54.075971,"addr":"","type":"place_of_worship"},{"id":"xx370726_540774","name":"Islamic place","lat":37.072631,"lng":54.077419,"addr":"","type":"place_of_worship"},{"id":"xx370796_540759","name":"Islamic place","lat":37.079552,"lng":54.075868,"addr":"","type":"place_of_worship"},{"id":"xx370795_540793","name":"Islamic place","lat":37.079496,"lng":54.07932,"addr":"","type":"place_of_worship"},{"id":"xx370783_540741","name":"Islamic place","lat":37.078286,"lng":54.074087,"addr":"","type":"place_of_worship"},{"id":"xx370763_540760","name":"دارالتحفیظ عاصم کوفی","lat":37.076302,"lng":54.075983,"addr":"","type":"place_of_worship"},{"id":"xx370812_540739","name":"Islamic place","lat":37.081222,"lng":54.0739,"addr":"","type":"place_of_worship"},{"id":"xx370646_540814","name":"Islamic place","lat":37.064595,"lng":54.081371,"addr":"","type":"place_of_worship"},{"id":"xx370636_540741","name":"Islamic place","lat":37.063623,"lng":54.074126,"addr":"","type":"place_of_worship"},{"id":"xx370584_540812","name":"Islamic place","lat":37.058369,"lng":54.081208,"addr":"","type":"place_of_worship"},{"id":"xx370604_540814","name":"Islamic place","lat":37.060399,"lng":54.081415,"addr":"","type":"place_of_worship"},{"id":"xx370625_540821","name":"Islamic place","lat":37.062477,"lng":54.082119,"addr":"","type":"place_of_worship"},{"id":"xx370651_540688","name":"Islamic place","lat":37.065104,"lng":54.068754,"addr":"","type":"place_of_worship"},{"id":"xx370715_540760","name":"Islamic place","lat":37.071451,"lng":54.076012,"addr":"","type":"place_of_worship"},{"id":"xx370726_540745","name":"Islamic place","lat":37.072584,"lng":54.074461,"addr":"","type":"place_of_worship"},{"id":"xx370709_540694","name":"Islamic place","lat":37.070934,"lng":54.06943,"addr":"","type":"place_of_worship"},{"id":"xx370584_540772","name":"Islamic place","lat":37.058428,"lng":54.077188,"addr":"","type":"place_of_worship"},{"id":"xx370099_542214","name":"حوزه علمیه نور بناور","lat":37.009923,"lng":54.221361,"addr":"","type":"place_of_worship"},{"id":"xx370129_542218","name":"Islamic place","lat":37.012854,"lng":54.221818,"addr":"","type":"place_of_worship"},{"id":"xx370119_542292","name":"Islamic place","lat":37.01191,"lng":54.229224,"addr":"","type":"place_of_worship"},{"id":"xx370817_540654","name":"Islamic place","lat":37.081697,"lng":54.065385,"addr":"","type":"place_of_worship"},{"id":"xx370755_540767","name":"Islamic place","lat":37.075486,"lng":54.076737,"addr":"","type":"place_of_worship"},{"id":"xx370750_540754","name":"Islamic place","lat":37.075027,"lng":54.075361,"addr":"","type":"place_of_worship"},{"id":"xx370740_540744","name":"Islamic place","lat":37.073965,"lng":54.074396,"addr":"","type":"place_of_worship"},{"id":"xx370738_540787","name":"Islamic place","lat":37.0738,"lng":54.0787,"addr":"","type":"place_of_worship"},{"id":"xx370827_540728","name":"Islamic place","lat":37.082711,"lng":54.072761,"addr":"","type":"place_of_worship"},{"id":"xx370853_540722","name":"Islamic place","lat":37.08528,"lng":54.072199,"addr":"","type":"place_of_worship"},{"id":"xx370681_540709","name":"Islamic place","lat":37.068111,"lng":54.070916,"addr":"","type":"place_of_worship"},{"id":"xx370700_540791","name":"Islamic place","lat":37.069975,"lng":54.079054,"addr":"","type":"place_of_worship"},{"id":"xx370665_540749","name":"Islamic place","lat":37.066498,"lng":54.074915,"addr":"","type":"place_of_worship"},{"id":"xx370145_542206","name":"Islamic place","lat":37.01451,"lng":54.220576,"addr":"","type":"place_of_worship"},{"id":"xx370233_542099","name":"Islamic place","lat":37.023318,"lng":54.209905,"addr":"","type":"place_of_worship"},{"id":"xx370681_540670","name":"Islamic place","lat":37.068104,"lng":54.066997,"addr":"","type":"place_of_worship"},{"id":"xx370781_540777","name":"Islamic place","lat":37.078094,"lng":54.077672,"addr":"","type":"place_of_worship"},{"id":"xx370690_540749","name":"Islamic place","lat":37.069048,"lng":54.074905,"addr":"","type":"place_of_worship"},{"id":"xx370604_540743","name":"Islamic place","lat":37.06035,"lng":54.07429,"addr":"","type":"place_of_worship"},{"id":"xx356942_514704","name":"مسجد","lat":35.694221,"lng":51.470386,"addr":"","type":"place_of_worship"},{"id":"xx356958_514604","name":"مسجد سید الشهدا","lat":35.695758,"lng":51.460407,"addr":"","type":"place_of_worship"},{"id":"xx357126_514675","name":"مسجد مالک اشتر","lat":35.71261,"lng":51.467498,"addr":"","type":"place_of_worship"},{"id":"xx356247_513789","name":"مسجد میدان تره بار","lat":35.624682,"lng":51.378876,"addr":"","type":"place_of_worship"},{"id":"xx356270_513492","name":"مسجد امام رضا","lat":35.627025,"lng":51.349219,"addr":"","type":"place_of_worship"},{"id":"xx357118_533544","name":"مسجد صاحب الزمان","lat":35.711807,"lng":53.35438,"addr":"","type":"place_of_worship"},{"id":"xx358007_509068","name":"مسجد امام علی","lat":35.800737,"lng":50.90675,"addr":"","type":"place_of_worship"},{"id":"xx353890_516163","name":"مسجد ابوالفضل","lat":35.389012,"lng":51.616339,"addr":"","type":"place_of_worship"},{"id":"xx351364_504007","name":"مسجد ام البنین (س)","lat":35.136387,"lng":50.40072,"addr":"","type":"place_of_worship"},{"id":"xx357235_513100","name":"مسجد الزهرا","lat":35.723534,"lng":51.310044,"addr":"","type":"place_of_worship"},{"id":"xx357277_513204","name":"مسجد رضا","lat":35.727732,"lng":51.320388,"addr":"","type":"place_of_worship"},{"id":"xx357277_513356","name":"حسینیه ثارالله","lat":35.727733,"lng":51.335591,"addr":"","type":"place_of_worship"},{"id":"xx353472_521006","name":"مسجد","lat":35.347196,"lng":52.100566,"addr":"","type":"place_of_worship"},{"id":"xx365441_526741","name":"مسجد امام باقر (مسجد برج بن)","lat":36.544144,"lng":52.674135,"addr":"","type":"place_of_worship"},{"id":"xx362977_528916","name":"حسینیه","lat":36.297664,"lng":52.891612,"addr":"","type":"place_of_worship"},{"id":"xx365919_526698","name":"مسجد جامع","lat":36.591905,"lng":52.669794,"addr":"","type":"place_of_worship"},{"id":"xx352530_527333","name":"حسینیه","lat":35.252996,"lng":52.733297,"addr":"","type":"place_of_worship"},{"id":"xx352539_527325","name":"مسجد صاحب الزمان","lat":35.253866,"lng":52.732529,"addr":"","type":"place_of_worship"},{"id":"xx353827_505648","name":"مسجد جامع شهر زاویه","lat":35.382658,"lng":50.564818,"addr":"","type":"place_of_worship"},{"id":"xx353818_505645","name":"حسینیه حضرت سید الشهدا علیه السلام","lat":35.381825,"lng":50.56452,"addr":"","type":"place_of_worship"},{"id":"xx353828_505630","name":"مسجد امام حسین (ع) شهر زاویه","lat":35.382799,"lng":50.563013,"addr":"","type":"place_of_worship"},{"id":"xx353832_505626","name":"مسجد امام سجاد (ع)","lat":35.383152,"lng":50.562614,"addr":"","type":"place_of_worship"},{"id":"xx353852_505647","name":"مسجد امام حسن مجتبی(ع)","lat":35.385156,"lng":50.564684,"addr":"","type":"place_of_worship"},{"id":"xx353838_505667","name":"حسینیه حضرت ابوالفضل (ع)","lat":35.383775,"lng":50.566654,"addr":"","type":"place_of_worship"},{"id":"xx353508_505307","name":"مسجد جامع","lat":35.350796,"lng":50.530695,"addr":"","type":"place_of_worship"},{"id":"xx354901_510657","name":"Islamic place","lat":35.490127,"lng":51.065713,"addr":"","type":"place_of_worship"},{"id":"xx357583_512283","name":"مسجد فاطمة الزهرا","lat":35.758288,"lng":51.228289,"addr":"","type":"place_of_worship"},{"id":"xx355849_533867","name":"مسجد ثامن الائمه","lat":35.584901,"lng":53.386742,"addr":"","type":"place_of_worship"},{"id":"xx355228_501612","name":"مسجد","lat":35.522814,"lng":50.161202,"addr":"","type":"place_of_worship"},{"id":"xx350392_503511","name":"مسجد مسلم ابن عقیل","lat":35.039204,"lng":50.351078,"addr":"","type":"place_of_worship"},{"id":"xx350286_503360","name":"سهند","lat":35.028619,"lng":50.336042,"addr":"","type":"place_of_worship"},{"id":"xx350275_503328","name":"مسجد امام محمد باقر","lat":35.027549,"lng":50.332772,"addr":"","type":"place_of_worship"},{"id":"xx350280_503285","name":"مسجد امام صادق","lat":35.028049,"lng":50.32847,"addr":"","type":"place_of_worship"},{"id":"xx350233_503300","name":"مسجد سید الشهدا","lat":35.023318,"lng":50.329975,"addr":"","type":"place_of_worship"},{"id":"xx350208_503399","name":"مسجد سلمان فارسی","lat":35.02077,"lng":50.339887,"addr":"","type":"place_of_worship"},{"id":"xx356892_514204","name":"مسجد امین السلطان","lat":35.689219,"lng":51.420445,"addr":"","type":"place_of_worship"},{"id":"xx350189_503678","name":"مسجد سید تقی حسینی","lat":35.018946,"lng":50.367756,"addr":"","type":"place_of_worship"},{"id":"xx350181_503663","name":"هیئت زینبیه","lat":35.018124,"lng":50.366332,"addr":"","type":"place_of_worship"},{"id":"xx350191_503630","name":"امامزاده سید ابورضا","lat":35.01911,"lng":50.363045,"addr":"","type":"place_of_worship"},{"id":"xx350221_503592","name":"مسجد امام زمان","lat":35.022146,"lng":50.359219,"addr":"","type":"place_of_worship"},{"id":"xx350227_503576","name":"مسجد قدس","lat":35.02274,"lng":50.35763,"addr":"","type":"place_of_worship"},{"id":"xx350108_503676","name":"حسینیه امامزاده","lat":35.010762,"lng":50.367553,"addr":"","type":"place_of_worship"},{"id":"xx350107_503673","name":"امامزاده شاهزاده حسین","lat":35.010675,"lng":50.367289,"addr":"","type":"place_of_worship"},{"id":"xx350357_503694","name":"مسجد حضرت ولیعصر (عج)","lat":35.035702,"lng":50.369362,"addr":"","type":"place_of_worship"},{"id":"xx350428_503730","name":"مسجد بقیه اللّه","lat":35.04281,"lng":50.372973,"addr":"","type":"place_of_worship"},{"id":"xx350164_503617","name":"مسجد سرخ","lat":35.016449,"lng":50.361669,"addr":"","type":"place_of_worship"},{"id":"xx350377_503736","name":"مسجد امام حسن مجتبی (ع)","lat":35.037667,"lng":50.373575,"addr":"","type":"place_of_worship"},{"id":"xx354477_510034","name":"مسجد امام رضا علیه السلام","lat":35.447722,"lng":51.003423,"addr":"","type":"place_of_worship"},{"id":"xx354741_510704","name":"مسجد فاطمه زهرا سلام الله علیها","lat":35.474081,"lng":51.070406,"addr":"","type":"place_of_worship"},{"id":"xx357028_514197","name":"مسجد جلیلی","lat":35.702781,"lng":51.419734,"addr":"","type":"place_of_worship"},{"id":"xx354494_511754","name":"Islamic place","lat":35.449428,"lng":51.175422,"addr":"","type":"place_of_worship"},{"id":"xx356670_511881","name":"مسجد جامع حضرت امیرالمؤمنین","lat":35.666956,"lng":51.188062,"addr":"","type":"place_of_worship"},{"id":"xx356459_513507","name":"نمازخانه","lat":35.645889,"lng":51.350721,"addr":"تهران","type":"place_of_worship"},{"id":"xx365520_530314","name":"مسجد حاج علی اکبر کلانتری","lat":36.552022,"lng":53.031445,"addr":"","type":"place_of_worship"},{"id":"xx365683_530591","name":"مسجد ابوالفضل","lat":36.568305,"lng":53.059085,"addr":"","type":"place_of_worship"},{"id":"xx357326_519205","name":"مدرسه ی ابتدایی (غیر انتفائی) البرز","lat":35.732631,"lng":51.920516,"addr":"بلوار مطهری","type":"school"},{"id":"xx356823_514674","name":"مسجد ولیعصر","lat":35.682294,"lng":51.46736,"addr":"","type":"place_of_worship"},{"id":"xx366127_526525","name":"Islamic place","lat":36.612668,"lng":52.652458,"addr":"","type":"place_of_worship"},{"id":"xx363692_528627","name":"Islamic place","lat":36.369155,"lng":52.862687,"addr":"","type":"place_of_worship"},{"id":"xx359813_530271","name":"مسجد","lat":35.981336,"lng":53.027066,"addr":"","type":"place_of_worship"},{"id":"xx366989_526380","name":"مسجد قائم آل محمد","lat":36.698914,"lng":52.637983,"addr":"","type":"place_of_worship"},{"id":"xx366954_526506","name":"مسجد ولی عصر","lat":36.695374,"lng":52.650585,"addr":"","type":"place_of_worship"},{"id":"xx356052_513068","name":"حسینیه حضرت فاطمه","lat":35.6052,"lng":51.306772,"addr":"","type":"place_of_worship"},{"id":"xx357349_515067","name":"حسینیه سید الشهدا","lat":35.734912,"lng":51.506683,"addr":"","type":"place_of_worship"},{"id":"xx364811_546452","name":"حسینیه سفلی شهر مجن","lat":36.481097,"lng":54.645177,"addr":"","type":"place_of_worship"},{"id":"xx356816_514275","name":"مسجد حضرت خدیجه","lat":35.681613,"lng":51.427539,"addr":"","type":"place_of_worship"},{"id":"xx356825_514281","name":"مسجد آیت الله کاشانی","lat":35.682503,"lng":51.428069,"addr":"","type":"place_of_worship"},{"id":"xx357436_512940","name":"مسجد الرسول","lat":35.743602,"lng":51.293992,"addr":"","type":"place_of_worship"},{"id":"xx362101_543938","name":"حسینیه علقمه","lat":36.210075,"lng":54.393772,"addr":"","type":"place_of_worship"},{"id":"xx362114_543899","name":"مسجد امام سجاد (ع)","lat":36.211374,"lng":54.389908,"addr":"","type":"place_of_worship"},{"id":"xx362108_543923","name":"حسینیه الهادی","lat":36.210754,"lng":54.392344,"addr":"","type":"place_of_worship"},{"id":"xx362098_543915","name":"حسینیه حضرت علی اصغر (ع)","lat":36.20982,"lng":54.391542,"addr":"","type":"place_of_worship"},{"id":"xx362080_543914","name":"مزار شهدا","lat":36.207995,"lng":54.391413,"addr":"","type":"grave_yard"},{"id":"xx357107_514616","name":"مسجد الحسین","lat":35.710687,"lng":51.461586,"addr":"محمدرضا محمودی","type":"place_of_worship"},{"id":"xx363209_500095","name":"مسجد پیامبر اعظم","lat":36.32094,"lng":50.009535,"addr":"","type":"place_of_worship"},{"id":"xx358074_514278","name":"مسجد گیاهی","lat":35.807369,"lng":51.427803,"addr":"","type":"place_of_worship"},{"id":"xx363234_515676","name":"مسجد","lat":36.323383,"lng":51.567563,"addr":"","type":"place_of_worship"},{"id":"xx365596_526916","name":"مسجد قمربنی هاشم","lat":36.559552,"lng":52.691612,"addr":"میدان شهید نجاریان","type":"place_of_worship"},{"id":"xx357774_513149","name":"مسجد حضرت جواد الائمه","lat":35.777439,"lng":51.314947,"addr":"","type":"place_of_worship"},{"id":"xx354890_510741","name":"مسجد النبی","lat":35.489,"lng":51.074078,"addr":"","type":"place_of_worship"},{"id":"xx355781_514543","name":"مسجد حضرت سیدالشهدا","lat":35.578115,"lng":51.454257,"addr":"","type":"place_of_worship"},{"id":"xx367653_509776","name":"امامزاده سید حسین","lat":36.765274,"lng":50.977572,"addr":"زوار","type":"place_of_worship"},{"id":"xx355192_511821","name":"مسجد امام رضا","lat":35.519199,"lng":51.182061,"addr":"","type":"place_of_worship"},{"id":"xx355126_511822","name":"حسینیه موسی بن جعفر ( ع ) اقکندی ها","lat":35.51263,"lng":51.18216,"addr":"","type":"place_of_worship"},{"id":"xx355702_510829","name":"مسجد قائم","lat":35.570164,"lng":51.082934,"addr":"","type":"place_of_worship"},{"id":"xx357445_515639","name":"حسینیه چهارده معصوم","lat":35.744453,"lng":51.563899,"addr":"","type":"place_of_worship"},{"id":"xx358241_516182","name":"مسجد","lat":35.824105,"lng":51.618179,"addr":"","type":"place_of_worship"},{"id":"xx357411_515619","name":"مسجد جامع","lat":35.741069,"lng":51.561863,"addr":"","type":"place_of_worship"},{"id":"xx363989_524149","name":"Islamic place","lat":36.398891,"lng":52.414897,"addr":"","type":"place_of_worship"},{"id":"xx356969_514936","name":"مسجد بقیة الله اعظم","lat":35.696928,"lng":51.493628,"addr":"","type":"place_of_worship"},{"id":"xx356360_513517","name":"مسجد امام حسن عسگری ع","lat":35.636016,"lng":51.351717,"addr":"","type":"place_of_worship"},{"id":"xx364557_528509","name":"مسجد امام حسین ع","lat":36.455699,"lng":52.85092,"addr":"خرم ۴","type":"place_of_worship"},{"id":"xx357352_515610","name":"مسجد حضرت زینب","lat":35.735186,"lng":51.560994,"addr":"","type":"place_of_worship"},{"id":"xx357238_515261","name":"مسجد جامع المهدی","lat":35.723801,"lng":51.526056,"addr":"","type":"place_of_worship"},{"id":"xx357507_515047","name":"مسجد حضرت قمربنی هاشم (ع)","lat":35.750678,"lng":51.504723,"addr":"","type":"place_of_worship"},{"id":"xx356282_514104","name":"مسجد امام رضا","lat":35.628216,"lng":51.410407,"addr":"","type":"place_of_worship"},{"id":"xx364665_528587","name":"حسینیه طالقانی","lat":36.466542,"lng":52.85872,"addr":"شقایق ۳","type":"place_of_worship"},{"id":"xx357402_514058","name":"مسجد سادات","lat":35.740171,"lng":51.405801,"addr":"","type":"place_of_worship"},{"id":"xx357503_514056","name":"مسجد حمزه سیدالشهدا","lat":35.75032,"lng":51.405607,"addr":"","type":"place_of_worship"},{"id":"xx356949_514581","name":"مسجد اسلامیه امام حسن عسکری","lat":35.694871,"lng":51.458132,"addr":"","type":"place_of_worship"},