[{"id":"xx367970_719979","name":"Ostoni Piri Foqmamad","lat":36.797026,"lng":71.997936,"addr":"","type":"mosque"},{"id":"xx370532_726783","name":"Mазар","lat":37.053215,"lng":72.678307,"addr":"","type":"place_of_worship"},{"id":"xx360817_700132","name":"Islamic place","lat":36.081691,"lng":70.013243,"addr":"","type":"place_of_worship"},{"id":"xx360850_700267","name":"Islamic place","lat":36.085029,"lng":70.026696,"addr":"","type":"place_of_worship"},{"id":"xx365597_703631","name":"Islamic place","lat":36.559699,"lng":70.363088,"addr":"","type":"place_of_worship"},{"id":"xx373686_703654","name":"مسجدجامع","lat":37.368642,"lng":70.365414,"addr":"یفتل‌پایان","type":"place_of_worship"},{"id":"xx371402_740100","name":"Islamic place","lat":37.140184,"lng":74.009965,"addr":"","type":"mosque"},{"id":"xx371870_740296","name":"Islamic place","lat":37.187049,"lng":74.029564,"addr":"","type":"mosque"},{"id":"xx372295_741292","name":"Islamic place","lat":37.229538,"lng":74.129157,"addr":"","type":"mosque"},{"id":"xx372604_729960","name":"Islamic place","lat":37.260438,"lng":72.996004,"addr":"","type":"mosque"},{"id":"xx371093_705616","name":"مسجد سلمان فارس","lat":37.109281,"lng":70.561579,"addr":"","type":"yes"},{"id":"xx371160_705672","name":"Islamic place","lat":37.115991,"lng":70.567231,"addr":"","type":"yes"},{"id":"xx379529_715588","name":"Shotolib","lat":37.952878,"lng":71.558848,"addr":"","type":"mosque"},{"id":"xx379102_713786","name":"Islamic place","lat":37.910247,"lng":71.378615,"addr":"","type":"mosque"},{"id":"xx379543_714870","name":"Islamic place","lat":37.954313,"lng":71.486983,"addr":"","type":"mosque"},{"id":"xx379474_715670","name":"Old cemetery","lat":37.947434,"lng":71.566965,"addr":"","type":"mosque"},{"id":"xx369960_714733","name":"School #38","lat":36.996029,"lng":71.473289,"addr":"Barshor","type":"school"},{"id":"xx366481_713873","name":"Islamic place","lat":36.648148,"lng":71.387345,"addr":"","type":"yes"},{"id":"xx371085_705162","name":"Islamic place","lat":37.108502,"lng":70.516228,"addr":"","type":"school"},{"id":"xx371029_705479","name":"مسجد عبدالله ابن زبیر","lat":37.102907,"lng":70.547926,"addr":"","type":"mosque"},{"id":"xx371044_705508","name":"مسجد فاطمه الزهرا","lat":37.104379,"lng":70.550797,"addr":"","type":"mosque"},{"id":"xx353126_708680","name":"Islamic place","lat":35.312628,"lng":70.868017,"addr":"","type":"yes"},{"id":"xx371078_705531","name":"مسجد حضرت خبیب","lat":37.107824,"lng":70.553149,"addr":"","type":"mosque"},{"id":"xx370293_703745","name":"Islamic place","lat":37.029338,"lng":70.374521,"addr":"","type":"yes"},{"id":"xx370193_725794","name":"Islamic place","lat":37.019251,"lng":72.579404,"addr":"","type":"mosque"},{"id":"xx353999_714239","name":"Islamic place","lat":35.399901,"lng":71.42391,"addr":"","type":"yes"},{"id":"xx370547_726720","name":"Islamic place","lat":37.054748,"lng":72.672022,"addr":"","type":"mosque"},{"id":"xx370549_726740","name":"Islamic place","lat":37.054896,"lng":72.67397,"addr":"","type":"mosque"},{"id":"xx370539_726693","name":"Islamic place","lat":37.05391,"lng":72.66927,"addr":"","type":"mosque"},{"id":"xx356547_700567","name":"Islamic place","lat":35.654658,"lng":70.0567,"addr":"","type":"mosque"},{"id":"xx367066_715717","name":"مهمان خانه/مېلمستون","lat":36.706647,"lng":71.571737,"addr":"","type":"yes"},{"id":"xx384519_707904","name":"Islamic place","lat":38.451918,"lng":70.790373,"addr":"","type":"mosque"},{"id":"xx372312_741281","name":"Islamic place","lat":37.231158,"lng":74.128113,"addr":"","type":"mosque"},{"id":"xx371126_714457","name":"Islamic place","lat":37.112649,"lng":71.445728,"addr":"","type":"mosque"},{"id":"xx367502_719363","name":"Islamic place","lat":36.750218,"lng":71.936309,"addr":"","type":"mosque"},{"id":"xx366816_717914","name":"Islamic place","lat":36.681571,"lng":71.791373,"addr":"","type":"mosque"},{"id":"xx371484_739409","name":"Islamic place","lat":37.148421,"lng":73.940945,"addr":"","type":"mosque"},{"id":"xx369505_723185","name":"Islamic place","lat":36.950535,"lng":72.318483,"addr":"","type":"mosque"},{"id":"xx379102_713785","name":"Islamic place","lat":37.910191,"lng":71.378465,"addr":"","type":"mosque"},{"id":"xx379543_714869","name":"Islamic place","lat":37.954327,"lng":71.486895,"addr":"","type":"mosque"},{"id":"xx371079_705531","name":"مسجد حضرت خبیب","lat":37.107852,"lng":70.553137,"addr":"","type":"mosque"},{"id":"xx367067_715717","name":"مهمان خانه/مېلمستون","lat":36.706651,"lng":71.57172,"addr":"","type":"yes"},{"id":"xx366815_717912","name":"Islamic place","lat":36.681504,"lng":71.791246,"addr":"","type":"mosque"},{"id":"xx363107_746211","name":"Islamic place","lat":36.31068,"lng":74.621105,"addr":"","type":"place_of_worship"},{"id":"xx358460_717824","name":"Tablighi Markaz","lat":35.846024,"lng":71.78235,"addr":"","type":"place_of_worship"},{"id":"xx359343_743828","name":"Jamat Khana No.1 Darkhana","lat":35.934279,"lng":74.382844,"addr":"Sultanabad","type":"place_of_worship"},{"id":"xx357153_717698","name":"Islamic place","lat":35.715281,"lng":71.769818,"addr":"","type":"place_of_worship"},{"id":"xx360561_718150","name":"Madashil Graveyard","lat":36.056083,"lng":71.815032,"addr":"","type":"grave_yard"},{"id":"xx357982_716546","name":"Islamic place","lat":35.798153,"lng":71.654618,"addr":"","type":"place_of_worship"},{"id":"xx351266_720012","name":"Government School Katan","lat":35.126582,"lng":72.001219,"addr":"","type":"school"},{"id":"xx351277_719993","name":"KATAN Mosque","lat":35.127735,"lng":71.999304,"addr":"Katan","type":"place_of_worship"},{"id":"xx351321_720037","name":"Government School Katan","lat":35.132118,"lng":72.003747,"addr":"Katan Road","type":"school"},{"id":"xx360611_718190","name":"Islamic place","lat":36.061125,"lng":71.819004,"addr":"","type":"grave_yard"},{"id":"xx360613_718193","name":"Islamic place","lat":36.061341,"lng":71.8193,"addr":"","type":"grave_yard"},{"id":"xx350053_728916","name":"Masjid-E-Quba Sholgara-1","lat":35.005322,"lng":72.891604,"addr":"Kohistan","type":"place_of_worship"},{"id":"xx360933_740407","name":"central Jamatkhana","lat":36.093256,"lng":74.040691,"addr":"","type":"place_of_worship"},{"id":"xx360908_740423","name":"Jammah Masjid","lat":36.090795,"lng":74.042297,"addr":"","type":"place_of_worship"},{"id":"xx352028_718777","name":"دارالعلوم","lat":35.202844,"lng":71.877683,"addr":"","type":"place_of_worship"},{"id":"xx366492_748486","name":"Bibi Naikbakth Mosque","lat":36.64917,"lng":74.848629,"addr":"","type":"place_of_worship"},{"id":"xx350107_728874","name":"Jamia Masjid Sholgara","lat":35.010707,"lng":72.887388,"addr":"Kohistan","type":"place_of_worship"},{"id":"xx351704_725319","name":"مسجد بلال","lat":35.170434,"lng":72.531857,"addr":"","type":"place_of_worship"},{"id":"xx354285_729432","name":"Jamia Masjid Bagroo","lat":35.428456,"lng":72.943213,"addr":"bagrono1","type":"place_of_worship"},{"id":"xx359104_743358","name":"Masjid Al Abbas","lat":35.910415,"lng":74.335826,"addr":"Shahrah-e-Quaid-e-Azam","type":"place_of_worship"},{"id":"xx359169_743241","name":"Jamma Masjid Khulfa-e-Rashideen","lat":35.916911,"lng":74.324063,"addr":"ایئرپورٹ روڈ","type":"place_of_worship"},{"id":"xx359061_743374","name":"Masjid e Jaffria","lat":35.906065,"lng":74.337402,"addr":"","type":"place_of_worship"},{"id":"xx359211_743469","name":"مسجد توحید","lat":35.921144,"lng":74.346908,"addr":"","type":"place_of_worship"},{"id":"xx359423_743766","name":"Jamat Khana No2, Gutum","lat":35.942308,"lng":74.376634,"addr":"New Sultanabad University Road","type":"place_of_worship"},{"id":"xx359470_743744","name":"Jamat Khana No 3 Al Hadi","lat":35.94701,"lng":74.374375,"addr":"KKH Road","type":"place_of_worship"},{"id":"xx359571_743689","name":"Jamat Khana No 4, Glodas","lat":35.957104,"lng":74.368862,"addr":"Glodas","type":"place_of_worship"},{"id":"xx359101_743388","name":"Khomer Jamat Khana","lat":35.910084,"lng":74.338843,"addr":"شاہراہِ قائدِ اعظم","type":"place_of_worship"},{"id":"xx359011_743456","name":"Upper Jutial Jamat Khana","lat":35.901062,"lng":74.345596,"addr":"","type":"place_of_worship"},{"id":"xx359184_743480","name":"Sonikote Jamat Khana","lat":35.91837,"lng":74.347996,"addr":"","type":"place_of_worship"},{"id":"xx359219_743713","name":"Masjid","lat":35.921936,"lng":74.371255,"addr":"","type":"place_of_worship"},{"id":"xx358966_743685","name":"Jamia Masjid Faizan e Madina","lat":35.896575,"lng":74.368458,"addr":"","type":"place_of_worship"},{"id":"xx352216_726339","name":"Makki","lat":35.221609,"lng":72.633929,"addr":"","type":"place_of_worship"},{"id":"xx351244_725941","name":"Islamic place","lat":35.124382,"lng":72.59405,"addr":"","type":"place_of_worship"},{"id":"xx352055_739598","name":"Islamic place","lat":35.205468,"lng":73.959782,"addr":"","type":"yes"},{"id":"xx358556_717897","name":"جامع مسجد","lat":35.855645,"lng":71.789664,"addr":"","type":"mosque"},{"id":"xx359236_743073","name":"جامع مسجد اہلسنہ","lat":35.923554,"lng":74.307299,"addr":"","type":"mosque"},{"id":"xx359234_743098","name":"Islamic place","lat":35.92336,"lng":74.309836,"addr":"","type":"mosque"},{"id":"xx359232_743035","name":"مرکزی امامیہ مسجد جامعہ الشہید سید ضیاءالدینرضوی","lat":35.923224,"lng":74.303467,"addr":"گلگت","type":"mosque"},{"id":"xx359219_743092","name":"بیت الاحمدیہ","lat":35.921919,"lng":74.309195,"addr":"جماعت خانہ بازار","type":"yes"},{"id":"xx359222_743089","name":"اسماعیلی جماعت خانہ","lat":35.922178,"lng":74.308929,"addr":"گلگت","type":"yes"},{"id":"xx359194_743074","name":"امام بارگاہ","lat":35.919447,"lng":74.307376,"addr":"","type":"yes"},{"id":"xx359181_743189","name":"Islamic place","lat":35.918115,"lng":74.318888,"addr":"گلگت","type":"mosque"},{"id":"xx359114_743580","name":"Zulfiqarabad Jamat Khana","lat":35.91145,"lng":74.358003,"addr":"Jutial","type":"yes"},{"id":"xx359145_743570","name":"Imam Bargah","lat":35.914527,"lng":74.356971,"addr":"Naveed Shaheed Road Zulfiqarabad Sonikote","type":"yes"},{"id":"xx359117_743577","name":"Islamic place","lat":35.911724,"lng":74.357744,"addr":"","type":"mosque"},{"id":"xx359127_743611","name":"Masjid","lat":35.912697,"lng":74.361093,"addr":"Naveed Shaheed Road Zulfiqarabad Sonikote","type":"yes"},{"id":"xx359118_743639","name":"Prince Colony Jamat Khana","lat":35.911773,"lng":74.363893,"addr":"Prince Colony Jamat Khana Road","type":"yes"},{"id":"xx359823_718093","name":"Masjid zarokuru","lat":35.982255,"lng":71.80932,"addr":"","type":"mosque"},{"id":"xx359853_718134","name":"Masjid","lat":35.985305,"lng":71.813402,"addr":"chitral","type":"mosque"},{"id":"xx359972_715682","name":"Mosque Chirvill","lat":35.997194,"lng":71.568228,"addr":"Garamchashma Chirvill","type":"mosque"},{"id":"xx359470_743743","name":"Al-Hadi Jamat Khana","lat":35.947001,"lng":74.374339,"addr":"Sultanabad No. 03, Danyore","type":"yes"},{"id":"xx350267_724438","name":"Jamigh Masjid","lat":35.026678,"lng":72.44381,"addr":"village gul shah p/o durushkhela tehsil matta district swat","type":"yes"},{"id":"xx355686_724225","name":"Islamic place","lat":35.56863,"lng":72.422533,"addr":"","type":"yes"},{"id":"xx359110_743653","name":"Zufiqarabad Qabristan","lat":35.910989,"lng":74.365349,"addr":"","type":"mosque"},{"id":"xx360594_718177","name":"Madashil JK","lat":36.059389,"lng":71.817671,"addr":"","type":"yes"},{"id":"xx360420_718478","name":"Parsan Jamatkhana","lat":36.041977,"lng":71.847834,"addr":"","type":"yes"},{"id":"xx360606_718051","name":"Galeh Jamatkhana","lat":36.060616,"lng":71.805125,"addr":"","type":"yes"},{"id":"xx360607_718170","name":"Istorini JK","lat":36.060668,"lng":71.816968,"addr":"","type":"yes"},{"id":"xx360626_718170","name":"Madashil Masjid","lat":36.062636,"lng":71.817006,"addr":"","type":"yes"},{"id":"xx362947_716775","name":"Ovir Lasht Jamatkhana","lat":36.294693,"lng":71.67752,"addr":"","type":"yes"},{"id":"xx360664_718267","name":"Shah Jamatkhana","lat":36.066357,"lng":71.826677,"addr":"","type":"yes"},{"id":"xx360099_716688","name":"Mogh Neezh Jamatkhana","lat":36.009865,"lng":71.668818,"addr":"","type":"yes"},{"id":"xx360134_716555","name":"Mogh Jamatkhana","lat":36.013438,"lng":71.655517,"addr":"","type":"yes"},{"id":"xx360641_718226","name":"Islamic place","lat":36.064129,"lng":71.82262,"addr":"","type":"grave_yard"},{"id":"xx360568_718146","name":"Islamic place","lat":36.056821,"lng":71.814591,"addr":"","type":"grave_yard"},{"id":"xx360427_718475","name":"Hawli Saifuddin","lat":36.042722,"lng":71.84746,"addr":"","type":"yes"},{"id":"xx360516_717859","name":"Kherchum JK","lat":36.05164,"lng":71.785901,"addr":"","type":"yes"},{"id":"xx351497_729409","name":"Gaidru Masjid","lat":35.14972,"lng":72.940898,"addr":"","type":"yes"},{"id":"xx351485_729348","name":"Bhuien Masjid","lat":35.148512,"lng":72.934848,"addr":"","type":"yes"},{"id":"xx360992_718518","name":"Kiyar JK","lat":36.099237,"lng":71.851801,"addr":"","type":"yes"},{"id":"xx350098_728870","name":"Islamic place","lat":35.009767,"lng":72.886983,"addr":"Sholgara Kohistan","type":"grave_yard"},{"id":"xx363130_746311","name":"Dorkhan Jamatkhana","lat":36.313027,"lng":74.631098,"addr":"","type":"mosque"},{"id":"xx357205_748252","name":"Islamic place","lat":35.720508,"lng":74.825151,"addr":"","type":"yes"},{"id":"xx357244_748199","name":"Shengus Madrassa","lat":35.724379,"lng":74.819858,"addr":"","type":"mosque"},{"id":"xx357252_748172","name":"Shengus Imambargah","lat":35.725169,"lng":74.817205,"addr":"","type":"mosque"},{"id":"xx357250_748172","name":"Shengus Mosque","lat":35.725023,"lng":74.817177,"addr":"","type":"yes"},{"id":"xx355857_749909","name":"Ganji Imambara","lat":35.585746,"lng":74.990856,"addr":"","type":"mosque"},{"id":"xx358102_747403","name":"Shahtot Imambargah","lat":35.810157,"lng":74.740277,"addr":"","type":"mosque"},{"id":"xx357770_720311","name":"Madaklasht JK.2","lat":35.777006,"lng":72.03106,"addr":"","type":"yes"},{"id":"xx358556_717896","name":"جامع مسجد","lat":35.855617,"lng":71.78957,"addr":"","type":"mosque"},{"id":"xx359195_743074","name":"امام بارگاہ","lat":35.919461,"lng":74.307373,"addr":"","type":"yes"},{"id":"xx360594_718176","name":"Madashil JK","lat":36.059362,"lng":71.817645,"addr":"","type":"yes"},{"id":"xx360663_718267","name":"Shah Jamatkhana","lat":36.066319,"lng":71.826656,"addr":"","type":"yes"},{"id":"xx355857_749908","name":"Ganji Imambara","lat":35.585743,"lng":74.990818,"addr":"","type":"mosque"},{"id":"xx359177_743522","name":"Islamic place","lat":35.917727,"lng":74.352169,"addr":"Sonikote Qabristan Street","type":"grave_yard"},{"id":"xx359049_743505","name":"Islamic place","lat":35.904855,"lng":74.350487,"addr":"Riaz Road Upper Jutial","type":"grave_yard"},{"id":"xx351446_725350","name":"Islamic place","lat":35.144623,"lng":72.535036,"addr":"","type":"mosque"},{"id":"xx352336_747635","name":"jamia masjid chorit","lat":35.233623,"lng":74.763538,"addr":"","type":"yes"},{"id":"xx356939_716745","name":"Islamic place","lat":35.693888,"lng":71.674536,"addr":"Bamburait Valley Road","type":"mosque"},{"id":"xx356937_716749","name":"Islamic place","lat":35.693686,"lng":71.674944,"addr":"Bamburait Valley Road","type":"mosque"},{"id":"xx356920_716701","name":"Islamic place","lat":35.691996,"lng":71.670127,"addr":"Bamburait Valley","type":"mosque"},{"id":"xx356956_716782","name":"Islamic place","lat":35.695585,"lng":71.678221,"addr":"Bamburait Valley Road","type":"mosque"},{"id":"xx359127_743900","name":"Jamatkhan No 2 Princabad","lat":35.912739,"lng":74.389956,"addr":"Prince Abad Road","type":"yes"},{"id":"xx359051_743939","name":"JK # 6 Chashma Chowk","lat":35.905127,"lng":74.393888,"addr":"KKH-Jalalabad Road","type":"yes"},{"id":"xx359112_743974","name":"Jamatkhan No 12 Chandnichowk","lat":35.911166,"lng":74.397408,"addr":"Prince Abad Road","type":"yes"},{"id":"xx359197_743886","name":"Jamat Khana # 1 Baig Market","lat":35.919697,"lng":74.388632,"addr":"Baig Market","type":"yes"},{"id":"xx359149_743983","name":"Jamatkhana No 7","lat":35.914936,"lng":74.398277,"addr":"","type":"yes"},{"id":"xx359199_743991","name":"Jamatkhana No 13","lat":35.919929,"lng":74.399108,"addr":"","type":"yes"},{"id":"xx359280_743965","name":"Jamatkhana No 3 Chikaskot","lat":35.927961,"lng":74.396517,"addr":"Chikaskote","type":"yes"},{"id":"xx359209_743825","name":"Jamatkhana No 4","lat":35.920909,"lng":74.382475,"addr":"","type":"yes"},{"id":"xx359165_743775","name":"Jamatkhana No 8 Majokal","lat":35.916547,"lng":74.377488,"addr":"","type":"yes"},{"id":"xx356982_716833","name":"Islamic place","lat":35.698163,"lng":71.683346,"addr":"Bamburait Valley","type":"mosque"},{"id":"xx357000_716916","name":"Islamic place","lat":35.699964,"lng":71.691561,"addr":"","type":"mosque"},{"id":"xx357022_716988","name":"Islamic place","lat":35.702204,"lng":71.698781,"addr":"","type":"yes"},{"id":"xx357064_717056","name":"Islamic place","lat":35.706386,"lng":71.705619,"addr":"","type":"yes"},{"id":"xx357088_717029","name":"Islamic place","lat":35.708846,"lng":71.702934,"addr":"","type":"mosque"},{"id":"xx357159_717051","name":"Islamic place","lat":35.715936,"lng":71.70511,"addr":"","type":"mosque"},{"id":"xx357280_717114","name":"Islamic place","lat":35.728001,"lng":71.711363,"addr":"","type":"mosque"},{"id":"xx356876_716643","name":"Islamic place","lat":35.687613,"lng":71.664258,"addr":"","type":"mosque"},{"id":"xx356849_716612","name":"Islamic place","lat":35.684912,"lng":71.661235,"addr":"","type":"mosque"},{"id":"xx356663_716185","name":"Islamic place","lat":35.666293,"lng":71.618548,"addr":"","type":"mosque"},{"id":"xx356824_716473","name":"Islamic place","lat":35.682355,"lng":71.647273,"addr":"","type":"mosque"},{"id":"xx356848_716427","name":"Islamic place","lat":35.684773,"lng":71.642694,"addr":"","type":"mosque"},{"id":"xx356883_716716","name":"Islamic place","lat":35.688263,"lng":71.671614,"addr":"","type":"mosque"},{"id":"xx363064_746142","name":"Aga Khanabad Jamatkhana","lat":36.306412,"lng":74.614183,"addr":"","type":"yes"},{"id":"xx352190_748476","name":"al madina masjid shakuliyate bulashber gorikot astore gb","lat":35.219031,"lng":74.847616,"addr":"","type":"yes"},{"id":"xx352223_748008","name":"abu bakar masjid tarzay","lat":35.222255,"lng":74.800775,"addr":"","type":"yes"},{"id":"xx352075_748047","name":"khatmun nabiyeen SAW Dado sheri Het","lat":35.207467,"lng":74.804671,"addr":"","type":"yes"},{"id":"xx360523_741392","name":"Markazi Jama Masjid Bargo Bala, gilgit Pakistan","lat":36.052266,"lng":74.139157,"addr":"","type":"mosque"},{"id":"xx360510_741358","name":"Masjid e Abu-Talib Haideri Mohallah Bargo Bala","lat":36.050953,"lng":74.135826,"addr":"","type":"mosque"},{"id":"xx360785_741151","name":"Islamic place","lat":36.078542,"lng":74.115057,"addr":"Bargo Hoper","type":"yes"},{"id":"xx354177_740729","name":"Islamic place","lat":35.417727,"lng":74.072881,"addr":"","type":"mosque"},{"id":"xx354191_740862","name":"Islamic place","lat":35.419084,"lng":74.08617,"addr":"","type":"mosque"},{"id":"xx354144_741016","name":"Islamic place","lat":35.414373,"lng":74.101636,"addr":"","type":"yes"},{"id":"xx354189_740609","name":"Islamic place","lat":35.418884,"lng":74.060941,"addr":"","type":"mosque"},{"id":"xx354106_741062","name":"Islamic place","lat":35.410575,"lng":74.106195,"addr":"","type":"yes"},{"id":"xx354121_740988","name":"Islamic place","lat":35.412105,"lng":74.098849,"addr":"","type":"mosque"},{"id":"xx354159_740993","name":"Islamic place","lat":35.415877,"lng":74.09928,"addr":"","type":"yes"},{"id":"xx356345_734552","name":"Islamic place","lat":35.634491,"lng":73.455186,"addr":"تانگیر","type":"mosque"},{"id":"xx354153_741058","name":"Islamic place","lat":35.415266,"lng":74.105803,"addr":"","type":"yes"},{"id":"xx354199_740953","name":"Islamic place","lat":35.419914,"lng":74.095301,"addr":"","type":"yes"},{"id":"xx354243_740939","name":"Islamic place","lat":35.424278,"lng":74.093856,"addr":"","type":"yes"},{"id":"xx354232_740760","name":"Islamic place","lat":35.423233,"lng":74.075966,"addr":"","type":"mosque"},{"id":"xx359047_743505","name":"Islamic place","lat":35.904672,"lng":74.35048,"addr":"Riaz Road Upper Jutial","type":"grave_yard"},{"id":"xx359126_743899","name":"Jamatkhan No 2 Princabad","lat":35.912647,"lng":74.38994,"addr":"Prince Abad Road","type":"yes"},{"id":"xx359052_743938","name":"JK # 6 Chashma Chowk","lat":35.905154,"lng":74.39384,"addr":"KKH-Jalalabad Road","type":"yes"},{"id":"xx359112_743973","name":"Jamatkhan No 12 Chandnichowk","lat":35.911212,"lng":74.397323,"addr":"Prince Abad Road","type":"yes"},{"id":"xx359196_743886","name":"Jamat Khana # 1 Baig Market","lat":35.919649,"lng":74.388607,"addr":"Baig Market","type":"yes"},{"id":"xx359150_743982","name":"Jamatkhana No 7","lat":35.91499,"lng":74.398237,"addr":"","type":"yes"},{"id":"xx359279_743965","name":"Jamatkhana No 3 Chikaskot","lat":35.927914,"lng":74.396496,"addr":"Chikaskote","type":"yes"},{"id":"xx359209_743824","name":"Jamatkhana No 4","lat":35.920926,"lng":74.382415,"addr":"","type":"yes"},{"id":"xx359166_743775","name":"Jamatkhana No 8 Majokal","lat":35.916567,"lng":74.377462,"addr":"","type":"yes"},{"id":"xx357089_717029","name":"Islamic place","lat":35.708859,"lng":71.702928,"addr":"","type":"mosque"},{"id":"xx352075_748046","name":"khatmun nabiyeen SAW Dado sheri Het","lat":35.207458,"lng":74.804642,"addr":"","type":"yes"},{"id":"xx354105_741062","name":"Islamic place","lat":35.410533,"lng":74.106188,"addr":"","type":"yes"},{"id":"xx356345_734551","name":"Islamic place","lat":35.634465,"lng":73.45513,"addr":"تانگیر","type":"mosque"},{"id":"xx354233_740760","name":"Islamic place","lat":35.423273,"lng":74.075954,"addr":"","type":"mosque"},{"id":"xx399684_711274","name":"Inoyatulloh jome' masjidi","lat":39.968418,"lng":71.127414,"addr":"","type":"place_of_worship"},{"id":"xx399316_711700","name":"Qozi Ne'matullo jome' masjidi","lat":39.931558,"lng":71.170002,"addr":"","type":"place_of_worship"},{"id":"xx399334_711684","name":"Islamic place","lat":39.933431,"lng":71.168386,"addr":"","type":"mosque"},{"id":"xx399420_711559","name":"Islamic place","lat":39.942015,"lng":71.155865,"addr":"","type":"mosque"},{"id":"xx399505_711568","name":"Islamic place","lat":39.950466,"lng":71.156784,"addr":"","type":"mosque"},{"id":"xx399517_711337","name":"Qal'a MFY qabristoni","lat":39.951667,"lng":71.133689,"addr":"O'rda, Qal'a MFY","type":"mosque"},{"id":"xx399441_711379","name":"Islamic place","lat":39.944092,"lng":71.137901,"addr":"","type":"mosque"},{"id":"xx399391_711568","name":"Islamic place","lat":39.939085,"lng":71.156831,"addr":"","type":"mosque"},{"id":"xx399690_711501","name":"Islamic place","lat":39.968982,"lng":71.150052,"addr":"","type":"mosque"},{"id":"xx399006_710669","name":"Islamic place","lat":39.90056,"lng":71.066941,"addr":"","type":"mosque"},{"id":"xx399706_711318","name":"Islamic place","lat":39.970555,"lng":71.131837,"addr":"","type":"mosque"},{"id":"xx399389_712140","name":"Islamic place","lat":39.938924,"lng":71.213959,"addr":"","type":"mosque"},{"id":"xx399501_711266","name":"Islamic place","lat":39.950067,"lng":71.126574,"addr":"","type":"mosque"},{"id":"xx399250_712193","name":"Kaspedon masjidi","lat":39.925007,"lng":71.219296,"addr":"","type":"yes"},{"id":"xx399464_710916","name":"Masjid","lat":39.946361,"lng":71.091619,"addr":"","type":"mosque"},{"id":"xx399617_711322","name":"Masjid","lat":39.961668,"lng":71.13221,"addr":"","type":"mosque"},{"id":"xx399683_711494","name":"Masjid","lat":39.968332,"lng":71.149352,"addr":"","type":"mosque"},{"id":"xx399740_711421","name":"Masjid","lat":39.974028,"lng":71.142056,"addr":"","type":"mosque"},{"id":"xx399744_711336","name":"Masjid","lat":39.974439,"lng":71.133641,"addr":"","type":"mosque"},{"id":"xx399493_711282","name":"Davron hoji jome' masjidi","lat":39.949319,"lng":71.128212,"addr":"","type":"mosque"},{"id":"xx399463_711591","name":"Mirzo Qosim jome' masjidi","lat":39.946264,"lng":71.159148,"addr":"","type":"mosque"},{"id":"xx399495_711564","name":"Hoʻja Abdulqosim jome' masjidi","lat":39.949496,"lng":71.156382,"addr":"","type":"mosque"},{"id":"xx399445_711491","name":"Obidxon","lat":39.944476,"lng":71.149135,"addr":"","type":"yes"},{"id":"xx399405_711349","name":"Xazrat Ali jome' masjidi","lat":39.940451,"lng":71.134863,"addr":"","type":"mosque"},{"id":"xx399019_710634","name":"Tojmahal jome' masjidi","lat":39.901859,"lng":71.06341,"addr":"","type":"mosque"},{"id":"xx399735_710997","name":"Islamic place","lat":39.973472,"lng":71.099665,"addr":"","type":"mosque"},{"id":"xx399494_711964","name":"Islamic place","lat":39.949365,"lng":71.196408,"addr":"","type":"mosque"},{"id":"xx399498_711436","name":"Islamic place","lat":39.949755,"lng":71.143602,"addr":"","type":"mosque"},{"id":"xx399503_710983","name":"Islamic place","lat":39.950257,"lng":71.098345,"addr":"","type":"mosque"},{"id":"xx399060_712102","name":"Islamic place","lat":39.906,"lng":71.210249,"addr":"","type":"mosque"},{"id":"xx398978_710541","name":"Islamic place","lat":39.89785,"lng":71.05406,"addr":"","type":"yes"},{"id":"xx398944_710507","name":"Islamic place","lat":39.894385,"lng":71.050742,"addr":"","type":"yes"},{"id":"xx399421_711558","name":"Islamic place","lat":39.942057,"lng":71.155795,"addr":"","type":"mosque"},{"id":"xx399504_711568","name":"Islamic place","lat":39.950447,"lng":71.156778,"addr":"","type":"mosque"},{"id":"xx399391_711567","name":"Islamic place","lat":39.939105,"lng":71.156729,"addr":"","type":"mosque"},{"id":"xx399690_711500","name":"Islamic place","lat":39.969,"lng":71.150044,"addr":"","type":"mosque"},{"id":"xx399006_710668","name":"Islamic place","lat":39.900619,"lng":71.066842,"addr":"","type":"mosque"},{"id":"xx399389_712139","name":"Islamic place","lat":39.938908,"lng":71.213938,"addr":"","type":"mosque"},{"id":"xx399501_711264","name":"Islamic place","lat":39.950137,"lng":71.126448,"addr":"","type":"mosque"},{"id":"xx399740_711420","name":"Masjid","lat":39.974004,"lng":71.142045,"addr":"","type":"mosque"},{"id":"xx399494_711282","name":"Davron hoji jome' masjidi","lat":39.949365,"lng":71.128204,"addr":"","type":"mosque"},{"id":"xx399462_711591","name":"Mirzo Qosim jome' masjidi","lat":39.946243,"lng":71.159102,"addr":"","type":"mosque"},{"id":"xx399404_711348","name":"Xazrat Ali jome' masjidi","lat":39.940392,"lng":71.134826,"addr":"","type":"mosque"},{"id":"xx399733_710994","name":"Islamic place","lat":39.973256,"lng":71.099436,"addr":"","type":"mosque"},{"id":"xx399494_711962","name":"Islamic place","lat":39.949403,"lng":71.196212,"addr":"","type":"mosque"},{"id":"xx399503_710982","name":"Islamic place","lat":39.950308,"lng":71.098228,"addr":"","type":"mosque"},{"id":"xx399089_712160","name":"Islamic place","lat":39.908917,"lng":71.216039,"addr":"","type":"mosque"},{"id":"xx399097_712142","name":"Islamic place","lat":39.909698,"lng":71.214165,"addr":"","type":"mosque"},{"id":"xx399806_711003","name":"Islamic place","lat":39.980573,"lng":71.100258,"addr":"","type":"mosque"},{"id":"xx399203_712232","name":"Islamic place","lat":39.920335,"lng":71.223209,"addr":"","type":"mosque"},{"id":"xx399805_711002","name":"Islamic place","lat":39.98052,"lng":71.100241,"addr":"","type":"mosque"},{"id":"xx399203_712231","name":"Islamic place","lat":39.920291,"lng":71.223123,"addr":"","type":"mosque"},{"id":"xx397295_732476","name":"Islamic place","lat":39.729532,"lng":73.247636,"addr":"","type":"place_of_worship"},{"id":"xx399443_713281","name":"Islamic place","lat":39.944313,"lng":71.328127,"addr":"","type":"place_of_worship"},{"id":"xx399242_713030","name":"Islamic place","lat":39.924169,"lng":71.303046,"addr":"","type":"place_of_worship"},{"id":"xx399103_712365","name":"Islamic place","lat":39.910326,"lng":71.236468,"addr":"","type":"place_of_worship"},{"id":"xx399377_713430","name":"Islamic place","lat":39.937725,"lng":71.343011,"addr":"","type":"place_of_worship"},{"id":"xx399403_713573","name":"Islamic place","lat":39.940298,"lng":71.357343,"addr":"","type":"place_of_worship"},{"id":"xx399755_705698","name":"Масҷиди Сари Бозор","lat":39.975481,"lng":70.569827,"addr":"","type":"place_of_worship"},{"id":"xx399745_705677","name":"Масҷиди Сари Ҳисор","lat":39.974472,"lng":70.567651,"addr":"","type":"place_of_worship"},{"id":"xx399757_705647","name":"Масҷиди Чакалак","lat":39.97572,"lng":70.564717,"addr":"","type":"place_of_worship"},{"id":"xx399741_705622","name":"Масҷиди Қуруқи Миёна","lat":39.974084,"lng":70.562184,"addr":"","type":"place_of_worship"},{"id":"xx399729_705605","name":"Масҷиди Таги Сада","lat":39.97286,"lng":70.560545,"addr":"","type":"place_of_worship"},{"id":"xx399802_705619","name":"Масҷиди ҷомеи Хоҷи Устози Валӣ","lat":39.980243,"lng":70.561855,"addr":"","type":"place_of_worship"},{"id":"xx399743_705654","name":"Islamic place","lat":39.974267,"lng":70.565399,"addr":"","type":"grave_yard"},{"id":"xx399735_705764","name":"Масҷиди ҷомеи Ҳазрати Шоҳ","lat":39.973461,"lng":70.57642,"addr":"","type":"place_of_worship"},{"id":"xx399777_705896","name":"Islamic place","lat":39.977743,"lng":70.589577,"addr":"","type":"place_of_worship"},{"id":"xx399667_705601","name":"Islamic place","lat":39.966687,"lng":70.560072,"addr":"","type":"grave_yard"},{"id":"xx399689_705599","name":"Масҷиди Қуруқи Боло","lat":39.968858,"lng":70.559864,"addr":"","type":"place_of_worship"},{"id":"xx399832_705666","name":"Масҷиди Фирдавсӣ","lat":39.983193,"lng":70.566642,"addr":"","type":"place_of_worship"},{"id":"xx399677_705660","name":"Масҷиди Кунҷок","lat":39.967703,"lng":70.565969,"addr":"","type":"place_of_worship"},{"id":"xx399637_705657","name":"Масҷиди Қақир","lat":39.963749,"lng":70.565693,"addr":"","type":"place_of_worship"},{"id":"xx399709_734895","name":"Islamic place","lat":39.970861,"lng":73.489502,"addr":"","type":"mosque"},{"id":"xx399911_734926","name":"Islamic place","lat":39.991099,"lng":73.492621,"addr":"","type":"mosque"},{"id":"xx399616_729559","name":"Islamic place","lat":39.961644,"lng":72.955858,"addr":"","type":"place_of_worship"},{"id":"xx399623_717639","name":"Islamic place","lat":39.96226,"lng":71.763914,"addr":"","type":"yes"},{"id":"xx399745_705675","name":"Масҷиди панҷвақтаи маҳаллаи Сари Ҳисор","lat":39.974549,"lng":70.567544,"addr":"","type":"yes"},{"id":"xx399754_705698","name":"Масҷиди панҷвақтаи маҳаллаи Сари Бозор","lat":39.975427,"lng":70.569776,"addr":"","type":"yes"},{"id":"xx399733_705764","name":"Масҷиди ҷомеи Ҳазрати Шоҳ","lat":39.973345,"lng":70.576439,"addr":"","type":"yes"},{"id":"xx399753_705485","name":"Islamic place","lat":39.975318,"lng":70.548533,"addr":"","type":"yes"},{"id":"xx399804_705617","name":"Масҷиди ҷомеи Хоҷа Устози Валӣ","lat":39.980427,"lng":70.561746,"addr":"","type":"yes"},{"id":"xx399618_704928","name":"Islamic place","lat":39.961814,"lng":70.492788,"addr":"","type":"yes"},{"id":"xx399683_717777","name":"Yordon qabristoni","lat":39.96827,"lng":71.777748,"addr":"","type":"mosque"},{"id":"xx399829_718068","name":"Shohimardon qabristoni","lat":39.98293,"lng":71.806821,"addr":"","type":"mosque"},{"id":"xx399931_718043","name":"Hazrat Ali jome' masjidi","lat":39.99311,"lng":71.804318,"addr":"Shohimardon","type":"yes"},{"id":"xx396353_726653","name":"Islamic place","lat":39.635288,"lng":72.665333,"addr":"","type":"yes"},{"id":"xx396455_726652","name":"Islamic place","lat":39.645483,"lng":72.665151,"addr":"","type":"yes"},{"id":"xx398697_710231","name":"Islamic place","lat":39.869714,"lng":71.023085,"addr":"","type":"yes"},{"id":"xx398601_710128","name":"Islamic place","lat":39.860077,"lng":71.012753,"addr":"","type":"yes"},{"id":"xx398881_710449","name":"Islamic place","lat":39.888102,"lng":71.044867,"addr":"","type":"yes"},{"id":"xx399595_734785","name":"Islamic place","lat":39.959491,"lng":73.478531,"addr":"","type":"mosque"},{"id":"xx399616_704924","name":"Islamic place","lat":39.961632,"lng":70.492364,"addr":"","type":"mosque"},{"id":"xx396601_728817","name":"Islamic place","lat":39.660068,"lng":72.881736,"addr":"","type":"mosque"},{"id":"xx398869_734196","name":"Islamic place","lat":39.886944,"lng":73.419619,"addr":"","type":"mosque"},{"id":"xx399586_729532","name":"Islamic place","lat":39.95859,"lng":72.953161,"addr":"","type":"mosque"},{"id":"xx395329_721132","name":"Islamic place","lat":39.532854,"lng":72.11323,"addr":"","type":"mosque"},{"id":"xx396732_728892","name":"Alymseitov H","lat":39.673195,"lng":72.889209,"addr":"","type":"school"},{"id":"xx396731_728889","name":"Alymseitov H","lat":39.673074,"lng":72.888949,"addr":"","type":"school"},{"id":"xx399816_735502","name":"Islamic place","lat":39.98164,"lng":73.550172,"addr":"","type":"mosque"},{"id":"xx397140_729675","name":"Islamic place","lat":39.714029,"lng":72.967491,"addr":"","type":"mosque"},{"id":"xx396642_727419","name":"Islamic place","lat":39.664165,"lng":72.741916,"addr":"","type":"mosque"},{"id":"xx396186_726027","name":"Islamic place","lat":39.618636,"lng":72.602743,"addr":"","type":"mosque"},{"id":"xx395541_722701","name":"Islamic place","lat":39.554051,"lng":72.27007,"addr":"","type":"mosque"},{"id":"xx395549_721936","name":"Islamic place","lat":39.55493,"lng":72.193631,"addr":"","type":"mosque"},{"id":"xx395160_721864","name":"Islamic place","lat":39.515982,"lng":72.186379,"addr":"","type":"mosque"},{"id":"xx395649_720365","name":"Islamic place","lat":39.564919,"lng":72.036499,"addr":"","type":"mosque"},{"id":"xx395107_721112","name":"Islamic place","lat":39.510713,"lng":72.111206,"addr":"","type":"mosque"},{"id":"xx395085_720533","name":"Islamic place","lat":39.50854,"lng":72.053277,"addr":"","type":"mosque"},{"id":"xx394853_717984","name":"Islamic place","lat":39.485293,"lng":71.798378,"addr":"","type":"mosque"},{"id":"xx394956_719050","name":"Islamic place","lat":39.49558,"lng":71.905043,"addr":"","type":"mosque"},{"id":"xx395041_719078","name":"Islamic place","lat":39.504136,"lng":71.907832,"addr":"","type":"mosque"},{"id":"xx394978_719266","name":"Islamic place","lat":39.497822,"lng":71.926643,"addr":"","type":"mosque"},{"id":"xx394500_719210","name":"Islamic place","lat":39.449971,"lng":71.920999,"addr":"","type":"mosque"},{"id":"xx394938_717385","name":"Islamic place","lat":39.493774,"lng":71.738475,"addr":"","type":"mosque"},{"id":"xx399840_706486","name":"Islamic place","lat":39.984025,"lng":70.648637,"addr":"","type":"mosque"},{"id":"xx399497_704954","name":"Islamic place","lat":39.949689,"lng":70.495366,"addr":"","type":"mosque"},{"id":"xx399415_704670","name":"Islamic place","lat":39.941525,"lng":70.46703,"addr":"","type":"mosque"},{"id":"xx399949_705350","name":"Islamic place","lat":39.994917,"lng":70.535018,"addr":"","type":"mosque"},{"id":"xx399872_705347","name":"Islamic place","lat":39.987217,"lng":70.534715,"addr":"","type":"mosque"},{"id":"xx398897_701563","name":"Islamic place","lat":39.889722,"lng":70.156327,"addr":"","type":"mosque"},{"id":"xx398684_701690","name":"Islamic place","lat":39.868422,"lng":70.16901,"addr":"","type":"mosque"},{"id":"xx398513_700022","name":"Islamic place","lat":39.851335,"lng":70.002159,"addr":"","type":"mosque"},{"id":"xx398500_700038","name":"Islamic place","lat":39.849972,"lng":70.003767,"addr":"","type":"mosque"},{"id":"xx398685_700558","name":"Islamic place","lat":39.868454,"lng":70.055767,"addr":"","type":"mosque"},{"id":"xx398369_700333","name":"Islamic place","lat":39.836935,"lng":70.033255,"addr":"","type":"mosque"},{"id":"xx397545_700438","name":"Islamic place","lat":39.754507,"lng":70.043808,"addr":"","type":"mosque"},{"id":"xx398722_710173","name":"Islamic place","lat":39.872228,"lng":71.017321,"addr":"","type":"mosque"},{"id":"xx397751_710407","name":"Islamic place","lat":39.775056,"lng":71.040696,"addr":"","type":"mosque"},{"id":"xx397558_710150","name":"Islamic place","lat":39.755832,"lng":71.015036,"addr":"","type":"mosque"},{"id":"xx397679_709557","name":"Islamic place","lat":39.767927,"lng":70.95566,"addr":"","type":"mosque"},{"id":"xx397500_709127","name":"Islamic place","lat":39.750019,"lng":70.912745,"addr":"","type":"mosque"},{"id":"xx397301_709529","name":"Islamic place","lat":39.730088,"lng":70.952862,"addr":"","type":"mosque"},{"id":"xx396369_709635","name":"Islamic place","lat":39.636944,"lng":70.963507,"addr":"","type":"mosque"},{"id":"xx396380_709636","name":"Islamic place","lat":39.637954,"lng":70.963579,"addr":"","type":"mosque"},{"id":"xx399456_709168","name":"Islamic place","lat":39.945639,"lng":70.916843,"addr":"","type":"mosque"},{"id":"xx399426_712508","name":"Islamic place","lat":39.942608,"lng":71.250751,"addr":"","type":"mosque"},{"id":"xx399432_712555","name":"Islamic place","lat":39.94321,"lng":71.255527,"addr":"","type":"mosque"},{"id":"xx399396_712751","name":"Islamic place","lat":39.93959,"lng":71.275075,"addr":"","type":"mosque"},{"id":"xx399219_712431","name":"Islamic place","lat":39.92188,"lng":71.243123,"addr":"","type":"mosque"},{"id":"xx399126_712319","name":"Islamic place","lat":39.912602,"lng":71.231893,"addr":"","type":"mosque"},{"id":"xx399112_712375","name":"Islamic place","lat":39.911203,"lng":71.237452,"addr":"","type":"mosque"},{"id":"xx399555_712607","name":"Islamic place","lat":39.955455,"lng":71.260675,"addr":"","type":"mosque"},{"id":"xx399511_713267","name":"Islamic place","lat":39.951089,"lng":71.326718,"addr":"","type":"mosque"},{"id":"xx399588_712968","name":"Islamic place","lat":39.958801,"lng":71.296818,"addr":"","type":"mosque"},{"id":"xx399309_713300","name":"Islamic place","lat":39.930935,"lng":71.330013,"addr":"","type":"mosque"},{"id":"xx399299_713483","name":"Islamic place","lat":39.929923,"lng":71.348288,"addr":"","type":"mosque"},{"id":"xx399444_713501","name":"Islamic place","lat":39.944396,"lng":71.35006,"addr":"","type":"mosque"},{"id":"xx399269_712958","name":"Islamic place","lat":39.926924,"lng":71.295826,"addr":"","type":"mosque"},{"id":"xx399499_716678","name":"Islamic place","lat":39.949916,"lng":71.667777,"addr":"","type":"mosque"},{"id":"xx399511_713694","name":"Islamic place","lat":39.951134,"lng":71.369427,"addr":"","type":"mosque"},{"id":"xx399052_713320","name":"Islamic place","lat":39.905203,"lng":71.332048,"addr":"","type":"mosque"},{"id":"xx399034_712745","name":"Islamic place","lat":39.903395,"lng":71.274512,"addr":"","type":"mosque"},{"id":"xx398746_700328","name":"Islamic place","lat":39.87458,"lng":70.032828,"addr":"","type":"mosque"},{"id":"xx399978_714423","name":"Islamic place","lat":39.997757,"lng":71.442285,"addr":"","type":"mosque"},{"id":"xx399753_734844","name":"Islamic place","lat":39.975314,"lng":73.484396,"addr":"","type":"mosque"},{"id":"xx399219_734348","name":"Islamic place","lat":39.921905,"lng":73.4348,"addr":"","type":"mosque"},{"id":"xx398868_733193","name":"Islamic place","lat":39.886751,"lng":73.31927,"addr":"","type":"mosque"},{"id":"xx398175_732247","name":"Islamic place","lat":39.817544,"lng":73.224697,"addr":"","type":"mosque"},{"id":"xx398050_732329","name":"Islamic place","lat":39.805048,"lng":73.232944,"addr":"","type":"mosque"},{"id":"xx396886_731132","name":"Islamic place","lat":39.688554,"lng":73.113201,"addr":"","type":"mosque"},{"id":"xx396317_726443","name":"Islamic place","lat":39.63171,"lng":72.644267,"addr":"","type":"mosque"},{"id":"xx394815_724955","name":"Islamic place","lat":39.481457,"lng":72.495535,"addr":"","type":"mosque"},{"id":"xx395753_723928","name":"Islamic place","lat":39.575318,"lng":72.392753,"addr":"","type":"mosque"},{"id":"xx395565_720708","name":"Islamic place","lat":39.556489,"lng":72.070775,"addr":"","type":"mosque"},{"id":"xx394969_718745","name":"Islamic place","lat":39.496906,"lng":71.874474,"addr":"","type":"mosque"},{"id":"xx399830_718068","name":"Shohimardon qabristoni","lat":39.982971,"lng":71.806797,"addr":"","type":"mosque"},{"id":"xx396455_726651","name":"Islamic place","lat":39.645517,"lng":72.665132,"addr":"","type":"yes"},{"id":"xx399595_734784","name":"Islamic place","lat":39.959496,"lng":73.47844,"addr":"","type":"mosque"},{"id":"xx396599_728817","name":"Islamic place","lat":39.659946,"lng":72.881683,"addr":"","type":"mosque"},{"id":"xx399585_729530","name":"Islamic place","lat":39.958468,"lng":72.953025,"addr":"","type":"mosque"},{"id":"xx395328_721132","name":"Islamic place","lat":39.53285,"lng":72.11322,"addr":"","type":"mosque"},{"id":"xx396643_727419","name":"Islamic place","lat":39.6643,"lng":72.741853,"addr":"","type":"mosque"},{"id":"xx395542_722700","name":"Islamic place","lat":39.554197,"lng":72.270041,"addr":"","type":"mosque"},{"id":"xx395549_721935","name":"Islamic place","lat":39.554906,"lng":72.193459,"addr":"","type":"mosque"},{"id":"xx395159_721862","name":"Islamic place","lat":39.515927,"lng":72.186234,"addr":"","type":"mosque"},{"id":"xx395649_720364","name":"Islamic place","lat":39.564866,"lng":72.036376,"addr":"","type":"mosque"},{"id":"xx395106_721110","name":"Islamic place","lat":39.510553,"lng":72.11104,"addr":"","type":"mosque"},{"id":"xx395084_720529","name":"Islamic place","lat":39.508391,"lng":72.052935,"addr":"","type":"mosque"},{"id":"xx394854_717984","name":"Islamic place","lat":39.485415,"lng":71.798372,"addr":"","type":"mosque"},{"id":"xx394957_719050","name":"Islamic place","lat":39.495683,"lng":71.905008,"addr":"","type":"mosque"},{"id":"xx394937_717385","name":"Islamic place","lat":39.493706,"lng":71.738452,"addr":"","type":"mosque"},{"id":"xx399838_706480","name":"Islamic place","lat":39.983797,"lng":70.647986,"addr":"","type":"mosque"},{"id":"xx399495_704952","name":"Islamic place","lat":39.949547,"lng":70.495202,"addr":"","type":"mosque"},{"id":"xx399416_704670","name":"Islamic place","lat":39.941605,"lng":70.467012,"addr":"","type":"mosque"},{"id":"xx399948_705350","name":"Islamic place","lat":39.994792,"lng":70.534965,"addr":"","type":"mosque"},{"id":"xx399872_705346","name":"Islamic place","lat":39.987237,"lng":70.534608,"addr":"","type":"mosque"},{"id":"xx398897_701562","name":"Islamic place","lat":39.889664,"lng":70.15616,"addr":"","type":"mosque"},{"id":"xx398515_700021","name":"Islamic place","lat":39.85147,"lng":70.002068,"addr":"","type":"mosque"},{"id":"xx398499_700037","name":"Islamic place","lat":39.849909,"lng":70.00371,"addr":"","type":"mosque"},{"id":"xx398370_700331","name":"Islamic place","lat":39.837018,"lng":70.033136,"addr":"","type":"mosque"},{"id":"xx398723_710173","name":"Islamic place","lat":39.872266,"lng":71.017274,"addr":"","type":"mosque"},{"id":"xx397300_709528","name":"Islamic place","lat":39.730008,"lng":70.952809,"addr":"","type":"mosque"},{"id":"xx396368_709635","name":"Islamic place","lat":39.636819,"lng":70.963475,"addr":"","type":"mosque"},{"id":"xx399454_709167","name":"Islamic place","lat":39.945437,"lng":70.916731,"addr":"","type":"mosque"},{"id":"xx399426_712507","name":"Islamic place","lat":39.942639,"lng":71.25075,"addr":"","type":"mosque"},{"id":"xx399431_712555","name":"Islamic place","lat":39.943133,"lng":71.255505,"addr":"","type":"mosque"},{"id":"xx399112_712374","name":"Islamic place","lat":39.911232,"lng":71.237448,"addr":"","type":"mosque"},{"id":"xx399556_712605","name":"Islamic place","lat":39.955594,"lng":71.26052,"addr":"","type":"mosque"},{"id":"xx399511_713265","name":"Islamic place","lat":39.951128,"lng":71.326523,"addr":"","type":"mosque"},{"id":"xx399587_712968","name":"Islamic place","lat":39.958705,"lng":71.296806,"addr":"","type":"mosque"},{"id":"xx399309_713299","name":"Islamic place","lat":39.930863,"lng":71.329925,"addr":"","type":"mosque"},{"id":"xx399299_713482","name":"Islamic place","lat":39.929908,"lng":71.348215,"addr":"","type":"mosque"},{"id":"xx399270_712958","name":"Islamic place","lat":39.926962,"lng":71.295815,"addr":"","type":"mosque"},{"id":"xx399499_716676","name":"Islamic place","lat":39.949899,"lng":71.66762,"addr":"","type":"mosque"},{"id":"xx399512_713692","name":"Islamic place","lat":39.951231,"lng":71.369202,"addr":"","type":"mosque"},{"id":"xx399033_712745","name":"Islamic place","lat":39.903339,"lng":71.274509,"addr":"","type":"mosque"},{"id":"xx399219_734347","name":"Islamic place","lat":39.921913,"lng":73.434684,"addr":"","type":"mosque"},{"id":"xx398867_733192","name":"Islamic place","lat":39.886707,"lng":73.31921,"addr":"","type":"mosque"},{"id":"xx398175_732245","name":"Islamic place","lat":39.81749,"lng":73.224524,"addr":"","type":"mosque"},{"id":"xx398051_732328","name":"Islamic place","lat":39.80508,"lng":73.232769,"addr":"","type":"mosque"},{"id":"xx396886_731131","name":"Islamic place","lat":39.688594,"lng":73.113091,"addr":"","type":"mosque"},{"id":"xx394816_724952","name":"Islamic place","lat":39.481566,"lng":72.495248,"addr":"","type":"mosque"},{"id":"xx395755_723926","name":"Islamic place","lat":39.575488,"lng":72.392637,"addr":"","type":"mosque"},{"id":"xx394969_718743","name":"Islamic place","lat":39.496877,"lng":71.87433,"addr":"","type":"mosque"},{"id":"xx399801_709911","name":"Islamic place","lat":39.98015,"lng":70.991064,"addr":"","type":"mosque"},{"id":"xx399802_709911","name":"Islamic place","lat":39.980161,"lng":70.991062,"addr":"","type":"mosque"},{"id":"xx374889_715498","name":"Остун","lat":37.488882,"lng":71.549836,"addr":"","type":"place_of_worship"},{"id":"xx390299_703784","name":"Islamic place","lat":39.029948,"lng":70.378392,"addr":"","type":"place_of_worship"},{"id":"xx374925_715694","name":"место поклонения","lat":37.492465,"lng":71.569411,"addr":"Г ВАРКА","type":"place_of_worship"},{"id":"xx378408_700486","name":"Islamic place","lat":37.840788,"lng":70.048637,"addr":"","type":"place_of_worship"},{"id":"xx383080_700266","name":"Islamic place","lat":38.30796,"lng":70.026632,"addr":"","type":"place_of_worship"},{"id":"xx387167_706502","name":"Islamic place","lat":38.716677,"lng":70.650222,"addr":"","type":"place_of_worship"},{"id":"xx384207_701528","name":"Ziyoratgoh Zelolak","lat":38.420726,"lng":70.152807,"addr":"","type":"place_of_worship"},{"id":"xx386882_713696","name":"Islamic place","lat":38.688185,"lng":71.36963,"addr":"","type":"place_of_worship"},{"id":"xx391551_716983","name":"Султан-мазар","lat":39.155098,"lng":71.698322,"addr":"","type":"mosque"},{"id":"xx391686_724468","name":"Суякмазар","lat":39.168602,"lng":72.44685,"addr":"","type":"place_of_worship"},{"id":"xx391174_708420","name":"Islamic place","lat":39.117366,"lng":70.841975,"addr":"","type":"place_of_worship"},{"id":"xx388023_702193","name":"Islamic place","lat":38.802343,"lng":70.219269,"addr":"","type":"place_of_worship"},{"id":"xx374892_715451","name":"Ҷамоатхонаи Исмоилия","lat":37.489193,"lng":71.545061,"addr":"","type":"place_of_worship"},{"id":"xx374892_715452","name":"Маркази Исмоилия","lat":37.489191,"lng":71.545221,"addr":"","type":"community_centre"},{"id":"xx381550_739655","name":"Islamic place","lat":38.154994,"lng":73.965528,"addr":"","type":"place_of_worship"},{"id":"xx383734_714593","name":"Islamic place","lat":38.373392,"lng":71.459296,"addr":"","type":"place_of_worship"},{"id":"xx374906_715452","name":"ITREB","lat":37.490634,"lng":71.545166,"addr":"","type":"yes"},{"id":"xx381705_739726","name":"Islamic place","lat":38.170514,"lng":73.972621,"addr":"","type":"yes"},{"id":"xx384861_743803","name":"Islamic place","lat":38.486142,"lng":74.380259,"addr":"","type":"yes"},{"id":"xx390130_735580","name":"Islamic place","lat":39.013002,"lng":73.557988,"addr":"","type":"mosque"},{"id":"xx387171_706498","name":"Islamic place","lat":38.717142,"lng":70.649786,"addr":"","type":"residential"},{"id":"xx381785_739760","name":"Islamic place","lat":38.178485,"lng":73.976041,"addr":"","type":"yes"},{"id":"xx381044_700217","name":"Majid","lat":38.104441,"lng":70.021711,"addr":"","type":"mosque"},{"id":"xx381076_700589","name":"Graveyard","lat":38.107575,"lng":70.058928,"addr":"","type":"grave_yard"},{"id":"xx381133_700320","name":"Islamic place","lat":38.113326,"lng":70.032013,"addr":"","type":"mosque"},{"id":"xx381043_700343","name":"Islamic place","lat":38.104345,"lng":70.034329,"addr":"","type":"mosque"},{"id":"xx392210_711998","name":"Islamic place","lat":39.221019,"lng":71.199844,"addr":"","type":"yes"},{"id":"xx382079_740298","name":"Бек-Джол","lat":38.207859,"lng":74.029813,"addr":"","type":"mosque"},{"id":"xx389743_705317","name":"Мазори Ҳазрати Фолума","lat":38.974255,"lng":70.531697,"addr":"","type":"mosque"},{"id":"xx394319_700080","name":"Islamic place","lat":39.43187,"lng":70.007976,"addr":"","type":"mosque"},{"id":"xx394332_700077","name":"Islamic place","lat":39.4332,"lng":70.00769,"addr":"","type":"mosque"},{"id":"xx394321_700058","name":"Islamic place","lat":39.432097,"lng":70.005841,"addr":"","type":"mosque"},{"id":"xx380641_718801","name":"Islamic place","lat":38.064101,"lng":71.880056,"addr":"","type":"mosque"},{"id":"xx386825_719684","name":"Mazor","lat":38.682541,"lng":71.968438,"addr":"","type":"mosque"},{"id":"xx392430_700426","name":"Мазори Шаҳидҳо","lat":39.242971,"lng":70.042636,"addr":"","type":"mosque"},{"id":"xx390584_702049","name":"Islamic place","lat":39.058368,"lng":70.204916,"addr":"","type":"yes"},{"id":"xx387867_703012","name":"Islamic place","lat":38.786669,"lng":70.301227,"addr":"","type":"mosque"},{"id":"xx391503_701874","name":"Islamic place","lat":39.15025,"lng":70.187436,"addr":"","type":"mosque"},{"id":"xx390094_701583","name":"Islamic place","lat":39.009428,"lng":70.158287,"addr":"","type":"mosque"},{"id":"xx376509_717770","name":"cemeteries fizelen","lat":37.650882,"lng":71.777004,"addr":"","type":"mosque"},{"id":"xx376532_717783","name":"Cemeteries Shashoen","lat":37.6532,"lng":71.77825,"addr":"","type":"mosque"},{"id":"xx376523_717779","name":"the cemetery of descendants of Kuvatbekovs","lat":37.652346,"lng":71.77785,"addr":"","type":"mosque"},{"id":"xx391004_708407","name":"Islamic place","lat":39.10035,"lng":70.840675,"addr":"","type":"mosque"},{"id":"xx392070_710122","name":"Islamic place","lat":39.206963,"lng":71.012208,"addr":"","type":"mosque"},{"id":"xx392070_710121","name":"Мазор","lat":39.206973,"lng":71.012123,"addr":"","type":"mosque"},{"id":"xx385278_716958","name":"Islamic place","lat":38.527786,"lng":71.695808,"addr":"","type":"mosque"},{"id":"xx390994_700822","name":"Islamic place","lat":39.099369,"lng":70.082248,"addr":"","type":"mosque"},{"id":"xx380046_718313","name":"Islamic place","lat":38.004626,"lng":71.831332,"addr":"","type":"mosque"},{"id":"xx380402_718634","name":"Islamic place","lat":38.040224,"lng":71.86336,"addr":"","type":"mosque"},{"id":"xx380625_718771","name":"Islamic place","lat":38.062547,"lng":71.877145,"addr":"","type":"mosque"},{"id":"xx387986_702061","name":"Islamic place","lat":38.798645,"lng":70.206129,"addr":"","type":"mosque"},{"id":"xx377474_732514","name":"Islamic place","lat":37.747401,"lng":73.251365,"addr":"","type":"mosque"},{"id":"xx380272_733134","name":"Islamic place","lat":38.027231,"lng":73.313394,"addr":"","type":"mosque"},{"id":"xx377035_729490","name":"Islamic place","lat":37.703526,"lng":72.94898,"addr":"","type":"mosque"},{"id":"xx387929_711429","name":"Islamic place","lat":38.792919,"lng":71.142931,"addr":"","type":"mosque"},{"id":"xx381286_722088","name":"Islamic place","lat":38.128626,"lng":72.208756,"addr":"","type":"mosque"},{"id":"xx381145_721806","name":"Islamic place","lat":38.114468,"lng":72.180576,"addr":"","type":"mosque"},{"id":"xx382078_740298","name":"Бек-Джол","lat":38.207835,"lng":74.029769,"addr":"","type":"mosque"},{"id":"xx391502_701874","name":"Islamic place","lat":39.150156,"lng":70.187379,"addr":"","type":"mosque"},{"id":"xx376532_717782","name":"Cemeteries Shashoen","lat":37.653237,"lng":71.778231,"addr":"","type":"mosque"},{"id":"xx376524_717778","name":"the cemetery of descendants of Kuvatbekovs","lat":37.652359,"lng":71.77783,"addr":"","type":"mosque"},{"id":"xx391001_708404","name":"Islamic place","lat":39.100059,"lng":70.84037,"addr":"","type":"mosque"},{"id":"xx380626_718771","name":"Islamic place","lat":38.06256,"lng":71.877103,"addr":"","type":"mosque"},{"id":"xx377474_732513","name":"Islamic place","lat":37.747373,"lng":73.251327,"addr":"","type":"mosque"},{"id":"xx380272_733133","name":"Islamic place","lat":38.027158,"lng":73.313312,"addr":"","type":"mosque"},{"id":"xx381285_722087","name":"Islamic place","lat":38.128541,"lng":72.208672,"addr":"","type":"mosque"}]