[{"id":"xx367970_719979","name":"Ostoni Piri Foqmamad","lat":36.797026,"lng":71.997936,"addr":"","type":"mosque"},{"id":"xx370532_726783","name":"Mазар","lat":37.053215,"lng":72.678307,"addr":"","type":"place_of_worship"},{"id":"xx360817_700132","name":"Islamic place","lat":36.081691,"lng":70.013243,"addr":"","type":"place_of_worship"},{"id":"xx360850_700267","name":"Islamic place","lat":36.085029,"lng":70.026696,"addr":"","type":"place_of_worship"},{"id":"xx365597_703631","name":"Islamic place","lat":36.559699,"lng":70.363088,"addr":"","type":"place_of_worship"},{"id":"xx373686_703654","name":"مسجدجامع","lat":37.368642,"lng":70.365414,"addr":"یفتل‌پایان","type":"place_of_worship"},{"id":"xx371402_740100","name":"Islamic place","lat":37.140184,"lng":74.009965,"addr":"","type":"mosque"},{"id":"xx371870_740296","name":"Islamic place","lat":37.187049,"lng":74.029564,"addr":"","type":"mosque"},{"id":"xx372295_741292","name":"Islamic place","lat":37.229538,"lng":74.129157,"addr":"","type":"mosque"},{"id":"xx372604_729960","name":"Islamic place","lat":37.260438,"lng":72.996004,"addr":"","type":"mosque"},{"id":"xx371093_705616","name":"مسجد سلمان فارس","lat":37.109281,"lng":70.561579,"addr":"","type":"yes"},{"id":"xx371160_705672","name":"Islamic place","lat":37.115991,"lng":70.567231,"addr":"","type":"yes"},{"id":"xx379529_715588","name":"Shotolib","lat":37.952878,"lng":71.558848,"addr":"","type":"mosque"},{"id":"xx379102_713786","name":"Islamic place","lat":37.910247,"lng":71.378615,"addr":"","type":"mosque"},{"id":"xx379543_714870","name":"Islamic place","lat":37.954313,"lng":71.486983,"addr":"","type":"mosque"},{"id":"xx379474_715670","name":"Old cemetery","lat":37.947434,"lng":71.566965,"addr":"","type":"mosque"},{"id":"xx369960_714733","name":"School #38","lat":36.996029,"lng":71.473289,"addr":"Barshor","type":"school"},{"id":"xx366481_713873","name":"Islamic place","lat":36.648148,"lng":71.387345,"addr":"","type":"yes"},{"id":"xx371085_705162","name":"Islamic place","lat":37.108502,"lng":70.516228,"addr":"","type":"school"},{"id":"xx371029_705479","name":"مسجد عبدالله ابن زبیر","lat":37.102907,"lng":70.547926,"addr":"","type":"mosque"},{"id":"xx371044_705508","name":"مسجد فاطمه الزهرا","lat":37.104379,"lng":70.550797,"addr":"","type":"mosque"},{"id":"xx353126_708680","name":"Islamic place","lat":35.312628,"lng":70.868017,"addr":"","type":"yes"},{"id":"xx371078_705531","name":"مسجد حضرت خبیب","lat":37.107824,"lng":70.553149,"addr":"","type":"mosque"},{"id":"xx370293_703745","name":"Islamic place","lat":37.029338,"lng":70.374521,"addr":"","type":"yes"},{"id":"xx370193_725794","name":"Islamic place","lat":37.019251,"lng":72.579404,"addr":"","type":"mosque"},{"id":"xx353999_714239","name":"Islamic place","lat":35.399901,"lng":71.42391,"addr":"","type":"yes"},{"id":"xx370547_726720","name":"Islamic place","lat":37.054748,"lng":72.672022,"addr":"","type":"mosque"},{"id":"xx370549_726740","name":"Islamic place","lat":37.054896,"lng":72.67397,"addr":"","type":"mosque"},{"id":"xx370539_726693","name":"Islamic place","lat":37.05391,"lng":72.66927,"addr":"","type":"mosque"},{"id":"xx356547_700567","name":"Islamic place","lat":35.654658,"lng":70.0567,"addr":"","type":"mosque"},{"id":"xx367066_715717","name":"مهمان خانه/مېلمستون","lat":36.706647,"lng":71.571737,"addr":"","type":"yes"},{"id":"xx384519_707904","name":"Islamic place","lat":38.451918,"lng":70.790373,"addr":"","type":"mosque"},{"id":"xx372312_741281","name":"Islamic place","lat":37.231158,"lng":74.128113,"addr":"","type":"mosque"},{"id":"xx371126_714457","name":"Islamic place","lat":37.112649,"lng":71.445728,"addr":"","type":"mosque"},{"id":"xx367502_719363","name":"Islamic place","lat":36.750218,"lng":71.936309,"addr":"","type":"mosque"},{"id":"xx366816_717914","name":"Islamic place","lat":36.681571,"lng":71.791373,"addr":"","type":"mosque"},{"id":"xx371484_739409","name":"Islamic place","lat":37.148421,"lng":73.940945,"addr":"","type":"mosque"},{"id":"xx369505_723185","name":"Islamic place","lat":36.950535,"lng":72.318483,"addr":"","type":"mosque"},{"id":"xx379102_713785","name":"Islamic place","lat":37.910191,"lng":71.378465,"addr":"","type":"mosque"},{"id":"xx379543_714869","name":"Islamic place","lat":37.954327,"lng":71.486895,"addr":"","type":"mosque"},{"id":"xx371079_705531","name":"مسجد حضرت خبیب","lat":37.107852,"lng":70.553137,"addr":"","type":"mosque"},{"id":"xx367067_715717","name":"مهمان خانه/مېلمستون","lat":36.706651,"lng":71.57172,"addr":"","type":"yes"},{"id":"xx366815_717912","name":"Islamic place","lat":36.681504,"lng":71.791246,"addr":"","type":"mosque"},{"id":"xx363107_746211","name":"Islamic place","lat":36.31068,"lng":74.621105,"addr":"","type":"place_of_worship"},{"id":"xx358460_717824","name":"Tablighi Markaz","lat":35.846024,"lng":71.78235,"addr":"","type":"place_of_worship"},{"id":"xx359343_743828","name":"Jamat Khana No.1 Darkhana","lat":35.934279,"lng":74.382844,"addr":"Sultanabad","type":"place_of_worship"},{"id":"xx357153_717698","name":"Islamic place","lat":35.715281,"lng":71.769818,"addr":"","type":"place_of_worship"},{"id":"xx360561_718150","name":"Madashil Graveyard","lat":36.056083,"lng":71.815032,"addr":"","type":"grave_yard"},{"id":"xx357982_716546","name":"Islamic place","lat":35.798153,"lng":71.654618,"addr":"","type":"place_of_worship"},{"id":"xx351266_720012","name":"Government School Katan","lat":35.126582,"lng":72.001219,"addr":"","type":"school"},{"id":"xx351277_719993","name":"KATAN Mosque","lat":35.127735,"lng":71.999304,"addr":"Katan","type":"place_of_worship"},{"id":"xx351321_720037","name":"Government School Katan","lat":35.132118,"lng":72.003747,"addr":"Katan Road","type":"school"},{"id":"xx360611_718190","name":"Islamic place","lat":36.061125,"lng":71.819004,"addr":"","type":"grave_yard"},{"id":"xx360613_718193","name":"Islamic place","lat":36.061341,"lng":71.8193,"addr":"","type":"grave_yard"},{"id":"xx350053_728916","name":"Masjid-E-Quba Sholgara-1","lat":35.005322,"lng":72.891604,"addr":"Kohistan","type":"place_of_worship"},{"id":"xx360933_740407","name":"central Jamatkhana","lat":36.093256,"lng":74.040691,"addr":"","type":"place_of_worship"},{"id":"xx360908_740423","name":"Jammah Masjid","lat":36.090795,"lng":74.042297,"addr":"","type":"place_of_worship"},{"id":"xx352028_718777","name":"دارالعلوم","lat":35.202844,"lng":71.877683,"addr":"","type":"place_of_worship"},{"id":"xx366492_748486","name":"Bibi Naikbakth Mosque","lat":36.64917,"lng":74.848629,"addr":"","type":"place_of_worship"},{"id":"xx350107_728874","name":"Jamia Masjid Sholgara","lat":35.010707,"lng":72.887388,"addr":"Kohistan","type":"place_of_worship"},{"id":"xx351704_725319","name":"مسجد بلال","lat":35.170434,"lng":72.531857,"addr":"","type":"place_of_worship"},{"id":"xx354285_729432","name":"Jamia Masjid Bagroo","lat":35.428456,"lng":72.943213,"addr":"bagrono1","type":"place_of_worship"},{"id":"xx359104_743358","name":"Masjid Al Abbas","lat":35.910415,"lng":74.335826,"addr":"Shahrah-e-Quaid-e-Azam","type":"place_of_worship"},{"id":"xx359169_743241","name":"Jamma Masjid Khulfa-e-Rashideen","lat":35.916911,"lng":74.324063,"addr":"ایئرپورٹ روڈ","type":"place_of_worship"},{"id":"xx359061_743374","name":"Masjid e Jaffria","lat":35.906065,"lng":74.337402,"addr":"","type":"place_of_worship"},{"id":"xx359211_743469","name":"مسجد توحید","lat":35.921144,"lng":74.346908,"addr":"","type":"place_of_worship"},{"id":"xx359423_743766","name":"Jamat Khana No2, Gutum","lat":35.942308,"lng":74.376634,"addr":"New Sultanabad University Road","type":"place_of_worship"},{"id":"xx359470_743744","name":"Jamat Khana No 3 Al Hadi","lat":35.94701,"lng":74.374375,"addr":"KKH Road","type":"place_of_worship"},{"id":"xx359571_743689","name":"Jamat Khana No 4, Glodas","lat":35.957104,"lng":74.368862,"addr":"Glodas","type":"place_of_worship"},{"id":"xx359101_743388","name":"Khomer Jamat Khana","lat":35.910084,"lng":74.338843,"addr":"شاہراہِ قائدِ اعظم","type":"place_of_worship"},{"id":"xx359011_743456","name":"Upper Jutial Jamat Khana","lat":35.901062,"lng":74.345596,"addr":"","type":"place_of_worship"},{"id":"xx359184_743480","name":"Sonikote Jamat Khana","lat":35.91837,"lng":74.347996,"addr":"","type":"place_of_worship"},{"id":"xx359219_743713","name":"Masjid","lat":35.921936,"lng":74.371255,"addr":"","type":"place_of_worship"},{"id":"xx358966_743685","name":"Jamia Masjid Faizan e Madina","lat":35.896575,"lng":74.368458,"addr":"","type":"place_of_worship"},{"id":"xx352216_726339","name":"Makki","lat":35.221609,"lng":72.633929,"addr":"","type":"place_of_worship"},{"id":"xx351244_725941","name":"Islamic place","lat":35.124382,"lng":72.59405,"addr":"","type":"place_of_worship"},{"id":"xx352055_739598","name":"Islamic place","lat":35.205468,"lng":73.959782,"addr":"","type":"yes"},{"id":"xx358556_717897","name":"جامع مسجد","lat":35.855645,"lng":71.789664,"addr":"","type":"mosque"},{"id":"xx359236_743073","name":"جامع مسجد اہلسنہ","lat":35.923554,"lng":74.307299,"addr":"","type":"mosque"},{"id":"xx359234_743098","name":"Islamic place","lat":35.92336,"lng":74.309836,"addr":"","type":"mosque"},{"id":"xx359232_743035","name":"مرکزی امامیہ مسجد جامعہ الشہید سید ضیاءالدینرضوی","lat":35.923224,"lng":74.303467,"addr":"گلگت","type":"mosque"},{"id":"xx359219_743092","name":"بیت الاحمدیہ","lat":35.921919,"lng":74.309195,"addr":"جماعت خانہ بازار","type":"yes"},{"id":"xx359222_743089","name":"اسماعیلی جماعت خانہ","lat":35.922178,"lng":74.308929,"addr":"گلگت","type":"yes"},{"id":"xx359194_743074","name":"امام بارگاہ","lat":35.919447,"lng":74.307376,"addr":"","type":"yes"},{"id":"xx359181_743189","name":"Islamic place","lat":35.918115,"lng":74.318888,"addr":"گلگت","type":"mosque"},{"id":"xx359114_743580","name":"Zulfiqarabad Jamat Khana","lat":35.91145,"lng":74.358003,"addr":"Jutial","type":"yes"},{"id":"xx359145_743570","name":"Imam Bargah","lat":35.914527,"lng":74.356971,"addr":"Naveed Shaheed Road Zulfiqarabad Sonikote","type":"yes"},{"id":"xx359117_743577","name":"Islamic place","lat":35.911724,"lng":74.357744,"addr":"","type":"mosque"},{"id":"xx359127_743611","name":"Masjid","lat":35.912697,"lng":74.361093,"addr":"Naveed Shaheed Road Zulfiqarabad Sonikote","type":"yes"},{"id":"xx359118_743639","name":"Prince Colony Jamat Khana","lat":35.911773,"lng":74.363893,"addr":"Prince Colony Jamat Khana Road","type":"yes"},{"id":"xx359823_718093","name":"Masjid zarokuru","lat":35.982255,"lng":71.80932,"addr":"","type":"mosque"},{"id":"xx359853_718134","name":"Masjid","lat":35.985305,"lng":71.813402,"addr":"chitral","type":"mosque"},{"id":"xx359972_715682","name":"Mosque Chirvill","lat":35.997194,"lng":71.568228,"addr":"Garamchashma Chirvill","type":"mosque"},{"id":"xx359470_743743","name":"Al-Hadi Jamat Khana","lat":35.947001,"lng":74.374339,"addr":"Sultanabad No. 03, Danyore","type":"yes"},{"id":"xx350267_724438","name":"Jamigh Masjid","lat":35.026678,"lng":72.44381,"addr":"village gul shah p/o durushkhela tehsil matta district swat","type":"yes"},{"id":"xx355686_724225","name":"Islamic place","lat":35.56863,"lng":72.422533,"addr":"","type":"yes"},{"id":"xx359110_743653","name":"Zufiqarabad Qabristan","lat":35.910989,"lng":74.365349,"addr":"","type":"mosque"},{"id":"xx360594_718177","name":"Madashil JK","lat":36.059389,"lng":71.817671,"addr":"","type":"yes"},{"id":"xx360420_718478","name":"Parsan Jamatkhana","lat":36.041977,"lng":71.847834,"addr":"","type":"yes"},{"id":"xx360606_718051","name":"Galeh Jamatkhana","lat":36.060616,"lng":71.805125,"addr":"","type":"yes"},{"id":"xx360607_718170","name":"Istorini JK","lat":36.060668,"lng":71.816968,"addr":"","type":"yes"},{"id":"xx360626_718170","name":"Madashil Masjid","lat":36.062636,"lng":71.817006,"addr":"","type":"yes"},{"id":"xx362947_716775","name":"Ovir Lasht Jamatkhana","lat":36.294693,"lng":71.67752,"addr":"","type":"yes"},{"id":"xx360664_718267","name":"Shah Jamatkhana","lat":36.066357,"lng":71.826677,"addr":"","type":"yes"},{"id":"xx360099_716688","name":"Mogh Neezh Jamatkhana","lat":36.009865,"lng":71.668818,"addr":"","type":"yes"},{"id":"xx360134_716555","name":"Mogh Jamatkhana","lat":36.013438,"lng":71.655517,"addr":"","type":"yes"},{"id":"xx360641_718226","name":"Islamic place","lat":36.064129,"lng":71.82262,"addr":"","type":"grave_yard"},{"id":"xx360568_718146","name":"Islamic place","lat":36.056821,"lng":71.814591,"addr":"","type":"grave_yard"},{"id":"xx360427_718475","name":"Hawli Saifuddin","lat":36.042722,"lng":71.84746,"addr":"","type":"yes"},{"id":"xx360516_717859","name":"Kherchum JK","lat":36.05164,"lng":71.785901,"addr":"","type":"yes"},{"id":"xx351497_729409","name":"Gaidru Masjid","lat":35.14972,"lng":72.940898,"addr":"","type":"yes"},{"id":"xx351485_729348","name":"Bhuien Masjid","lat":35.148512,"lng":72.934848,"addr":"","type":"yes"},{"id":"xx360992_718518","name":"Kiyar JK","lat":36.099237,"lng":71.851801,"addr":"","type":"yes"},{"id":"xx350098_728870","name":"Islamic place","lat":35.009767,"lng":72.886983,"addr":"Sholgara Kohistan","type":"grave_yard"},{"id":"xx363130_746311","name":"Dorkhan Jamatkhana","lat":36.313027,"lng":74.631098,"addr":"","type":"mosque"},{"id":"xx357205_748252","name":"Islamic place","lat":35.720508,"lng":74.825151,"addr":"","type":"yes"},{"id":"xx357244_748199","name":"Shengus Madrassa","lat":35.724379,"lng":74.819858,"addr":"","type":"mosque"},{"id":"xx357252_748172","name":"Shengus Imambargah","lat":35.725169,"lng":74.817205,"addr":"","type":"mosque"},{"id":"xx357250_748172","name":"Shengus Mosque","lat":35.725023,"lng":74.817177,"addr":"","type":"yes"},{"id":"xx355857_749909","name":"Ganji Imambara","lat":35.585746,"lng":74.990856,"addr":"","type":"mosque"},{"id":"xx358102_747403","name":"Shahtot Imambargah","lat":35.810157,"lng":74.740277,"addr":"","type":"mosque"},{"id":"xx357770_720311","name":"Madaklasht JK.2","lat":35.777006,"lng":72.03106,"addr":"","type":"yes"},{"id":"xx358556_717896","name":"جامع مسجد","lat":35.855617,"lng":71.78957,"addr":"","type":"mosque"},{"id":"xx359195_743074","name":"امام بارگاہ","lat":35.919461,"lng":74.307373,"addr":"","type":"yes"},{"id":"xx360594_718176","name":"Madashil JK","lat":36.059362,"lng":71.817645,"addr":"","type":"yes"},{"id":"xx360663_718267","name":"Shah Jamatkhana","lat":36.066319,"lng":71.826656,"addr":"","type":"yes"},{"id":"xx355857_749908","name":"Ganji Imambara","lat":35.585743,"lng":74.990818,"addr":"","type":"mosque"},{"id":"xx359177_743522","name":"Islamic place","lat":35.917727,"lng":74.352169,"addr":"Sonikote Qabristan Street","type":"grave_yard"},{"id":"xx359049_743505","name":"Islamic place","lat":35.904855,"lng":74.350487,"addr":"Riaz Road Upper Jutial","type":"grave_yard"},{"id":"xx351446_725350","name":"Islamic place","lat":35.144623,"lng":72.535036,"addr":"","type":"mosque"},{"id":"xx352336_747635","name":"jamia masjid chorit","lat":35.233623,"lng":74.763538,"addr":"","type":"yes"},{"id":"xx356939_716745","name":"Islamic place","lat":35.693888,"lng":71.674536,"addr":"Bamburait Valley Road","type":"mosque"},{"id":"xx356937_716749","name":"Islamic place","lat":35.693686,"lng":71.674944,"addr":"Bamburait Valley Road","type":"mosque"},{"id":"xx356920_716701","name":"Islamic place","lat":35.691996,"lng":71.670127,"addr":"Bamburait Valley","type":"mosque"},{"id":"xx356956_716782","name":"Islamic place","lat":35.695585,"lng":71.678221,"addr":"Bamburait Valley Road","type":"mosque"},{"id":"xx359127_743900","name":"Jamatkhan No 2 Princabad","lat":35.912739,"lng":74.389956,"addr":"Prince Abad Road","type":"yes"},{"id":"xx359051_743939","name":"JK # 6 Chashma Chowk","lat":35.905127,"lng":74.393888,"addr":"KKH-Jalalabad Road","type":"yes"},{"id":"xx359112_743974","name":"Jamatkhan No 12 Chandnichowk","lat":35.911166,"lng":74.397408,"addr":"Prince Abad Road","type":"yes"},{"id":"xx359197_743886","name":"Jamat Khana # 1 Baig Market","lat":35.919697,"lng":74.388632,"addr":"Baig Market","type":"yes"},{"id":"xx359149_743983","name":"Jamatkhana No 7","lat":35.914936,"lng":74.398277,"addr":"","type":"yes"},{"id":"xx359199_743991","name":"Jamatkhana No 13","lat":35.919929,"lng":74.399108,"addr":"","type":"yes"},{"id":"xx359280_743965","name":"Jamatkhana No 3 Chikaskot","lat":35.927961,"lng":74.396517,"addr":"Chikaskote","type":"yes"},{"id":"xx359209_743825","name":"Jamatkhana No 4","lat":35.920909,"lng":74.382475,"addr":"","type":"yes"},{"id":"xx359165_743775","name":"Jamatkhana No 8 Majokal","lat":35.916547,"lng":74.377488,"addr":"","type":"yes"},{"id":"xx356982_716833","name":"Islamic place","lat":35.698163,"lng":71.683346,"addr":"Bamburait Valley","type":"mosque"},{"id":"xx357000_716916","name":"Islamic place","lat":35.699964,"lng":71.691561,"addr":"","type":"mosque"},{"id":"xx357022_716988","name":"Islamic place","lat":35.702204,"lng":71.698781,"addr":"","type":"yes"},{"id":"xx357064_717056","name":"Islamic place","lat":35.706386,"lng":71.705619,"addr":"","type":"yes"},{"id":"xx357088_717029","name":"Islamic place","lat":35.708846,"lng":71.702934,"addr":"","type":"mosque"},{"id":"xx357159_717051","name":"Islamic place","lat":35.715936,"lng":71.70511,"addr":"","type":"mosque"},{"id":"xx357280_717114","name":"Islamic place","lat":35.728001,"lng":71.711363,"addr":"","type":"mosque"},{"id":"xx356876_716643","name":"Islamic place","lat":35.687613,"lng":71.664258,"addr":"","type":"mosque"},{"id":"xx356849_716612","name":"Islamic place","lat":35.684912,"lng":71.661235,"addr":"","type":"mosque"},{"id":"xx356663_716185","name":"Islamic place","lat":35.666293,"lng":71.618548,"addr":"","type":"mosque"},{"id":"xx356824_716473","name":"Islamic place","lat":35.682355,"lng":71.647273,"addr":"","type":"mosque"},{"id":"xx356848_716427","name":"Islamic place","lat":35.684773,"lng":71.642694,"addr":"","type":"mosque"},{"id":"xx356883_716716","name":"Islamic place","lat":35.688263,"lng":71.671614,"addr":"","type":"mosque"},{"id":"xx363064_746142","name":"Aga Khanabad Jamatkhana","lat":36.306412,"lng":74.614183,"addr":"","type":"yes"},{"id":"xx352190_748476","name":"al madina masjid shakuliyate bulashber gorikot astore gb","lat":35.219031,"lng":74.847616,"addr":"","type":"yes"},{"id":"xx352223_748008","name":"abu bakar masjid tarzay","lat":35.222255,"lng":74.800775,"addr":"","type":"yes"},{"id":"xx352075_748047","name":"khatmun nabiyeen SAW Dado sheri Het","lat":35.207467,"lng":74.804671,"addr":"","type":"yes"},{"id":"xx360523_741392","name":"Markazi Jama Masjid Bargo Bala, gilgit Pakistan","lat":36.052266,"lng":74.139157,"addr":"","type":"mosque"},{"id":"xx360510_741358","name":"Masjid e Abu-Talib Haideri Mohallah Bargo Bala","lat":36.050953,"lng":74.135826,"addr":"","type":"mosque"},{"id":"xx360785_741151","name":"Islamic place","lat":36.078542,"lng":74.115057,"addr":"Bargo Hoper","type":"yes"},{"id":"xx354177_740729","name":"Islamic place","lat":35.417727,"lng":74.072881,"addr":"","type":"mosque"},{"id":"xx354191_740862","name":"Islamic place","lat":35.419084,"lng":74.08617,"addr":"","type":"mosque"},{"id":"xx354144_741016","name":"Islamic place","lat":35.414373,"lng":74.101636,"addr":"","type":"yes"},{"id":"xx354189_740609","name":"Islamic place","lat":35.418884,"lng":74.060941,"addr":"","type":"mosque"},{"id":"xx354106_741062","name":"Islamic place","lat":35.410575,"lng":74.106195,"addr":"","type":"yes"},{"id":"xx354121_740988","name":"Islamic place","lat":35.412105,"lng":74.098849,"addr":"","type":"mosque"},{"id":"xx354159_740993","name":"Islamic place","lat":35.415877,"lng":74.09928,"addr":"","type":"yes"},{"id":"xx356345_734552","name":"Islamic place","lat":35.634491,"lng":73.455186,"addr":"تانگیر","type":"mosque"},{"id":"xx354153_741058","name":"Islamic place","lat":35.415266,"lng":74.105803,"addr":"","type":"yes"},{"id":"xx354199_740953","name":"Islamic place","lat":35.419914,"lng":74.095301,"addr":"","type":"yes"},{"id":"xx354243_740939","name":"Islamic place","lat":35.424278,"lng":74.093856,"addr":"","type":"yes"},{"id":"xx354232_740760","name":"Islamic place","lat":35.423233,"lng":74.075966,"addr":"","type":"mosque"},{"id":"xx359047_743505","name":"Islamic place","lat":35.904672,"lng":74.35048,"addr":"Riaz Road Upper Jutial","type":"grave_yard"},{"id":"xx359126_743899","name":"Jamatkhan No 2 Princabad","lat":35.912647,"lng":74.38994,"addr":"Prince Abad Road","type":"yes"},{"id":"xx359052_743938","name":"JK # 6 Chashma Chowk","lat":35.905154,"lng":74.39384,"addr":"KKH-Jalalabad Road","type":"yes"},{"id":"xx359112_743973","name":"Jamatkhan No 12 Chandnichowk","lat":35.911212,"lng":74.397323,"addr":"Prince Abad Road","type":"yes"},{"id":"xx359196_743886","name":"Jamat Khana # 1 Baig Market","lat":35.919649,"lng":74.388607,"addr":"Baig Market","type":"yes"},{"id":"xx359150_743982","name":"Jamatkhana No 7","lat":35.91499,"lng":74.398237,"addr":"","type":"yes"},{"id":"xx359279_743965","name":"Jamatkhana No 3 Chikaskot","lat":35.927914,"lng":74.396496,"addr":"Chikaskote","type":"yes"},{"id":"xx359209_743824","name":"Jamatkhana No 4","lat":35.920926,"lng":74.382415,"addr":"","type":"yes"},{"id":"xx359166_743775","name":"Jamatkhana No 8 Majokal","lat":35.916567,"lng":74.377462,"addr":"","type":"yes"},{"id":"xx357089_717029","name":"Islamic place","lat":35.708859,"lng":71.702928,"addr":"","type":"mosque"},{"id":"xx352075_748046","name":"khatmun nabiyeen SAW Dado sheri Het","lat":35.207458,"lng":74.804642,"addr":"","type":"yes"},{"id":"xx354105_741062","name":"Islamic place","lat":35.410533,"lng":74.106188,"addr":"","type":"yes"},{"id":"xx356345_734551","name":"Islamic place","lat":35.634465,"lng":73.45513,"addr":"تانگیر","type":"mosque"},{"id":"xx354233_740760","name":"Islamic place","lat":35.423273,"lng":74.075954,"addr":"","type":"mosque"}]