[{"id":"xx407533_-1118716","name":"Islamic Society of Utah","lat":40.753279,"lng":-111.871602,"addr":"","type":"place_of_worship"},{"id":"xx405880_-1119194","name":"Islamic place","lat":40.588044,"lng":-111.919352,"addr":"West 9000 South","type":"place_of_worship"},{"id":"xx417455_-1118188","name":"Logan Islamic Center","lat":41.745477,"lng":-111.818818,"addr":"","type":"place_of_worship"},{"id":"xx411566_-1119379","name":"Islamic Center of Kuwait in Utah","lat":41.156625,"lng":-111.93794,"addr":"","type":"yes"},{"id":"xx412672_-1119488","name":"Saint James the Just Catholic Church","lat":41.267215,"lng":-111.948767,"addr":"North Harrison Boulevard","type":"church"},{"id":"xx407170_-1119227","name":"Khadeeja Islamic Center","lat":40.716964,"lng":-111.922671,"addr":"West Parkway Avenue","type":"church"},{"id":"xx406150_-1118595","name":"Saint James Episcopal Church","lat":40.615,"lng":-111.859476,"addr":"South Union Park Avenue","type":"church"},{"id":"xx407788_-1119115","name":"Islamic Society of Bosniaks in Utah","lat":40.778819,"lng":-111.91152,"addr":"North 700 West","type":"mosque"},{"id":"xx406243_-1118378","name":"Muslim Community Center","lat":40.624279,"lng":-111.837824,"addr":"East Fort Union Boulevard","type":"yes"},{"id":"xx407712_-1119411","name":"Madina Masjid","lat":40.771237,"lng":-111.941104,"addr":"West North Temple","type":"church"}]