[{"id":"xx417576_-713326","name":"Saint James Lutheran Church","lat":41.757607,"lng":-71.332554,"addr":"","type":"place_of_worship"},{"id":"xx420020_-715076","name":"Saint James Episcopal Church","lat":42.002043,"lng":-71.507561,"addr":"","type":"place_of_worship"},{"id":"xx417953_-714094","name":"Muslim Community Center of Rhode Island","lat":41.79526,"lng":-71.409404,"addr":"","type":"place_of_worship"},{"id":"xx407734_-729145","name":"Saint James Episcopal Church","lat":40.773432,"lng":-72.91455,"addr":"","type":"place_of_worship"},{"id":"xx418009_-739382","name":"Saint James Church","lat":41.800926,"lng":-73.938193,"addr":"","type":"place_of_worship"},{"id":"xx446987_-736354","name":"Saint James Minor Church","lat":44.698653,"lng":-73.635417,"addr":"","type":"place_of_worship"},{"id":"xx407087_-736704","name":"Saint James the Just Church","lat":40.708711,"lng":-73.67037,"addr":"","type":"place_of_worship"},{"id":"xx407196_-736838","name":"Saint James Lutheran Community Church","lat":40.719638,"lng":-73.683843,"addr":"","type":"place_of_worship"},{"id":"xx407130_-735579","name":"Long Island Muslim Society of East Meadow","lat":40.713037,"lng":-73.55791,"addr":"","type":"place_of_worship"},{"id":"xx408839_-731639","name":"Saint James Episcopal Church","lat":40.883889,"lng":-73.163889,"addr":"","type":"place_of_worship"},{"id":"xx406337_-740207","name":"Islamic Society of Bayridge","lat":40.633729,"lng":-74.020686,"addr":"","type":"place_of_worship"},{"id":"xx406839_-739542","name":"Clara Muhammad School of Masjid Khal","lat":40.68393,"lng":-73.954189,"addr":"Bedford Avenue","type":"school"},{"id":"xx407119_-739467","name":"Mosque of American Mohammedan Society","lat":40.711944,"lng":-73.946667,"addr":"","type":"place_of_worship"},{"id":"xx406386_-739683","name":"Al-Mahdi Foundation","lat":40.638611,"lng":-73.968333,"addr":"","type":"place_of_worship"},{"id":"xx429333_-746290","name":"Saint James Roman Catholic Church","lat":42.933346,"lng":-74.628987,"addr":"Martin Street","type":"place_of_worship"},{"id":"xx432677_-735848","name":"Saint James Episcopal Church","lat":43.267733,"lng":-73.584828,"addr":"","type":"place_of_worship"},{"id":"xx444397_-736767","name":"Saint James Episcopal Church","lat":44.439722,"lng":-73.676667,"addr":"","type":"place_of_worship"},{"id":"xx428025_-739249","name":"Islamic Center","lat":42.802488,"lng":-73.924883,"addr":"","type":"place_of_worship"},{"id":"xx417414_-735794","name":"Saint James Episcopal Church","lat":41.74138,"lng":-73.579383,"addr":"","type":"place_of_worship"},{"id":"xx405850_-736706","name":"Saint James Episcopal Church","lat":40.585,"lng":-73.670556,"addr":"","type":"place_of_worship"},{"id":"xx406728_-742443","name":"Muslim Community Center of Union County (MCCUC)","lat":40.672844,"lng":-74.244254,"addr":"Magie Avenue","type":"place_of_worship"},{"id":"xx408379_-749407","name":"James Chapel","lat":40.837877,"lng":-74.940726,"addr":"","type":"place_of_worship"},{"id":"xx400671_-749213","name":"Saint James Church","lat":40.067055,"lng":-74.921279,"addr":"","type":"place_of_worship"},{"id":"xx403489_-744388","name":"Presbyterian Church of Jamesburg","lat":40.348923,"lng":-74.438775,"addr":"Gatzmer Avenue","type":"place_of_worship"},{"id":"xx403554_-744396","name":"Saint James Roman Catholic Church","lat":40.355386,"lng":-74.439596,"addr":"Lincoln Avenue","type":"place_of_worship"},{"id":"xx405112_-742635","name":"Saint James African Methodist Episcopal Zion Church","lat":40.511217,"lng":-74.263479,"addr":"","type":"place_of_worship"},{"id":"xx408522_-748302","name":"Saint James Episcopal Church","lat":40.852238,"lng":-74.830163,"addr":"","type":"place_of_worship"},{"id":"xx404157_-742240","name":"Saint James African Methodist Episcopal Zion Church","lat":40.415727,"lng":-74.224044,"addr":"Atlantic Avenue","type":"place_of_worship"},{"id":"xx402561_-742795","name":"Dibra Community Center of New Jersey","lat":40.256051,"lng":-74.279479,"addr":"","type":"place_of_worship"},{"id":"xx408995_-744082","name":"Jam E-Masjid Islamic Center","lat":40.899543,"lng":-74.408208,"addr":"","type":"place_of_worship"},{"id":"xx409176_-741401","name":"Islamic Center of Passaic County","lat":40.917599,"lng":-74.140143,"addr":"Derrom Avenue","type":"place_of_worship"},{"id":"xx402670_-745320","name":"Saint James African Methodist Episcopal Church","lat":40.266951,"lng":-74.531973,"addr":"","type":"place_of_worship"},{"id":"xx405005_-743961","name":"Saint James Episcopal Church","lat":40.500491,"lng":-74.396096,"addr":"Woodbridge Avenue","type":"place_of_worship"},{"id":"xx404615_-744775","name":"New Brunswick Islamic Center","lat":40.461545,"lng":-74.477543,"addr":"Livingston Avenue","type":"place_of_worship"},{"id":"xx402158_-740122","name":"Islamic Center of Asbury Park","lat":40.215833,"lng":-74.012222,"addr":"","type":"place_of_worship"},{"id":"xx402003_-740167","name":"Saint James Episcopal Church","lat":40.200278,"lng":-74.016667,"addr":"","type":"place_of_worship"},{"id":"xx403486_-740656","name":"Saint James Catholic Church","lat":40.348611,"lng":-74.065556,"addr":"","type":"place_of_worship"},{"id":"xx404986_-744500","name":"Saint James Methodist Church","lat":40.498611,"lng":-74.45,"addr":"","type":"place_of_worship"},{"id":"xx416234_-709250","name":"Saint James Church","lat":41.623438,"lng":-70.925038,"addr":"","type":"place_of_worship"},{"id":"xx419278_-700154","name":"The Chapel of Saint James the Fisherman","lat":41.927773,"lng":-70.015427,"addr":"Route 6","type":"place_of_worship"},{"id":"xx424054_-711253","name":"Saint James Episcopal Church","lat":42.405374,"lng":-71.125331,"addr":"","type":"place_of_worship"},{"id":"xx413081_-728853","name":"Saint James Episcopal Church","lat":41.308138,"lng":-72.885298,"addr":"","type":"place_of_worship"},{"id":"xx411812_-731904","name":"Islamic Community Center","lat":41.181208,"lng":-73.19039,"addr":"","type":"place_of_worship"},{"id":"xx410809_-734296","name":"Saint James Baptist Church","lat":41.08093,"lng":-73.429564,"addr":"","type":"place_of_worship"},{"id":"xx413929_-734523","name":"Saint James Episcopal Church","lat":41.392873,"lng":-73.452344,"addr":"","type":"place_of_worship"},{"id":"xx406352_-740764","name":"Staten Island Islamic Masjid","lat":40.635224,"lng":-74.076386,"addr":"","type":"place_of_worship"},{"id":"xx406112_-740874","name":"Muslim Majlis of Staten Island","lat":40.611187,"lng":-74.087447,"addr":"","type":"place_of_worship"},{"id":"xx406380_-741619","name":"Noor Al-Islam Society","lat":40.638014,"lng":-74.161931,"addr":"","type":"place_of_worship"},{"id":"xx406398_-740776","name":"Masjid Al-Ihsan","lat":40.639805,"lng":-74.077605,"addr":"","type":"place_of_worship"},{"id":"xx408716_-740014","name":"Dar-ul-Islah","lat":40.871645,"lng":-74.001389,"addr":"","type":"mosque"},{"id":"xx409064_-744106","name":"Birch Street Masjid","lat":40.906403,"lng":-74.410615,"addr":"","type":"place_of_worship"},{"id":"xx406805_-739535","name":"Masjid At-Taqea","lat":40.680534,"lng":-73.953543,"addr":"Bedford Avenue","type":"place_of_worship"},{"id":"xx407109_-737876","name":"Masjid Mission Center","lat":40.710892,"lng":-73.787579,"addr":"175th Street","type":"place_of_worship"},{"id":"xx406357_-740091","name":"United American Muslim Association","lat":40.635706,"lng":-74.00913,"addr":"8th Avenue","type":"place_of_worship"},{"id":"xx406509_-740075","name":"Islamic International Funeral Services","lat":40.650852,"lng":-74.007549,"addr":"42nd Street","type":"mosque"},{"id":"xx406931_-739710","name":"Ibaadu'rrahman Central Mosque","lat":40.693057,"lng":-73.971025,"addr":"Myrtle Avenue","type":"place_of_worship"},{"id":"xx407469_-738793","name":"Masjid al Taufiq","lat":40.746885,"lng":-73.879318,"addr":"Forley Street","type":"mosque"},{"id":"xx423938_-711390","name":"Islamic Center of Rindge Ave","lat":42.393791,"lng":-71.139029,"addr":"Rindge Avenue","type":"place_of_worship"},{"id":"xx424878_-712138","name":"Islamic Center of Burlington","lat":42.487751,"lng":-71.213801,"addr":"Lexington Street","type":"place_of_worship"},{"id":"xx408573_-747702","name":"Islamic Society of North Jersey","lat":40.857345,"lng":-74.77018,"addr":"US Hwy 46 W","type":"place_of_worship"},{"id":"xx408751_-738802","name":"North Bronx Islamic Center","lat":40.875057,"lng":-73.880159,"addr":"East 206th Street","type":"place_of_worship"},{"id":"xx407013_-738151","name":"Al-Iman School","lat":40.701333,"lng":-73.815119,"addr":"Van Wyck Expressway Service Road East","type":"school"},{"id":"xx406417_-739824","name":"Masjid Nur Al Islam","lat":40.641719,"lng":-73.982382,"addr":"Church Avenue","type":"place_of_worship"},{"id":"xx407253_-739505","name":"Greenpoint Islamic Center","lat":40.725338,"lng":-73.950519,"addr":"Leonard Street","type":"place_of_worship"},{"id":"xx407316_-740664","name":"Masjid Al-Salam Islamic Education and Information Center","lat":40.731597,"lng":-74.066376,"addr":"John F. Kennedy Boulevard","type":"place_of_worship"},{"id":"xx407082_-740051","name":"Masjid Manhattan","lat":40.708192,"lng":-74.005071,"addr":"Cliff Street","type":"place_of_worship"},{"id":"xx407684_-739116","name":"Islamic place","lat":40.768391,"lng":-73.911567,"addr":"","type":"mosque"},{"id":"xx407459_-739879","name":"Masjid Ar-Rahman","lat":40.745891,"lng":-73.987927,"addr":"West 29th Street","type":"place_of_worship"},{"id":"xx407504_-738940","name":"Masjid Dar-ul Furqan","lat":40.750395,"lng":-73.894038,"addr":"","type":"place_of_worship"},{"id":"xx409726_-742709","name":"Al-Ghazaly High School","lat":40.97262,"lng":-74.270882,"addr":"Black Oak Ridge Road","type":"school"},{"id":"xx445075_-731496","name":"Islamic Society of Vermont","lat":44.50748,"lng":-73.149596,"addr":"Hegeman Avenue","type":"place_of_worship"},{"id":"xx407249_-737449","name":"Masjidul Allah","lat":40.72487,"lng":-73.744891,"addr":"90th Avenue","type":"place_of_worship"},{"id":"xx408187_-738998","name":"Masjid Salam","lat":40.818681,"lng":-73.899751,"addr":"Longwood Avenue","type":"place_of_worship"},{"id":"xx408308_-738608","name":"Islamic place","lat":40.83077,"lng":-73.860797,"addr":"Virginia Avenue","type":"place_of_worship"},{"id":"xx407301_-739980","name":"Islamic Center at NYU","lat":40.730071,"lng":-73.998032,"addr":"Thompson Street","type":"place_of_worship"},{"id":"xx406845_-739789","name":"Fertile Cresent","lat":40.684466,"lng":-73.978948,"addr":"","type":"mosque"},{"id":"xx408281_-738525","name":"Unionport Jame Masjid","lat":40.828123,"lng":-73.852521,"addr":"Chatterton Avenue","type":"place_of_worship"},{"id":"xx423309_-710934","name":"Islamic Society of Boston Cultural Center","lat":42.330902,"lng":-71.093379,"addr":"Malcolm X Boulevard","type":"place_of_worship"},{"id":"xx408567_-738844","name":"Islamic place","lat":40.856706,"lng":-73.884416,"addr":"East 189th Street","type":"place_of_worship"},{"id":"xx406711_-739911","name":"Masjid Al Imam Al Albani","lat":40.671086,"lng":-73.991135,"addr":"","type":"place_of_worship"},{"id":"xx405870_-739408","name":"Sheepshead Bay Muslim Center","lat":40.586994,"lng":-73.940823,"addr":"Voorhies Avenue","type":"place_of_worship"},{"id":"xx406402_-739787","name":"Baitul Jannah","lat":40.640209,"lng":-73.978733,"addr":"","type":"place_of_worship"},{"id":"xx406381_-739784","name":"Jame Masjid","lat":40.638096,"lng":-73.97835,"addr":"McDonald Avenue","type":"place_of_worship"},{"id":"xx406850_-739795","name":"Islamic Guidance Center","lat":40.68503,"lng":-73.979506,"addr":"","type":"mosque"},{"id":"xx411135_-740476","name":"masjid Al-kadir (mosque)","lat":41.113526,"lng":-74.047574,"addr":"","type":"place_of_worship"},{"id":"xx406846_-739793","name":"Treasure Islam","lat":40.68459,"lng":-73.979268,"addr":"","type":"mosque"},{"id":"xx406846_-739795","name":"Masjid Al-Farooq Al-Aqusa Islamic School","lat":40.684613,"lng":-73.979539,"addr":"Atlantic Avenue","type":"school"},{"id":"xx406850_-739794","name":"Alul Bayt Islamic Library","lat":40.684994,"lng":-73.979404,"addr":"","type":"library"},{"id":"xx407647_-739053","name":"Majid Tiba","lat":40.764748,"lng":-73.905315,"addr":"48th Street","type":"place_of_worship"},{"id":"xx407553_-739041","name":"Majid","lat":40.755296,"lng":-73.904066,"addr":"57th Street","type":"place_of_worship"},{"id":"xx407584_-739103","name":"Masjid al-Hikmah","lat":40.758351,"lng":-73.910329,"addr":"31st Avenue","type":"place_of_worship"},{"id":"xx407501_-739046","name":"Majid Fatima","lat":40.750095,"lng":-73.904566,"addr":"37th Avenue","type":"place_of_worship"},{"id":"xx407720_-739263","name":"Astoria Islamic Center","lat":40.772042,"lng":-73.926325,"addr":"Astoria Boulevard","type":"place_of_worship"},{"id":"xx406735_-739500","name":"Masjid Ul Kawthar","lat":40.673537,"lng":-73.950018,"addr":"Nostrand Avenue","type":"place_of_worship"},{"id":"xx406772_-737907","name":"Masjid Al-Hamdililah","lat":40.677198,"lng":-73.790727,"addr":"Sutphin Boulevard","type":"place_of_worship"},{"id":"xx407686_-739200","name":"Gawsiah Jame Masjid","lat":40.768604,"lng":-73.920049,"addr":"31st Street","type":"place_of_worship"},{"id":"xx407687_-739194","name":"Shahjalal Masjid","lat":40.768726,"lng":-73.919354,"addr":"31st Street","type":"place_of_worship"},{"id":"xx408355_-738543","name":"Bangla Bazar Masjid","lat":40.835493,"lng":-73.854254,"addr":"Odell Street","type":"place_of_worship"},{"id":"xx407040_-736310","name":"The Crescent School","lat":40.703981,"lng":-73.630993,"addr":"Front Street","type":"school"},{"id":"xx406868_-738083","name":"Majid on the Van Wyck","lat":40.686756,"lng":-73.808304,"addr":"Van Wyck Expressway","type":"place_of_worship"},{"id":"xx440982_-702180","name":"Islamic Center of Lewiston","lat":44.098179,"lng":-70.217973,"addr":"","type":"place_of_worship"},{"id":"xx407465_-739187","name":"Mimar Sinan Mosque","lat":40.746495,"lng":-73.91868,"addr":"Skillman Avenue","type":"place_of_worship"},{"id":"xx408106_-739102","name":"Masjid Quba","lat":40.810632,"lng":-73.910156,"addr":"Jackson Avenue","type":"place_of_worship"},{"id":"xx436997_-703183","name":"Masjid Al-Rahman","lat":43.699737,"lng":-70.318269,"addr":"Forest Avenue","type":"place_of_worship"},{"id":"xx437007_-703224","name":"Masjid Attawba","lat":43.700715,"lng":-70.322429,"addr":"Riverside Street","type":"place_of_worship"},{"id":"xx406181_-740293","name":"Bay Ridge Islamic Center","lat":40.618142,"lng":-74.029287,"addr":"5th Avenue","type":"place_of_worship"},{"id":"xx402279_-747793","name":"Istijabah Masjid","lat":40.227927,"lng":-74.779286,"addr":"Montgomery Place","type":"place_of_worship"},{"id":"xx402345_-747564","name":"Masjid Al Uthaymeen","lat":40.234451,"lng":-74.756434,"addr":"East Paul Avenue","type":"place_of_worship"},{"id":"xx420960_-710958","name":"St. James Lutheran Church","lat":42.095972,"lng":-71.095808,"addr":"Washington Street / STOUGHTON VFW MEMORIAL HIGHWAY","type":"place_of_worship"},{"id":"xx402288_-747585","name":"Masjid As Saffat","lat":40.228784,"lng":-74.758543,"addr":"Oxford Street","type":"place_of_worship"},{"id":"xx402248_-747431","name":"Masjidut Taqwa","lat":40.224788,"lng":-74.743069,"addr":"East State Street","type":"place_of_worship"},{"id":"xx410932_-735167","name":"Alhedayah Masjid & Islamic Center","lat":41.093243,"lng":-73.516713,"addr":"Cushing Street","type":"place_of_worship"},{"id":"xx415570_-726496","name":"Omar Islamic Center","lat":41.557028,"lng":-72.64965,"addr":"Broad Street","type":"place_of_worship"},{"id":"xx417822_-726762","name":"Masjid Umar Ibn Al Khattab","lat":41.782234,"lng":-72.676179,"addr":"Main Street","type":"place_of_worship"},{"id":"xx426964_-736836","name":"HVCC Interfaith Prayer Room","lat":42.696391,"lng":-73.683642,"addr":"","type":"place_of_worship"},{"id":"xx418390_-724927","name":"Islamic Center Of Vernon","lat":41.839044,"lng":-72.492723,"addr":"Naek Road","type":"place_of_worship"},{"id":"xx409383_-742013","name":"Masjid Al-Nasr","lat":40.938304,"lng":-74.201332,"addr":"Oldham Road","type":"place_of_worship"},{"id":"xx407663_-736471","name":"North Shore Islamic Center","lat":40.766298,"lng":-73.647074,"addr":"Willis Avenue","type":"place_of_worship"},{"id":"xx423154_-717738","name":"Worcester Islamic Center","lat":42.315399,"lng":-71.773788,"addr":"","type":"place_of_worship"},{"id":"xx407431_-738955","name":"Islamic place","lat":40.743056,"lng":-73.89551,"addr":"","type":"place_of_worship"},{"id":"xx407826_-734006","name":"Islamic Center Of Melville","lat":40.782588,"lng":-73.400646,"addr":"","type":"place_of_worship"},{"id":"xx407464_-738941","name":"Islamic Center of Jackson Heights","lat":40.746407,"lng":-73.894078,"addr":"Roosevelt Avenue","type":"place_of_worship"},{"id":"xx407392_-739197","name":"Sunnyside Woodside Jame Masjid","lat":40.739204,"lng":-73.919705,"addr":"48th Avenue","type":"place_of_worship"},{"id":"xx423518_-711344","name":"Boston Islamic Seminary","lat":42.351754,"lng":-71.134409,"addr":"","type":"university"},{"id":"xx407509_-738205","name":"Muslim Center of New York","lat":40.750903,"lng":-73.82049,"addr":"Geranium Avenue","type":"place_of_worship"},{"id":"xx407508_-738208","name":"Muslim Center Junior High School","lat":40.75077,"lng":-73.820753,"addr":"Geranium Avenue","type":"school"},{"id":"xx406460_-740168","name":"MCC Muslim Womens Center","lat":40.645956,"lng":-74.016831,"addr":"","type":"place_of_worship"},{"id":"xx423545_-711378","name":"Allston Brighton Islamic Center","lat":42.354488,"lng":-71.137835,"addr":"","type":"place_of_worship"},{"id":"xx408799_-731667","name":"Saint Philip and james Church","lat":40.879852,"lng":-73.166668,"addr":"","type":"place_of_worship"},{"id":"xx406305_-740220","name":"Bakhit Islamic Center","lat":40.630493,"lng":-74.021954,"addr":"","type":"place_of_worship"},{"id":"xx426641_-737720","name":"Masjid As-Salam Mosque","lat":42.664084,"lng":-73.771985,"addr":"","type":"place_of_worship"},{"id":"xx407010_-738150","name":"Imam Al-Khoei Foundation","lat":40.701046,"lng":-73.814984,"addr":"Van Wyck Expressway","type":"place_of_worship"},{"id":"xx407129_-737813","name":"Arafa Islamic Center","lat":40.712922,"lng":-73.781303,"addr":"Hillside Avenue","type":"place_of_worship"},{"id":"xx406097_-741474","name":"Masjid Al-Wadood","lat":40.609677,"lng":-74.147402,"addr":"","type":"place_of_worship"},{"id":"xx406419_-739698","name":"Masjid Umm-al-qura","lat":40.641923,"lng":-73.969765,"addr":"","type":"place_of_worship"},{"id":"xx407293_-739837","name":"Madina Masjid","lat":40.729334,"lng":-73.983674,"addr":"East 11th Street","type":"place_of_worship"},{"id":"xx406305_-740284","name":"South Brooklyn Islamic Center","lat":40.630495,"lng":-74.028351,"addr":"","type":"place_of_worship"},{"id":"xx405663_-743884","name":"Masjid Al-Wali","lat":40.566331,"lng":-74.388429,"addr":"","type":"place_of_worship"},{"id":"xx405513_-744332","name":"Iqra Academy","lat":40.551338,"lng":-74.433249,"addr":"","type":"place_of_worship"},{"id":"xx426273_-711582","name":"Andover Islamic Center","lat":42.627328,"lng":-71.158176,"addr":"Andover Street","type":"place_of_worship"},{"id":"xx406354_-740091","name":"Fatih Mosque","lat":40.635376,"lng":-74.009113,"addr":"8th Avenue","type":"place_of_worship"},{"id":"xx435771_-714948","name":"Saint James Episcopal Church","lat":43.577102,"lng":-71.49479,"addr":"","type":"place_of_worship"},{"id":"xx407471_-739014","name":"Woodside Baitul Jannah Masjid","lat":40.747053,"lng":-73.901401,"addr":"39th Avenue","type":"place_of_worship"},{"id":"xx406657_-745823","name":"Islamic Society of Basking Ridge","lat":40.665741,"lng":-74.582275,"addr":"Church Street","type":"place_of_worship"},{"id":"xx406331_-741171","name":"Muslim Community Center","lat":40.633091,"lng":-74.117054,"addr":"","type":"community_centre"},{"id":"xx406830_-739640","name":"Masjid-Al-Ihsaan","lat":40.683021,"lng":-73.964048,"addr":"","type":"place_of_worship"},{"id":"xx406290_-741233","name":"Islamic Cultural Foundation of America","lat":40.628999,"lng":-74.123336,"addr":"","type":"mosque"},{"id":"xx427453_-738089","name":"Interfaith Prayer Room","lat":42.745297,"lng":-73.808866,"addr":"","type":"place_of_worship"},{"id":"xx406915_-735263","name":"Islamic place","lat":40.691466,"lng":-73.526343,"addr":"","type":"place_of_worship"},{"id":"xx425821_-717961","name":"Al Noor Masjid - Fitchburg Islamic Society","lat":42.582099,"lng":-71.796094,"addr":"","type":"place_of_worship"},{"id":"xx409346_-738858","name":"Andalusia Mosque","lat":40.934622,"lng":-73.885809,"addr":"","type":"place_of_worship"},{"id":"xx414996_-740287","name":"Masjid Al-Ikhlas","lat":41.499584,"lng":-74.028709,"addr":"Washington Terrace","type":"place_of_worship"},{"id":"xx428372_-737364","name":"Al-Arqam Center of Saratoga","lat":42.837222,"lng":-73.736419,"addr":"Guideboard Road","type":"place_of_worship"},{"id":"xx424033_-711281","name":"St. James Episcopal Church","lat":42.403324,"lng":-71.128098,"addr":"","type":"yes"},{"id":"xx423504_-710622","name":"St. James Church","lat":42.350416,"lng":-71.062169,"addr":"Harrison Avenue","type":"yes"},{"id":"xx423409_-711546","name":"Yusuf Mosque","lat":42.340878,"lng":-71.154561,"addr":"Chestnut Hill Avenue","type":"yes"},{"id":"xx423139_-711286","name":"Our Lady of the Cedars of Lebanon","lat":42.313947,"lng":-71.12857,"addr":"","type":"yes"},{"id":"xx424814_-710990","name":"Saint James Methodist Church","lat":42.48136,"lng":-71.098969,"addr":"Central Street","type":"yes"},{"id":"xx423907_-711209","name":"Saint James Episcopal Church","lat":42.390662,"lng":-71.120885,"addr":"Massachusetts Avenue","type":"yes"},{"id":"xx427205_-711927","name":"The Islamic Academy","lat":42.720498,"lng":-71.192676,"addr":"","type":"school"},{"id":"xx423703_-711001","name":"Islamic Society of Boston","lat":42.370253,"lng":-71.100063,"addr":"Prospect Street","type":"yes"},{"id":"xx423706_-711641","name":"Saint James Armenian Apostolic Church","lat":42.370581,"lng":-71.164074,"addr":"Mount Auburn Street","type":"church"},{"id":"xx423517_-711345","name":"Arabic Jumaa Mosque","lat":42.351703,"lng":-71.134457,"addr":"Quint Avenue","type":"church"},{"id":"xx423140_-711286","name":"Our Lady of the Cedars of Lebanon","lat":42.313957,"lng":-71.12858,"addr":"","type":"yes"},{"id":"xx446703_-749659","name":"Islamic place","lat":44.670294,"lng":-74.965945,"addr":"","type":"yes"},{"id":"xx425901_-725986","name":"Saint James Episcopal Church","lat":42.590091,"lng":-72.598635,"addr":"Church Street","type":"yes"},{"id":"xx425901_-725987","name":"Saint James Episcopal Church","lat":42.590088,"lng":-72.598675,"addr":"Church Street","type":"yes"},{"id":"xx411156_-741499","name":"Masjid Darul Ehsan","lat":41.115562,"lng":-74.149882,"addr":"","type":"yes"},{"id":"xx436225_-725219","name":"Saint James Episcopal Church","lat":43.622511,"lng":-72.52189,"addr":"Saint James Place","type":"church"},{"id":"xx411155_-741499","name":"Masjid Darul Ehsan","lat":41.11554,"lng":-74.14989,"addr":"","type":"yes"},{"id":"xx429654_-714595","name":"Our Lady of the Cedars","lat":42.965364,"lng":-71.459467,"addr":"Mitchell Street","type":"yes"},{"id":"xx428899_-714744","name":"Saint James United Methodist Church","lat":42.889891,"lng":-71.474372,"addr":"Daniel Webster Highway","type":"yes"},{"id":"xx424727_-709316","name":"North Shore Islamic Center","lat":42.472718,"lng":-70.931649,"addr":"","type":"mosque"},{"id":"xx417609_-727476","name":"Saint James Episcopal Church","lat":41.760934,"lng":-72.747602,"addr":"","type":"church"},{"id":"xx424727_-709317","name":"North Shore Islamic Center","lat":42.472697,"lng":-70.931707,"addr":"","type":"mosque"},{"id":"xx406851_-735402","name":"Jaam'e Masjid Bellmore","lat":40.685098,"lng":-73.540195,"addr":"Newbridge Road","type":"commercial"},{"id":"xx404146_-744437","name":"Al-Masjid al-Zainee","lat":40.414617,"lng":-74.443708,"addr":"Dunhams Corner Rd","type":"mosque"},{"id":"xx411742_-732090","name":"Masjid An-Noor","lat":41.1742,"lng":-73.208992,"addr":"Fairfield Avenue","type":"mosque"},{"id":"xx411735_-731980","name":"Bridgeport Islamic Community Center","lat":41.173476,"lng":-73.198005,"addr":"Park Avenue","type":"mosque"},{"id":"xx421767_-710951","name":"St. James Lutheran Church","lat":42.176708,"lng":-71.095056,"addr":"York Street","type":"yes"},{"id":"xx422685_-717916","name":"The Islamic Center of Greater Worcester","lat":42.268485,"lng":-71.791629,"addr":"Laurel Street","type":"yes"},{"id":"xx424728_-709316","name":"North Shore Islamic Center","lat":42.472751,"lng":-70.931628,"addr":"Essex Street","type":"yes"},{"id":"xx424523_-732509","name":"Islamic Center Of Pittsfield","lat":42.452324,"lng":-73.250872,"addr":"Melville Street","type":"yes"},{"id":"xx423777_-712351","name":"Waltham Islamic Society","lat":42.377657,"lng":-71.23506,"addr":"Park Place","type":"yes"},{"id":"xx423613_-713429","name":"Islamic Center of Boston","lat":42.361259,"lng":-71.342893,"addr":"Boston Post Road","type":"mosque"},{"id":"xx436666_-702560","name":"Masjid Bilal","lat":43.666601,"lng":-70.256021,"addr":"Anderson Street","type":"yes"},{"id":"xx410001_-742880","name":"Al-Mustafa Islamic Center","lat":41.000122,"lng":-74.288033,"addr":"Passaic Avenue","type":"yes"},{"id":"xx406782_-738637","name":"Masjid Al-Aman","lat":40.678192,"lng":-73.863731,"addr":"Forbell Street","type":"mosque"},{"id":"xx406840_-739560","name":"Masjid Zawiyat Sof'watful Islam","lat":40.683956,"lng":-73.956048,"addr":"Franklin Avenue","type":"yes"},{"id":"xx406455_-739725","name":"Brooklyn Islamic Center","lat":40.645495,"lng":-73.972476,"addr":"Church Avenue","type":"yes"},{"id":"xx406743_-739883","name":"Al-Madinah School","lat":40.674277,"lng":-73.988335,"addr":"3rd Avenue","type":"yes"},{"id":"xx407681_-739281","name":"Masjid Al-Ikhlas","lat":40.768127,"lng":-73.928077,"addr":"30th Drive","type":"yes"},{"id":"xx406347_-740861","name":"Albanian Islamic Cultural Center","lat":40.634678,"lng":-74.086056,"addr":"Victory Boulevard","type":"yes"},{"id":"xx407221_-737761","name":"Baituz-Zafar","lat":40.722085,"lng":-73.776081,"addr":"Mc Laughlin Avenue","type":"yes"},{"id":"xx407132_-737696","name":"Masjid Eesa ibn Maryam","lat":40.713178,"lng":-73.769576,"addr":"191st Street","type":"mosque"},{"id":"xx407294_-739837","name":"Islamic place","lat":40.729366,"lng":-73.983676,"addr":"","type":"mosque"},{"id":"xx406769_-739301","name":"Masjid El-ijsan","lat":40.676866,"lng":-73.930108,"addr":"Utica Avenue","type":"yes"},{"id":"xx406804_-739536","name":"Islamic place","lat":40.68044,"lng":-73.953645,"addr":"","type":"mosque"},{"id":"xx407127_-737958","name":"Islamic place","lat":40.71267,"lng":-73.795805,"addr":"168th Street","type":"mosque"},{"id":"xx407126_-737957","name":"Jamaica Muslim Center","lat":40.712608,"lng":-73.7957,"addr":"168th Street","type":"yes"},{"id":"xx407097_-737978","name":"Elhaam Academy","lat":40.709655,"lng":-73.797763,"addr":"165th Street","type":"yes"},{"id":"xx407129_-738064","name":"Fultoli Islamic Center","lat":40.712872,"lng":-73.806382,"addr":"Parsons Boulevard","type":"detached"},{"id":"xx407067_-738087","name":"Darus Salaam Masjid","lat":40.706661,"lng":-73.808673,"addr":"87th Road","type":"yes"},{"id":"xx407152_-738080","name":"Fultoli Islamic Center","lat":40.71523,"lng":-73.807955,"addr":"Parsons Boulevard","type":"mosque"},{"id":"xx405826_-739658","name":"American Turkish Eyup Sultan Cultural Center","lat":40.582609,"lng":-73.965753,"addr":"Brighton 3rd Street","type":"mosque"},{"id":"xx405801_-739602","name":"Al Mustafa Islamic Center Masjid","lat":40.580099,"lng":-73.960247,"addr":"Ocean View Avenue","type":"mosque"},{"id":"xx407169_-737678","name":"Al-Muneer Community Center","lat":40.716854,"lng":-73.767836,"addr":"Hillside Avenue","type":"yes"},{"id":"xx407081_-737943","name":"Icna Al-Markaz Masjid","lat":40.708114,"lng":-73.794292,"addr":"89th Avenue","type":"yes"},{"id":"xx407201_-739906","name":"Assafa Islamic Center","lat":40.720138,"lng":-73.990617,"addr":"Eldridge Street","type":"yes"},{"id":"xx406782_-738638","name":"Masjid Al-Aman","lat":40.678198,"lng":-73.863771,"addr":"Forbell Street","type":"mosque"},{"id":"xx406743_-739884","name":"Al-Madinah School","lat":40.674267,"lng":-73.988385,"addr":"3rd Avenue","type":"yes"},{"id":"xx406804_-739537","name":"Islamic place","lat":40.680426,"lng":-73.95365,"addr":"","type":"mosque"},{"id":"xx407201_-739907","name":"Assafa Islamic Center","lat":40.720142,"lng":-73.990665,"addr":"Eldridge Street","type":"yes"},{"id":"xx407140_-737493","name":"Masjid Ar Rahman","lat":40.713996,"lng":-73.74934,"addr":"","type":"mosque"},{"id":"xx407085_-737524","name":"Hollis Muslim Center","lat":40.708495,"lng":-73.752442,"addr":"205th Place","type":"detached"},{"id":"xx407932_-739378","name":"Islamic place","lat":40.79324,"lng":-73.937838,"addr":"1st Avenue","type":"mosque"},{"id":"xx405974_-739729","name":"Masjid Ibrahim","lat":40.597364,"lng":-73.972886,"addr":"McDonald Avenue","type":"yes"},{"id":"xx406024_-740026","name":"MAS Youth Center","lat":40.602388,"lng":-74.002631,"addr":"Bath Avenue","type":"yes"},{"id":"xx406281_-739761","name":"Masjid Abou Bakr","lat":40.628057,"lng":-73.976139,"addr":"Foster Avenue","type":"yes"},{"id":"xx413036_-729200","name":"Saint Paul & Saint James Episcopal Church","lat":41.303637,"lng":-72.920018,"addr":"","type":"church"},{"id":"xx406425_-740019","name":"Al - Mustafa Islamic Center","lat":40.642488,"lng":-74.001907,"addr":"8th Avenue","type":"yes"},{"id":"xx406367_-740157","name":"Beit El-Maqdis Islamic Center","lat":40.636728,"lng":-74.01575,"addr":"6th Avenue","type":"yes"},{"id":"xx406458_-740171","name":"MCC Brooklyn","lat":40.645809,"lng":-74.017109,"addr":"3rd Avenue","type":"yes"},{"id":"xx406401_-739796","name":"Darul Jannah","lat":40.640057,"lng":-73.979648,"addr":"Avenue C","type":"yes"},{"id":"xx406971_-739866","name":"Saint James Cathedral","lat":40.697065,"lng":-73.986598,"addr":"Chapel Street","type":"cathedral"},{"id":"xx407073_-739136","name":"Islamic place","lat":40.707329,"lng":-73.913593,"addr":"","type":"mosque"},{"id":"xx407586_-738895","name":"Islamic place","lat":40.758605,"lng":-73.88952,"addr":"","type":"mosque"},{"id":"xx407020_-738773","name":"Albanian American Islamic Center of Queens","lat":40.70199,"lng":-73.877306,"addr":"Myrtle Avenue","type":"yes"},{"id":"xx407140_-737494","name":"Masjid Ar Rahman","lat":40.714012,"lng":-73.749359,"addr":"","type":"mosque"},{"id":"xx407932_-739379","name":"Islamic place","lat":40.793249,"lng":-73.937872,"addr":"1st Avenue","type":"mosque"},{"id":"xx406024_-740027","name":"MAS Youth Center","lat":40.602374,"lng":-74.002673,"addr":"Bath Avenue","type":"yes"},{"id":"xx406281_-739762","name":"Masjid Abou Bakr","lat":40.628063,"lng":-73.976155,"addr":"Foster Avenue","type":"yes"},{"id":"xx406367_-740158","name":"Beit El-Maqdis Islamic Center","lat":40.63671,"lng":-74.015768,"addr":"6th Avenue","type":"yes"},{"id":"xx406458_-740172","name":"MCC Brooklyn","lat":40.645815,"lng":-74.017169,"addr":"3rd Avenue","type":"yes"},{"id":"xx406401_-739797","name":"Darul Jannah","lat":40.64007,"lng":-73.979657,"addr":"Avenue C","type":"yes"},{"id":"xx419323_-740174","name":"Saint James United Methodist Church","lat":41.932331,"lng":-74.017428,"addr":"Pearl Street","type":"church"},{"id":"xx406948_-738450","name":"Islamic place","lat":40.694762,"lng":-73.845007,"addr":"102nd Street","type":"mosque"},{"id":"xx406794_-739634","name":"Nigerian American Muslim Integrated Community","lat":40.679384,"lng":-73.963383,"addr":"Dean Street","type":"yes"},{"id":"xx406785_-739627","name":"Baitush Sharf Jame Masjid & Islamic Center","lat":40.678491,"lng":-73.962692,"addr":"Bergen Street","type":"yes"},{"id":"xx406626_-739947","name":"Al-Noor School","lat":40.662608,"lng":-73.994735,"addr":"4th Avenue","type":"school"},{"id":"xx407712_-739653","name":"Saint James Church","lat":40.77115,"lng":-73.96532,"addr":"Madison Avenue","type":"church"},{"id":"xx407854_-739485","name":"Islamic Cultural Center of New York","lat":40.785387,"lng":-73.948509,"addr":"3rd Avenue","type":"mosque"},{"id":"xx408020_-739502","name":"Masjid Malcolm Shabazz","lat":40.802015,"lng":-73.950213,"addr":"West 116th Street","type":"mosque"},{"id":"xx408216_-739463","name":"Saint James Presbyterian Church","lat":40.821578,"lng":-73.946266,"addr":"West 141st Street","type":"yes"},{"id":"xx419323_-740175","name":"Saint James United Methodist Church","lat":41.932315,"lng":-74.017465,"addr":"Pearl Street","type":"church"},{"id":"xx407711_-739653","name":"Saint James Church","lat":40.771141,"lng":-73.965348,"addr":"Madison Avenue","type":"church"},{"id":"xx408490_-739102","name":"Islamia Sunna Wal Jam'ah","lat":40.849016,"lng":-73.910153,"addr":"Mt Hope Place","type":"yes"},{"id":"xx408640_-738994","name":"Saint James Episcopal Church","lat":40.863967,"lng":-73.899424,"addr":"Jerome Avenue","type":"yes"},{"id":"xx408670_-738864","name":"Anjuman Hefazatul Islam","lat":40.866976,"lng":-73.886442,"addr":"East 198th Street","type":"yes"},{"id":"xx403038_-739916","name":"Saint James Episcopal Church","lat":40.303766,"lng":-73.991642,"addr":"Long Branch","type":"church"},{"id":"xx407122_-739984","name":"St. James Church","lat":40.712239,"lng":-73.998403,"addr":"James Street","type":"yes"},{"id":"xx407451_-739097","name":"Ahlul Bayt Mission Masjid","lat":40.745088,"lng":-73.909682,"addr":"55th Street","type":"yes"},{"id":"xx407400_-738779","name":"Saint James Episcopal Church","lat":40.739964,"lng":-73.877926,"addr":"Broadway","type":"yes"},{"id":"xx407583_-739104","name":"Islamic place","lat":40.758345,"lng":-73.910355,"addr":"31st Avenue","type":"mosque"},{"id":"xx407550_-739257","name":"Al-Amin Jame Masjid","lat":40.754999,"lng":-73.925734,"addr":"36th Street","type":"yes"},{"id":"xx407685_-739116","name":"Al-Iman Mosque","lat":40.768453,"lng":-73.911633,"addr":"Steinway Street","type":"place_of_worship"},{"id":"xx407730_-739104","name":"Muslim Society of Queens - Dar Al-Dawah","lat":40.772965,"lng":-73.910393,"addr":"23rd Avenue","type":"mosque"},{"id":"xx407654_-738803","name":"Al Madni Masjid","lat":40.76543,"lng":-73.880303,"addr":"89th Street","type":"mosque"},{"id":"xx408752_-738525","name":"Saint Philip and Saint James Church","lat":40.875168,"lng":-73.852543,"addr":"East 213th Street","type":"yes"},{"id":"xx408760_-738673","name":"Ahmadiyya Mosque","lat":40.875975,"lng":-73.867308,"addr":"White Plains Road","type":"yes"},{"id":"xx406888_-738419","name":"Masjid Al Jama","lat":40.688799,"lng":-73.841948,"addr":"102nd Street","type":"yes"},{"id":"xx406689_-738141","name":"Masjid Ahlul Qur'aan Wa Sunnah","lat":40.668874,"lng":-73.814133,"addr":"125th Street","type":"yes"},{"id":"xx406958_-737960","name":"Islamic place","lat":40.695796,"lng":-73.795969,"addr":"157th Street","type":"mosque"},{"id":"xx406839_-737834","name":"Masjid Al-Ansar","lat":40.683942,"lng":-73.783412,"addr":"Foch Boulevard","type":"mosque"},{"id":"xx407472_-738638","name":"Masjid Alfalah","lat":40.747203,"lng":-73.863837,"addr":"National Street","type":"yes"},{"id":"xx405927_-737840","name":"Rockaway Islamic Center","lat":40.592744,"lng":-73.784006,"addr":"Rockaway Beach Boulevard","type":"yes"},{"id":"xx407584_-739104","name":"Islamic place","lat":40.758364,"lng":-73.910392,"addr":"31st Avenue","type":"mosque"},{"id":"xx407550_-739258","name":"Al-Amin Jame Masjid","lat":40.754956,"lng":-73.925769,"addr":"36th Street","type":"yes"},{"id":"xx407685_-739117","name":"Al-Iman Mosque","lat":40.768456,"lng":-73.911697,"addr":"Steinway Street","type":"place_of_worship"},{"id":"xx408751_-738526","name":"Saint Philip and Saint James Church","lat":40.875143,"lng":-73.852577,"addr":"East 213th Street","type":"yes"},{"id":"xx406888_-738420","name":"Masjid Al Jama","lat":40.688794,"lng":-73.841997,"addr":"102nd Street","type":"yes"},{"id":"xx406689_-738142","name":"Masjid Ahlul Qur'aan Wa Sunnah","lat":40.668873,"lng":-73.814169,"addr":"125th Street","type":"yes"},{"id":"xx407508_-738205","name":"Islamic place","lat":40.750848,"lng":-73.820506,"addr":"Geranium Avenue","type":"mosque"},{"id":"xx407472_-738639","name":"Masjid Alfalah","lat":40.747213,"lng":-73.863858,"addr":"National Street","type":"yes"},{"id":"xx415485_-726939","name":"Jafaria Association of Connecticut","lat":41.548471,"lng":-72.693906,"addr":"Meriden Road","type":"yes"},{"id":"xx415043_-739681","name":"Masjid Ur Rashid","lat":41.504271,"lng":-73.96806,"addr":"Main Street","type":"yes"},{"id":"xx408406_-742075","name":"Saint James Episcopal Church","lat":40.840552,"lng":-74.207537,"addr":"Valley Road","type":"yes"},{"id":"xx411899_-731299","name":"Saint James Roman Catholic Church","lat":41.189872,"lng":-73.129934,"addr":"","type":"church"},{"id":"xx410012_-741436","name":"El-Zahra Islamic Center - Midland Park","lat":41.001169,"lng":-74.143614,"addr":"Irving Street","type":"yes"},{"id":"xx408405_-742075","name":"Saint James Episcopal Church","lat":40.840546,"lng":-74.207541,"addr":"Valley Road","type":"yes"},{"id":"xx411899_-731300","name":"Saint James Roman Catholic Church","lat":41.189879,"lng":-73.129961,"addr":"","type":"church"},{"id":"xx413369_-729356","name":"Abdul-Majid Karim Hasan Islamic Center","lat":41.336896,"lng":-72.935576,"addr":"Dixwell Avenue","type":"yes"},{"id":"xx436581_-702648","name":"Masjid Al-Huda","lat":43.658102,"lng":-70.264776,"addr":"Portland Street","type":"yes"},{"id":"xx436894_-702756","name":"Omar Bin Alkhetab Masjid","lat":43.68941,"lng":-70.275616,"addr":"Washington Avenue","type":"yes"},{"id":"xx440919_-702077","name":"Masjid u Salaam","lat":44.091899,"lng":-70.207701,"addr":"Bartlett Street","type":"yes"},{"id":"xx436894_-702757","name":"Omar Bin Alkhetab Masjid","lat":43.689392,"lng":-70.275654,"addr":"Washington Avenue","type":"yes"},{"id":"xx409186_-741741","name":"Masjid Jalalabad","lat":40.91855,"lng":-74.174072,"addr":"Van Houten Street","type":"yes"},{"id":"xx409185_-741741","name":"Masjid Jalalabad","lat":40.918484,"lng":-74.174134,"addr":"Van Houten Street","type":"yes"},{"id":"xx408182_-731130","name":"Suffolk Islamic Center","lat":40.818211,"lng":-73.113022,"addr":"Ronkonkoma Avenue","type":"commercial"},{"id":"xx423567_-735998","name":"Saint James Catholic Church","lat":42.356718,"lng":-73.599838,"addr":"Hudson Avenue","type":"church"},{"id":"xx407184_-740433","name":"Islamic place","lat":40.718412,"lng":-74.043253,"addr":"","type":"yes"},{"id":"xx407332_-740718","name":"Al-Tawheed Islamic Center","lat":40.733165,"lng":-74.071835,"addr":"West Side Avenue","type":"yes"},{"id":"xx407348_-741738","name":"Islamic Center of Newark","lat":40.73481,"lng":-74.173844,"addr":"","type":"yes"},{"id":"xx407328_-741805","name":"St James A.M.E. Church","lat":40.732841,"lng":-74.180515,"addr":"","type":"yes"},{"id":"xx407298_-742129","name":"Islamic place","lat":40.729756,"lng":-74.212947,"addr":"","type":"yes"},{"id":"xx407329_-741805","name":"St James A.M.E. Church","lat":40.732851,"lng":-74.180538,"addr":"","type":"yes"},{"id":"xx407120_-742154","name":"New Saint James Baptist Church","lat":40.711975,"lng":-74.215358,"addr":"","type":"yes"},{"id":"xx425823_-717975","name":"Masjid Bait-ul-zikr","lat":42.582313,"lng":-71.797526,"addr":"Main Street","type":"yes"},{"id":"xx407280_-741626","name":"Saint James Church","lat":40.728018,"lng":-74.162602,"addr":"","type":"church"},{"id":"xx425824_-717976","name":"Masjid Bait-ul-zikr","lat":42.582373,"lng":-71.797567,"addr":"Main Street","type":"yes"},{"id":"xx405297_-744683","name":"Muslim Center of Middlesex","lat":40.529656,"lng":-74.468306,"addr":"","type":"yes"},{"id":"xx400617_-748480","name":"Mosque","lat":40.061746,"lng":-74.847962,"addr":"","type":"yes"},{"id":"xx409359_-731114","name":"Saint James Roman Catholic Church","lat":40.935883,"lng":-73.111387,"addr":"Ridgeway Avenue","type":"church"},{"id":"xx405531_-742827","name":"Saint James Roman Catholic Church","lat":40.553063,"lng":-74.282707,"addr":"Amboy Avenue","type":"yes"},{"id":"xx408811_-731673","name":"St Philip & St James Church","lat":40.881057,"lng":-73.167255,"addr":"North Country Road","type":"church"},{"id":"xx408394_-733665","name":"Masjid Noor","lat":40.839383,"lng":-73.366479,"addr":"Park Avenue","type":"church"},{"id":"xx405296_-744684","name":"Muslim Center of Middlesex","lat":40.529643,"lng":-74.468369,"addr":"","type":"yes"},{"id":"xx408762_-731542","name":"Saint James Lutheran Church","lat":40.876164,"lng":-73.154192,"addr":"2nd Ave","type":"church"},{"id":"xx407813_-740235","name":"North Hudson Islamic Educational Center","lat":40.781283,"lng":-74.023492,"addr":"Cottage Place","type":"yes"},{"id":"xx402524_-747778","name":"Incarnation-St James Church","lat":40.252429,"lng":-74.77778,"addr":"","type":"church"},{"id":"xx403296_-747880","name":"St James Roman Catholic Church","lat":40.329611,"lng":-74.787952,"addr":"","type":"yes"},{"id":"xx405310_-745141","name":"Masjid-e-Ali","lat":40.530985,"lng":-74.514148,"addr":"Cedar Grove Lane","type":"yes"},{"id":"xx410607_-735443","name":"ICCNY Islamic Center Masjid","lat":41.060672,"lng":-73.544287,"addr":"Washington Boulevard","type":"yes"},{"id":"xx402076_-748254","name":"Masjid Mosque","lat":40.207601,"lng":-74.825436,"addr":"","type":"yes"},{"id":"xx444975_-731154","name":"Saint James Episcopal Church","lat":44.497477,"lng":-73.11544,"addr":"Saint James Place","type":"church"},{"id":"xx414550_-744146","name":"St. James Church of God In Christ","lat":41.455017,"lng":-74.414579,"addr":"Linden Avenue","type":"yes"},{"id":"xx444975_-731155","name":"Saint James Episcopal Church","lat":44.497491,"lng":-73.115457,"addr":"Saint James Place","type":"church"},{"id":"xx417511_-725720","name":"AMC Muslim Cemetery","lat":41.751073,"lng":-72.57198,"addr":"Hillstown Road","type":"mosque"},{"id":"xx407304_-734520","name":"Masjid Bilal","lat":40.730399,"lng":-73.451957,"addr":"Fulton Street","type":"yes"},{"id":"xx407658_-735707","name":"Islamic Center of Long Island","lat":40.765779,"lng":-73.570713,"addr":"Brush Hollow Road","type":"yes"},{"id":"xx418120_-722521","name":"Islamic Center at UConn","lat":41.81199,"lng":-72.252116,"addr":"North Eagleville Road","type":"yes"},{"id":"xx417700_-725188","name":"Bayt Ul-Mamur Mosque","lat":41.770036,"lng":-72.518823,"addr":"","type":"yes"},{"id":"xx407224_-734873","name":"St. James Catholic Church","lat":40.722393,"lng":-73.487296,"addr":"Hicksville Road","type":"yes"},{"id":"xx407616_-740368","name":"Miftaahul Uloom Academy","lat":40.761649,"lng":-74.036836,"addr":"15th Street","type":"school"},{"id":"xx407616_-740369","name":"Miftaahul Uloom Academy","lat":40.761593,"lng":-74.036871,"addr":"15th Street","type":"school"},{"id":"xx407021_-743167","name":"St. James the Apostle","lat":40.702103,"lng":-74.316747,"addr":"South Springfield Avenue","type":"yes"},{"id":"xx426615_-737631","name":"Muhammads Mosque","lat":42.661494,"lng":-73.763052,"addr":"Clinton Avenue","type":"yes"},{"id":"xx407854_-739486","name":"Islamic Cultural Center of New York","lat":40.785403,"lng":-73.94865,"addr":"","type":"mosque"},{"id":"xx407399_-736983","name":"Hillside Islamic Center","lat":40.73994,"lng":-73.698291,"addr":"Hillside Avenue","type":"church"},{"id":"xx417320_-726750","name":"Islamic place","lat":41.732002,"lng":-72.675013,"addr":"Franklin Avenue","type":"yes"},{"id":"xx411158_-734172","name":"Al-Madany Islamic Center of Norwalk","lat":41.115819,"lng":-73.417172,"addr":"Union Park Place","type":"yes"},{"id":"xx407021_-743168","name":"St. James the Apostle","lat":40.702085,"lng":-74.316775,"addr":"South Springfield Avenue","type":"yes"},{"id":"xx407854_-739487","name":"Islamic Cultural Center of New York","lat":40.785378,"lng":-73.948668,"addr":"","type":"mosque"},{"id":"xx406566_-736697","name":"Saint James United Methodist Church","lat":40.656641,"lng":-73.669679,"addr":"","type":"yes"},{"id":"xx414004_-743221","name":"Saint James Episcopal Church","lat":41.400427,"lng":-74.322093,"addr":"Saint James Place","type":"yes"},{"id":"xx407739_-738975","name":"Islamic place","lat":40.773942,"lng":-73.897488,"addr":"","type":"yes"},{"id":"xx409629_-740591","name":"Muslim Community Center of Paramus","lat":40.962918,"lng":-74.059051,"addr":"","type":"yes"},{"id":"xx403842_-743428","name":"Bait-ul-Hadi Mosque","lat":40.384192,"lng":-74.342836,"addr":"South Street","type":"yes"},{"id":"xx403842_-743429","name":"Bait-ul-Hadi Mosque","lat":40.384169,"lng":-74.342867,"addr":"South Street","type":"yes"},{"id":"xx406426_-737066","name":"Islamic Center Of Five Towns Masjid Hewlett","lat":40.642649,"lng":-73.706596,"addr":"Hamilton Avenue","type":"yes"},{"id":"xx407001_-745473","name":"St. James","lat":40.700124,"lng":-74.547312,"addr":"","type":"yes"},{"id":"xx416601_-726669","name":"Saint James Church","lat":41.660143,"lng":-72.666883,"addr":"Elm Street","type":"church"},{"id":"xx406930_-737181","name":"Muhammadi Masjid","lat":40.693019,"lng":-73.718103,"addr":"Elmont Road","type":"yes"},{"id":"xx406858_-737162","name":"Islamic place","lat":40.685837,"lng":-73.716182,"addr":"Stuart Avenue","type":"mosque"},{"id":"xx444435_-731795","name":"Islamic Society of Vermont","lat":44.443483,"lng":-73.179529,"addr":"Swift Street","type":"yes"},{"id":"xx414178_-744062","name":"Middletown Islamic Center","lat":41.417841,"lng":-74.406179,"addr":"","type":"mosque"},{"id":"xx414179_-744062","name":"Middletown Islamic Center","lat":41.417882,"lng":-74.406244,"addr":"","type":"mosque"},{"id":"xx414186_-744051","name":"Middletown Islamic Center","lat":41.418577,"lng":-74.40512,"addr":"Ryerson Road","type":"mosque"},{"id":"xx403879_-745711","name":"Islamic Society of Central Jersey","lat":40.387857,"lng":-74.571115,"addr":"US-1","type":"yes"},{"id":"xx406837_-737517","name":"Islamic place","lat":40.683733,"lng":-73.751686,"addr":"","type":"mosque"},{"id":"xx427423_-737485","name":"Al-Hidaya Center","lat":42.742313,"lng":-73.748507,"addr":"Troy Schenectady Road","type":"yes"},{"id":"xx405299_-743152","name":"Muslim Community of New Jersey (MCNJ)","lat":40.529859,"lng":-74.315242,"addr":"South 2nd Street","type":"yes"},{"id":"xx405299_-743153","name":"Muslim Community of New Jersey (MCNJ)","lat":40.52986,"lng":-74.315273,"addr":"South 2nd Street","type":"yes"},{"id":"xx408427_-736927","name":"Port Washington Masjid","lat":40.842748,"lng":-73.692711,"addr":"Harbor Road","type":"yes"},{"id":"xx408428_-736927","name":"Port Washington Masjid","lat":40.842784,"lng":-73.692745,"addr":"Harbor Road","type":"yes"},{"id":"xx407668_-736703","name":"Shelter Rock Islamic Center","lat":40.766761,"lng":-73.67025,"addr":"Shelter Rock Road","type":"mosque"},{"id":"xx407667_-736703","name":"Shelter Rock Islamic Center","lat":40.766737,"lng":-73.67027,"addr":"Shelter Rock Road","type":"mosque"},{"id":"xx436983_-739862","name":"Saint James Catholic Church","lat":43.698291,"lng":-73.986206,"addr":"Main Street","type":"church"},{"id":"xx430552_-743438","name":"Saint James Lutheran Church","lat":43.055208,"lng":-74.343809,"addr":"Grand Street","type":"yes"},{"id":"xx410408_-735594","name":"Stamford Islamic Center","lat":41.040832,"lng":-73.559404,"addr":"West Avenue","type":"yes"},{"id":"xx430552_-743439","name":"Saint James Lutheran Church","lat":43.055223,"lng":-74.343854,"addr":"Grand Street","type":"yes"},{"id":"xx407007_-742866","name":"Islamic Center of Union County","lat":40.70073,"lng":-74.286643,"addr":"","type":"mosque"},{"id":"xx417591_-726860","name":"Muhammad Islamic Center of Greater Hartford","lat":41.75907,"lng":-72.686026,"addr":"Hungerford Street","type":"yes"},{"id":"xx407007_-742867","name":"Islamic Center of Union County","lat":40.700709,"lng":-74.286661,"addr":"","type":"mosque"},{"id":"xx414179_-733550","name":"Al Hedaya Islamic Center","lat":41.417927,"lng":-73.354985,"addr":"Mount Pleasant Road","type":"yes"},{"id":"xx433834_-726367","name":"St James United Methodist","lat":43.383439,"lng":-72.636705,"addr":"Main Street","type":"church"},{"id":"xx408523_-748302","name":"Saint James' Episcopal Church","lat":40.852252,"lng":-74.830166,"addr":"Washington Street","type":"yes"},{"id":"xx427334_-737083","name":"Fique Mosque","lat":42.733445,"lng":-73.708268,"addr":"23rd Street","type":"mosque"},{"id":"xx418011_-718847","name":"Saint James Catholic Church","lat":41.801052,"lng":-71.884704,"addr":"Franklin Street","type":"church"},{"id":"xx417428_-721774","name":"Islamic Center of Willimantic","lat":41.742776,"lng":-72.177378,"addr":"Industrial Park Road","type":"yes"},{"id":"xx435289_-703194","name":"Saint James' Church","lat":43.528873,"lng":-70.319412,"addr":"Winslow Homer Road","type":"church"},{"id":"xx413486_-739542","name":"Saint James Chapel","lat":41.348609,"lng":-73.954166,"addr":"Route 9D","type":"yes"},{"id":"xx417698_-725218","name":"Saint James Church","lat":41.769811,"lng":-72.521791,"addr":"Main Street","type":"church"},{"id":"xx413224_-730882","name":"Immanuel Saint James Episcopal Church","lat":41.322375,"lng":-73.088211,"addr":"Minerva Street","type":"yes"},{"id":"xx413427_-729265","name":"Islamic Center of Hamden","lat":41.342659,"lng":-72.926541,"addr":"Newhall Street","type":"yes"},{"id":"xx415292_-730363","name":"Albanian American Muslim Community","lat":41.529199,"lng":-73.036257,"addr":"Raymond Street","type":"yes"},{"id":"xx418707_-724650","name":"Minhaj-ul-Quran Al-Noor Islamic Center","lat":41.870659,"lng":-72.465039,"addr":"","type":"yes"},{"id":"xx416814_-729757","name":"Daar-ul-Ehsaan USA Headquarters","lat":41.681357,"lng":-72.975707,"addr":"Terryville Avenue","type":"yes"},{"id":"xx414017_-734594","name":"Danbury Masjid Islamic Society of Western Connecticut","lat":41.401693,"lng":-73.459399,"addr":"Main Street","type":"yes"},{"id":"xx416032_-727515","name":"Islamic Association of Greater Hartford Berlin Mosque","lat":41.603165,"lng":-72.751458,"addr":"Berlin Turnpike","type":"yes"},{"id":"xx416643_-727818","name":"Masjid Al-Taqwa","lat":41.66429,"lng":-72.781848,"addr":"Arch Street","type":"yes"},{"id":"xx418117_-726715","name":"Madina Masjid","lat":41.81165,"lng":-72.671464,"addr":"White Rock Drive","type":"yes"},{"id":"xx413549_-720828","name":"Islamic Center of New London","lat":41.354852,"lng":-72.08281,"addr":"Fort Street","type":"yes"},{"id":"xx413226_-732602","name":"Monroe Masjid","lat":41.322556,"lng":-73.260186,"addr":"Pepper Street","type":"yes"},{"id":"xx413091_-729430","name":"Masjid Al-Islam","lat":41.309102,"lng":-72.942982,"addr":"George Street","type":"yes"},{"id":"xx417785_-726088","name":"Masjid al-Mustafa","lat":41.778541,"lng":-72.608776,"addr":"Church Street","type":"yes"},{"id":"xx415603_-730400","name":"United Muslim Masjid","lat":41.560259,"lng":-73.039995,"addr":"Prospect Street","type":"yes"},{"id":"xx412926_-729627","name":"West Haven Masjid","lat":41.29264,"lng":-72.962688,"addr":"Pruden Street","type":"yes"},{"id":"xx417665_-728596","name":"Farmington Valley American Muslim Center","lat":41.766475,"lng":-72.859609,"addr":"Harris Road","type":"yes"},{"id":"xx417220_-728277","name":"Saint James Episcopal Church","lat":41.722045,"lng":-72.827669,"addr":"","type":"yes"},{"id":"xx418030_-725933","name":"Islamic Center of South Windsor","lat":41.803029,"lng":-72.593296,"addr":"Long Hill Road","type":"yes"},{"id":"xx415682_-730421","name":"Albanian American Cultural and Islamic Center","lat":41.568246,"lng":-73.042114,"addr":"Columbia Boulevard","type":"yes"},{"id":"xx417151_-726097","name":"Saint James Episcopal Church","lat":41.715112,"lng":-72.609706,"addr":"Main Street","type":"yes"},{"id":"xx415351_-727972","name":"Masjid Al-Rawdah","lat":41.535101,"lng":-72.797157,"addr":"East Main Street","type":"yes"},{"id":"xx413571_-720991","name":"Saint James Episcopal Church","lat":41.357094,"lng":-72.099095,"addr":"Federal Street","type":"church"},{"id":"xx413426_-729266","name":"Islamic Center of Hamden","lat":41.342645,"lng":-72.926568,"addr":"Newhall Street","type":"yes"},{"id":"xx418706_-724651","name":"Minhaj-ul-Quran Al-Noor Islamic Center","lat":41.870633,"lng":-72.465072,"addr":"","type":"yes"},{"id":"xx416813_-729757","name":"Daar-ul-Ehsaan USA Headquarters","lat":41.681348,"lng":-72.975737,"addr":"Terryville Avenue","type":"yes"},{"id":"xx416643_-727819","name":"Masjid Al-Taqwa","lat":41.664282,"lng":-72.781875,"addr":"Arch Street","type":"yes"},{"id":"xx414504_-728229","name":"Islamic Center of Wallingford","lat":41.450417,"lng":-72.822901,"addr":"South Whittlesey Avenue","type":"yes"},{"id":"xx414636_-725558","name":"Saint James Episcopal Church","lat":41.463632,"lng":-72.555751,"addr":"Killingworth Road","type":"yes"},{"id":"xx406164_-746270","name":"Al Falah Islamic Center","lat":40.616445,"lng":-74.627049,"addr":"","type":"yes"},{"id":"xx406164_-746271","name":"Al Falah Islamic Center","lat":40.616417,"lng":-74.627102,"addr":"","type":"yes"},{"id":"xx430741_-731547","name":"Saint James Episcopal Church","lat":43.074112,"lng":-73.154702,"addr":"Church Street","type":"yes;religious"},{"id":"xx430741_-731548","name":"Saint James Episcopal Church","lat":43.074123,"lng":-73.154765,"addr":"Church Street","type":"yes;religious"},{"id":"xx404576_-743038","name":"Masjid Sadar & Community Center","lat":40.45764,"lng":-74.303814,"addr":"Ernston Road","type":"yes"},{"id":"xx402348_-747574","name":"St. James Roman Catholic Church","lat":40.234785,"lng":-74.757423,"addr":"East Paul Avenue","type":"yes"},{"id":"xx402348_-747575","name":"St. James Roman Catholic Church","lat":40.234785,"lng":-74.757452,"addr":"East Paul Avenue","type":"yes"},{"id":"xx400829_-749756","name":"Muslim Youth Center of Philadelphia","lat":40.082933,"lng":-74.975634,"addr":"Knights Road","type":"mosque"},{"id":"xx400829_-749757","name":"Muslim Youth Center of Philadelphia","lat":40.082928,"lng":-74.975652,"addr":"Knights Road","type":"mosque"},{"id":"xx408357_-742470","name":"Islamic Center of Verona","lat":40.835744,"lng":-74.247004,"addr":"Grove Avenue","type":"commercial"},{"id":"xx403062_-740572","name":"Saint James Memorial Episcopal Church","lat":40.306215,"lng":-74.057155,"addr":"","type":"church"},{"id":"xx408926_-741420","name":"Ulu Cami","lat":40.89259,"lng":-74.142047,"addr":"Knickerbocker Avenue","type":"mosque"},{"id":"xx408926_-741421","name":"Ulu Cami","lat":40.892619,"lng":-74.142055,"addr":"Knickerbocker Avenue","type":"mosque"},{"id":"xx407228_-740601","name":"Muslim Federation of NJ","lat":40.722763,"lng":-74.060081,"addr":"Montgomery Street","type":"mosque"},{"id":"xx400137_-749398","name":"Bait Al Qayem Mosque","lat":40.013667,"lng":-74.939775,"addr":"Conrow Road","type":"yes"},{"id":"xx405825_-742151","name":"Masjid Al-Islam","lat":40.582547,"lng":-74.2151,"addr":"Roosevelt Avenue","type":"yes"},{"id":"xx407227_-740601","name":"Muslim Federation of NJ","lat":40.722747,"lng":-74.060117,"addr":"Montgomery Street","type":"mosque"},{"id":"xx400137_-749399","name":"Bait Al Qayem Mosque","lat":40.013685,"lng":-74.93985,"addr":"Conrow Road","type":"yes"},{"id":"xx433162_-736567","name":"M Khan Islamic Society of Upstate NY","lat":43.316228,"lng":-73.656745,"addr":"","type":"yes"},{"id":"xx425452_-709813","name":"Islamic place","lat":42.545213,"lng":-70.981315,"addr":"","type":"mosque"},{"id":"xx416583_-746880","name":"Islamic Center of Monticello","lat":41.658314,"lng":-74.688026,"addr":"Cottage Street","type":"yes"},{"id":"xx409274_-738178","name":"Islamic place","lat":40.927418,"lng":-73.817843,"addr":"Brookfield Road","type":"mosque"},{"id":"xx409273_-738177","name":"Westchester Muslim Center","lat":40.927293,"lng":-73.81771,"addr":"","type":"yes"},{"id":"xx429332_-722801","name":"St. James Episcopal Church","lat":42.933188,"lng":-72.280096,"addr":"","type":"yes"},{"id":"xx409274_-738179","name":"Islamic place","lat":40.927392,"lng":-73.817925,"addr":"Brookfield Road","type":"mosque"},{"id":"xx407652_-741954","name":"Islamic place","lat":40.765211,"lng":-74.195377,"addr":"North 18th Street","type":"mosque"},{"id":"xx409051_-742126","name":"Saint James Roman Catholic Church","lat":40.90513,"lng":-74.212572,"addr":"","type":"yes"},{"id":"xx408696_-741101","name":"Albanian American Islamic Center","lat":40.86956,"lng":-74.110064,"addr":"","type":"yes"},{"id":"xx426614_-737630","name":"Muhammads Mosque","lat":42.661435,"lng":-73.762994,"addr":"","type":"mosque"},{"id":"xx414242_-736782","name":"Saint James the Apostle Catholic Church","lat":41.424167,"lng":-73.678178,"addr":"Gleneida Avenue","type":"church"},{"id":"xx427383_-736754","name":"Al-Hidaya Mosque","lat":42.738273,"lng":-73.675428,"addr":"15th Street","type":"yes"},{"id":"xx409896_-738000","name":"Church of Saint James the Less","lat":40.989552,"lng":-73.799982,"addr":"","type":"church"},{"id":"xx409895_-738000","name":"Church of Saint James the Less","lat":40.989538,"lng":-73.799996,"addr":"","type":"church"},{"id":"xx406914_-735264","name":"Islamic place","lat":40.691437,"lng":-73.526363,"addr":"","type":"yes"},{"id":"xx427624_-738797","name":"Islamic place","lat":42.762446,"lng":-73.879651,"addr":"","type":"mosque"},{"id":"xx409348_-738859","name":"Islamic place","lat":40.934802,"lng":-73.885922,"addr":"Walnut Street","type":"school"},{"id":"xx405071_-746465","name":"Islamic place","lat":40.507113,"lng":-74.646505,"addr":"","type":"mosque"}]