[{"id":"xx433027_53739","name":"Mosquée al-Taqwa","lat":43.302723,"lng":5.373925,"addr":"","type":"place_of_worship"},{"id":"xx433136_53743","name":"La Grande Mosquée de la Sounna","lat":43.313606,"lng":5.374282,"addr":"","type":"place_of_worship"},{"id":"xx433108_53775","name":"Mosqué El Imane","lat":43.310774,"lng":5.377456,"addr":"Marseille","type":"place_of_worship"},{"id":"xx433094_53729","name":"A.F.M","lat":43.309354,"lng":5.372853,"addr":"Rue de Ruffi","type":"mosque"},{"id":"xx433279_53917","name":"Mosquée de Font Vert","lat":43.327947,"lng":5.391684,"addr":"","type":"place_of_worship"},{"id":"xx431313_59783","name":"Mosquée des Saintes Maries","lat":43.131305,"lng":5.978348,"addr":"","type":"place_of_worship"},{"id":"xx433619_53173","name":"Mosquée de l'Estaque","lat":43.361913,"lng":5.317264,"addr":"","type":"place_of_worship"},{"id":"xx436208_69730","name":"Islamic place","lat":43.620793,"lng":6.97297,"addr":"","type":"place_of_worship"},{"id":"xx433009_53768","name":"Islamic place","lat":43.300915,"lng":5.376847,"addr":"","type":"place_of_worship"},{"id":"xx437302_72517","name":"Mosquée El Amine","lat":43.730151,"lng":7.251702,"addr":"","type":"place_of_worship"},{"id":"xx433109_53773","name":"Islamic place","lat":43.310882,"lng":5.377257,"addr":"","type":"place_of_worship"},{"id":"xx436775_72050","name":"Pompes Funèbres Musulmanes de Nice","lat":43.677485,"lng":7.205004,"addr":"Boulevard Paul Montel","type":"mosque"},{"id":"xx435766_50000","name":"Islamic place","lat":43.576594,"lng":5.00002,"addr":"","type":"place_of_worship"},{"id":"xx433262_53621","name":"Mosquee Islâh","lat":43.326169,"lng":5.362117,"addr":"","type":"place_of_worship"},{"id":"xx436219_70455","name":"Mosquée de Sophia Antipolis","lat":43.621886,"lng":7.045475,"addr":"","type":"place_of_worship"},{"id":"xx433352_53606","name":"Mosquée MARIAM","lat":43.335247,"lng":5.360586,"addr":"","type":"place_of_worship"},{"id":"xx432843_54572","name":"mosquée du bosquet","lat":43.284277,"lng":5.457182,"addr":"","type":"place_of_worship"},{"id":"xx431976_56178","name":"Mosquée de la Ciotat","lat":43.197579,"lng":5.617799,"addr":"","type":"place_of_worship"},{"id":"xx433002_53724","name":"Mosquée des Grands Carmes","lat":43.30021,"lng":5.372433,"addr":"Place des Grands Carmes","type":"place_of_worship"},{"id":"xx436762_72026","name":"Islamic place","lat":43.676227,"lng":7.202615,"addr":"","type":"place_of_worship"},{"id":"xx436706_72087","name":"Mosquée (Centre Culturel des Musulmans de Nice)","lat":43.670617,"lng":7.20866,"addr":"","type":"place_of_worship"},{"id":"xx436932_71939","name":"Mosquée Al Ghofrane","lat":43.693242,"lng":7.193894,"addr":"","type":"place_of_worship"},{"id":"xx437061_72636","name":"Mosquée Al-Wahda (L’union)","lat":43.706092,"lng":7.263602,"addr":"","type":"place_of_worship"},{"id":"xx437231_72930","name":"Mosquée Al-fath","lat":43.723129,"lng":7.292958,"addr":"","type":"place_of_worship"},{"id":"xx436758_72033","name":"Mosquée As-Salaam - مسجد","lat":43.675814,"lng":7.20331,"addr":"","type":"place_of_worship"},{"id":"xx436762_72029","name":"Omca mosquée","lat":43.676164,"lng":7.202879,"addr":"","type":"place_of_worship"},{"id":"xx437226_71174","name":"Mosquée Essalem","lat":43.72264,"lng":7.1174,"addr":"","type":"place_of_worship"},{"id":"xx436945_71913","name":"Mosquée de l'Oued","lat":43.694479,"lng":7.191266,"addr":"","type":"place_of_worship"},{"id":"xx435595_69689","name":"Mosquée (Association Culturelle Franco-Turque de Cannes - DITIB Cannes)","lat":43.559547,"lng":6.968855,"addr":"","type":"place_of_worship"},{"id":"xx436746_72250","name":"Mosquée 🕌","lat":43.674596,"lng":7.225041,"addr":"","type":"place_of_worship"},{"id":"xx440960_62333","name":"Mosquée (Association Cultuelle Turque Alpes de Haute-Provence)","lat":44.096009,"lng":6.233251,"addr":"","type":"place_of_worship"},{"id":"xx439574_57950","name":"Mosquée de Forcalquierمسجدالسلام","lat":43.957361,"lng":5.794993,"addr":"","type":"place_of_worship"},{"id":"xx435355_54089","name":"Mosquée - Les Deux Ormes","lat":43.535526,"lng":5.408894,"addr":"","type":"place_of_worship"},{"id":"xx435236_54322","name":"Mosquée René Guénon","lat":43.52357,"lng":5.432203,"addr":"","type":"place_of_worship"},{"id":"xx433557_53604","name":"Mosquée Bilal Ben Rabah","lat":43.355723,"lng":5.360408,"addr":"","type":"place_of_worship"},{"id":"xx433179_53751","name":"Mosquée (Association Culturelle Musulmane)","lat":43.317945,"lng":5.375082,"addr":"","type":"place_of_worship"},{"id":"xx433679_53709","name":"Mosquée / Salle de Prière la Savine","lat":43.36792,"lng":5.370939,"addr":"","type":"place_of_worship"},{"id":"xx433340_54007","name":"Mosquée Essalam","lat":43.334007,"lng":5.400749,"addr":"","type":"place_of_worship"},{"id":"xx433852_53697","name":"Mosquée de la Solidarité","lat":43.385174,"lng":5.369661,"addr":"","type":"place_of_worship"},{"id":"xx433305_54113","name":"Mosquée du 13","lat":43.330498,"lng":5.411331,"addr":"","type":"place_of_worship"},{"id":"xx434419_52484","name":"Grande Mosquée de Vitrolles","lat":43.441915,"lng":5.248392,"addr":"","type":"place_of_worship"},{"id":"xx449071_57834","name":"Mosquée (ACPM)","lat":44.907091,"lng":5.783405,"addr":"","type":"place_of_worship"},{"id":"xx431327_59872","name":"Mosquée Ponant","lat":43.13266,"lng":5.987169,"addr":"","type":"place_of_worship"},{"id":"xx431272_58972","name":"Mosquée Bayt Allah (ACCP - Association Culturelle et Cultuelle de Pontcarral)","lat":43.127175,"lng":5.897162,"addr":"","type":"place_of_worship"},{"id":"xx431325_58826","name":"Mosquée Ibn Taymiya de la Beaucaire à Toulon","lat":43.13251,"lng":5.882608,"addr":"","type":"place_of_worship"},{"id":"xx440405_50310","name":"Mosquée de Carpentras","lat":44.040462,"lng":5.031029,"addr":"","type":"place_of_worship"},{"id":"xx438406_50417","name":"Grande Mosquée de Cavaillon (Mosquée Attawba)","lat":43.840626,"lng":5.041741,"addr":"","type":"place_of_worship"},{"id":"xx433012_53794","name":"Mosquée Bilal Ben Rabah","lat":43.301192,"lng":5.37936,"addr":"","type":"place_of_worship"},{"id":"xx432974_53779","name":"Islamic place","lat":43.297371,"lng":5.377931,"addr":"","type":"yes"},{"id":"xx432952_53803","name":"Mosquée Tahara","lat":43.295214,"lng":5.38034,"addr":"","type":"yes"},{"id":"xx433048_53718","name":"Mosquée Khalid Ibn Al Walid","lat":43.304825,"lng":5.371806,"addr":"","type":"yes"},{"id":"xx435808_71131","name":"Mosquée Le Rappel","lat":43.580792,"lng":7.113106,"addr":"Avenue du Châtaignier","type":"yes"},{"id":"xx434322_67616","name":"Mosquée de Fréjus","lat":43.432174,"lng":6.761604,"addr":"","type":"yes"},{"id":"xx438208_57881","name":"Association Culturelle des Français Musulmans","lat":43.820829,"lng":5.788104,"addr":"Rue des Cabris","type":"yes"},{"id":"xx432848_55787","name":"Dar Es-Salam","lat":43.28479,"lng":5.5787,"addr":"Chemin du Merlançon","type":"mosque"},{"id":"xx436515_51046","name":"Mosquée de Salon-de-Provence","lat":43.65146,"lng":5.104607,"addr":"","type":"yes"},{"id":"xx435298_64701","name":"Islamic place","lat":43.529811,"lng":6.470125,"addr":"","type":"yes"},{"id":"xx436886_72008","name":"Institut En-Nour","lat":43.688649,"lng":7.200775,"addr":"","type":"yes"},{"id":"xx436887_72008","name":"Institut En-Nour","lat":43.688653,"lng":7.200774,"addr":"","type":"yes"},{"id":"xx432767_54082","name":"Mosquée En-Nasr","lat":43.276718,"lng":5.408194,"addr":"","type":"mosque"},{"id":"xx434950_63612","name":"Islamic place","lat":43.495025,"lng":6.361246,"addr":"","type":"yes"},{"id":"xx435604_69661","name":"Centre Iqraa","lat":43.560445,"lng":6.966088,"addr":"Avenue Michel Jourdan","type":"yes"},{"id":"xx435604_69660","name":"Centre Iqraa","lat":43.560428,"lng":6.966044,"addr":"Avenue Michel Jourdan","type":"yes"},{"id":"xx432280_54036","name":"Al Fourqane la cayolle","lat":43.227951,"lng":5.403589,"addr":"","type":"mosque"},{"id":"xx433257_54117","name":"Mosquée des Cèdres","lat":43.325686,"lng":5.411712,"addr":"Rue de Marathon","type":"mosque"},{"id":"xx431153_58605","name":"Islamic place","lat":43.115267,"lng":5.860498,"addr":"","type":"mosque"},{"id":"xx431152_58605","name":"Islamic place","lat":43.115216,"lng":5.860469,"addr":"","type":"mosque"},{"id":"xx422985_91707","name":"Mosquée de Corte","lat":42.298521,"lng":9.170747,"addr":"","type":"yes"},{"id":"xx435227_70487","name":"Cimetière musulman","lat":43.522668,"lng":7.048667,"addr":"","type":"mosque"},{"id":"xx435226_70487","name":"Cimetière musulman","lat":43.522618,"lng":7.048665,"addr":"","type":"mosque"},{"id":"xx433258_54117","name":"Islamic place","lat":43.325758,"lng":5.411709,"addr":"","type":"mosque"},{"id":"xx444141_89259","name":"Centro culturale d'amicizia","lat":44.414102,"lng":8.925874,"addr":"","type":"place_of_worship"},{"id":"xx445303_79490","name":"Islamic place","lat":44.530348,"lng":7.948955,"addr":"","type":"place_of_worship"},{"id":"xx449166_86150","name":"Centro Culturale Islamico","lat":44.916628,"lng":8.614965,"addr":"Via Verona","type":"place_of_worship"},{"id":"xx446973_78391","name":"Islamic place","lat":44.697344,"lng":7.839131,"addr":"Viale Industria","type":"place_of_worship"},{"id":"xx437926_76058","name":"Masjid Mosque Bab Assalaam (Centro Culturale Fratellanza)","lat":43.792631,"lng":7.605811,"addr":"Via Lodovico Aprosio","type":"place_of_worship"},{"id":"xx438766_80085","name":"Anatolia Milli Gorus","lat":43.876553,"lng":8.008475,"addr":"","type":"place_of_worship"},{"id":"xx444103_89291","name":"Dawah Center","lat":44.410331,"lng":8.929125,"addr":"Via di Sottoripa","type":"place_of_worship"},{"id":"xx444152_89252","name":"Al-Fajr","lat":44.415225,"lng":8.925214,"addr":"Piazza Durazzo","type":"place_of_worship"},{"id":"xx449916_89828","name":"Moschea di Voghera","lat":44.991558,"lng":8.982822,"addr":"","type":"warehouse"},{"id":"xx449915_89828","name":"Moschea di Voghera","lat":44.991533,"lng":8.982813,"addr":"","type":"warehouse"},{"id":"xx444794_78909","name":"Islamic place","lat":44.479381,"lng":7.890936,"addr":"","type":"yes"},{"id":"xx448936_81885","name":"Cimitero islamico","lat":44.893644,"lng":8.188528,"addr":"","type":"grave_yard"},{"id":"xx444337_89485","name":"Campo 21","lat":44.433725,"lng":8.948527,"addr":"","type":"mosque"},{"id":"xx449230_86289","name":"Cimitero musulmano","lat":44.922972,"lng":8.628927,"addr":"","type":"mosque"},{"id":"xx449230_86288","name":"Cimitero musulmano","lat":44.922953,"lng":8.628768,"addr":"","type":"mosque"}]