[{"id":"xx432961_682709","name":"Қылует жерастындағы мешіті","lat":43.296073,"lng":68.270919,"addr":"","type":"place_of_worship"},{"id":"xx432959_682706","name":"Жұма мешіті","lat":43.295866,"lng":68.270611,"addr":"","type":"place_of_worship"},{"id":"xx432970_682719","name":"Рабиғи Сұлтан Бегім кесенесі","lat":43.29699,"lng":68.271882,"addr":"Түркістан","type":"place_of_worship"},{"id":"xx423081_696417","name":"Мечеть","lat":42.308118,"lng":69.641728,"addr":"Сайрамская улица","type":"place_of_worship"},{"id":"xx414680_692127","name":"Islamic place","lat":41.467968,"lng":69.212662,"addr":"","type":"place_of_worship"},{"id":"xx422936_695799","name":"Мечеть","lat":42.293624,"lng":69.579881,"addr":"","type":"place_of_worship"},{"id":"xx420903_698131","name":"Islamic place","lat":42.090272,"lng":69.813107,"addr":"","type":"place_of_worship"},{"id":"xx421837_698540","name":"Islamic place","lat":42.1837,"lng":69.854046,"addr":"","type":"place_of_worship"},{"id":"xx421950_698070","name":"Islamic place","lat":42.19499,"lng":69.807035,"addr":"","type":"place_of_worship"},{"id":"xx433314_681923","name":"Islamic place","lat":43.331407,"lng":68.192349,"addr":"","type":"place_of_worship"},{"id":"xx433884_680218","name":"Islamic place","lat":43.38845,"lng":68.02181,"addr":"","type":"place_of_worship"},{"id":"xx428984_690020","name":"Islamic place","lat":42.898373,"lng":69.001969,"addr":"","type":"place_of_worship"},{"id":"xx423906_699758","name":"Islamic place","lat":42.390575,"lng":69.975848,"addr":"","type":"place_of_worship"},{"id":"xx408135_681715","name":"Islamic place","lat":40.813521,"lng":68.171471,"addr":"","type":"place_of_worship"},{"id":"xx432831_681976","name":"Кок мечеть ЖОЛДЫН АСТЫ","lat":43.283148,"lng":68.197557,"addr":"Абу Сандыбай улица","type":"place_of_worship"},{"id":"xx414658_691623","name":"Islamic place","lat":41.465837,"lng":69.162267,"addr":"","type":"place_of_worship"},{"id":"xx417385_690262","name":"мечит","lat":41.738506,"lng":69.026241,"addr":"","type":"place_of_worship"},{"id":"xx414706_691330","name":"Islamic place","lat":41.470621,"lng":69.133049,"addr":"улица М Маметова","type":"place_of_worship"},{"id":"xx414734_691413","name":"Islamic place","lat":41.473427,"lng":69.141265,"addr":"","type":"place_of_worship"},{"id":"xx433035_683066","name":"Алпамыс батыр мечеть","lat":43.303476,"lng":68.306589,"addr":"Гаухар батыр улица","type":"place_of_worship"},{"id":"xx432804_683173","name":"Мечеть Наз","lat":43.280397,"lng":68.31725,"addr":"Ы.Исмаилов улица","type":"place_of_worship"},{"id":"xx432848_682815","name":"Намазхана","lat":43.284792,"lng":68.281523,"addr":"М.Абенова улица","type":"place_of_worship"},{"id":"xx432905_682855","name":"Алходжа ата мечеть-мавзолей","lat":43.29052,"lng":68.285512,"addr":"А.Туткабаев улица","type":"place_of_worship"},{"id":"xx432934_681966","name":"Мечеть ТУРКПОСЕЛОК","lat":43.293399,"lng":68.196574,"addr":"Б.Койшыбаев улица","type":"place_of_worship"},{"id":"xx433051_682883","name":"Мечеть По Казыбек БИ Жуковский","lat":43.305052,"lng":68.288316,"addr":"Казыбек би улица","type":"place_of_worship"},{"id":"xx433059_682780","name":"Ынтымақ мешіті","lat":43.305913,"lng":68.277984,"addr":"Әйтеке би улица","type":"place_of_worship"},{"id":"xx433117_682755","name":"Мечеть","lat":43.311698,"lng":68.275518,"addr":"","type":"place_of_worship"},{"id":"xx433219_682878","name":"Ар-Рахман мечеть","lat":43.321864,"lng":68.287803,"addr":"А.Юсупов улица","type":"place_of_worship"},{"id":"xx433146_682676","name":"Мечеть Ыждыхат","lat":43.314566,"lng":68.267579,"addr":"Ыждыхат улица","type":"place_of_worship"},{"id":"xx433100_682625","name":"Мечеть","lat":43.310004,"lng":68.262467,"addr":"К.Сатпаев улица","type":"place_of_worship"},{"id":"xx432821_682551","name":"Фердоуси мечеть Ортак 2 Улицф","lat":43.282118,"lng":68.255106,"addr":"Ортак 2 улица","type":"place_of_worship"},{"id":"xx432837_682472","name":"Хазрети Абу-Бакир мечеть","lat":43.283684,"lng":68.247167,"addr":"Х.Башиков улица","type":"place_of_worship"},{"id":"xx432924_682407","name":"Игилик мечеть","lat":43.292382,"lng":68.240713,"addr":"К.Мунайтбасов улица","type":"place_of_worship"},{"id":"xx432895_682522","name":"Фахриддин Абу-Бакир кажы мечеть","lat":43.289519,"lng":68.25221,"addr":"С.Нарбаева улица","type":"place_of_worship"},{"id":"xx433024_682618","name":"Мечеть","lat":43.302445,"lng":68.261839,"addr":"Н.Торекулов улица","type":"place_of_worship"},{"id":"xx433010_682544","name":"Магзаман мечеть","lat":43.301017,"lng":68.254427,"addr":"Шайхантауыр улица","type":"place_of_worship"},{"id":"xx432935_682504","name":"Ортак мечеть","lat":43.293503,"lng":68.250433,"addr":"Ш.Ниязов улица","type":"place_of_worship"},{"id":"xx432887_682186","name":"Намазхана по Толе би","lat":43.288679,"lng":68.218567,"addr":"Толе би улица","type":"place_of_worship"},{"id":"xx432929_682278","name":"Туркестан мечеть","lat":43.292873,"lng":68.227763,"addr":"","type":"place_of_worship"},{"id":"xx432917_682178","name":"Мечеть","lat":43.291713,"lng":68.217778,"addr":"Т.Турманов улица","type":"place_of_worship"},{"id":"xx432996_682106","name":"Мечеть","lat":43.299582,"lng":68.210563,"addr":"О.Жарылкапов улица","type":"place_of_worship"},{"id":"xx432973_682172","name":"Мечеть по Аубакир","lat":43.297262,"lng":68.217222,"addr":"Аубакир кары улица","type":"place_of_worship"},{"id":"xx433089_682144","name":"Мечеть","lat":43.308935,"lng":68.214364,"addr":"","type":"place_of_worship"},{"id":"xx433032_682033","name":"Бекболат ата намазхана","lat":43.303184,"lng":68.203276,"addr":"Ж.Саин улица","type":"place_of_worship"},{"id":"xx433003_682052","name":"Мечеть","lat":43.300307,"lng":68.205238,"addr":"Бекежанов улица","type":"place_of_worship"},{"id":"xx433003_681927","name":"Шилмембет ата мечеть по Балахаева","lat":43.300328,"lng":68.192723,"addr":"М.Балахаев улица","type":"place_of_worship"},{"id":"xx432799_682086","name":"Абжаппар ата мечеть ЖОЛДЫН АСТЫ","lat":43.279925,"lng":68.208635,"addr":"Карабура аулие улица","type":"place_of_worship"},{"id":"xx414905_692824","name":"Курбанкожа мечеть","lat":41.490488,"lng":69.282404,"addr":"","type":"place_of_worship"},{"id":"xx423804_694952","name":"Торлан","lat":42.380369,"lng":69.495244,"addr":"","type":"place_of_worship"},{"id":"xx423166_696664","name":"Смаил-ата Мечеть","lat":42.316613,"lng":69.666436,"addr":"Шымкент","type":"place_of_worship"},{"id":"xx423405_695423","name":"Мастура Кажы","lat":42.340496,"lng":69.542267,"addr":"","type":"place_of_worship"},{"id":"xx422988_697616","name":"Хызыр мұнарасы","lat":42.29881,"lng":69.761607,"addr":"","type":"mosque"},{"id":"xx428751_696700","name":"Домалақ ана кесенесі","lat":42.875102,"lng":69.669984,"addr":"","type":"yes"},{"id":"xx423241_695770","name":"Islamic place","lat":42.324134,"lng":69.577026,"addr":"","type":"place_of_worship"},{"id":"xx423432_696784","name":"Тура жол мешіті","lat":42.343238,"lng":69.678414,"addr":"","type":"place_of_worship"},{"id":"xx423244_696305","name":"Ислам жолы мешіті","lat":42.324379,"lng":69.63046,"addr":"","type":"place_of_worship"},{"id":"xx432813_682276","name":"Islamic place","lat":43.281251,"lng":68.227581,"addr":"","type":"mosque"},{"id":"xx432760_682202","name":"Ак мечеть ЖОЛДЫН АСТЫ","lat":43.276008,"lng":68.220182,"addr":"Жангир хан улица","type":"place_of_worship"},{"id":"xx434040_682621","name":"Мечеть","lat":43.404011,"lng":68.262115,"addr":"","type":"place_of_worship"},{"id":"xx433985_682552","name":"Главная Мечеть","lat":43.398524,"lng":68.255171,"addr":"","type":"place_of_worship"},{"id":"xx413933_691049","name":"Навобод","lat":41.393338,"lng":69.104935,"addr":"Нарметова","type":"place_of_worship"},{"id":"xx414041_691344","name":"Islamic place","lat":41.404116,"lng":69.134357,"addr":"Абылайхан","type":"place_of_worship"},{"id":"xx414093_691574","name":"Islamic place","lat":41.409277,"lng":69.157427,"addr":"Турмахан ата","type":"place_of_worship"},{"id":"xx414048_691407","name":"Islamic place","lat":41.404752,"lng":69.140682,"addr":"Абылайхан","type":"place_of_worship"},{"id":"xx413953_691133","name":"Islamic place","lat":41.395315,"lng":69.113279,"addr":"М.Ауезов","type":"place_of_worship"},{"id":"xx413995_691146","name":"Islamic place","lat":41.399479,"lng":69.114606,"addr":"О.Ермухамедулы","type":"place_of_worship"},{"id":"xx423364_695313","name":"Islamic place","lat":42.336426,"lng":69.531322,"addr":"","type":"place_of_worship"},{"id":"xx423668_695138","name":"Islamic place","lat":42.366842,"lng":69.513787,"addr":"","type":"place_of_worship"},{"id":"xx423750_697011","name":"Мечеть Карабура","lat":42.374992,"lng":69.701111,"addr":"","type":"place_of_worship"},{"id":"xx412557_679721","name":"Жаңа мешіт","lat":41.255667,"lng":67.97211,"addr":"","type":"place_of_worship"},{"id":"xx414640_693593","name":"G‘isht ko‘prik jome’ masjidi","lat":41.463965,"lng":69.359268,"addr":"","type":"place_of_worship"},{"id":"xx413550_690972","name":"jom'e masjid","lat":41.354977,"lng":69.097229,"addr":"","type":"place_of_worship"},{"id":"xx410952_686919","name":"Islamic place","lat":41.095166,"lng":68.691913,"addr":"Алдан Тұралимов","type":"place_of_worship"},{"id":"xx422335_698106","name":"мечеть Елтай","lat":42.233546,"lng":69.81057,"addr":"","type":"place_of_worship"},{"id":"xx435200_685177","name":"Абу Бакир намазхана","lat":43.520019,"lng":68.517731,"addr":"улица Ататюрка","type":"place_of_worship"},{"id":"xx424226_687976","name":"Ықылас","lat":42.42262,"lng":68.797625,"addr":"","type":"mosque"},{"id":"xx424135_687812","name":"Шарапат Мешіт","lat":42.413481,"lng":68.781238,"addr":"улица Алтынсарина","type":"place_of_worship"},{"id":"xx424038_687913","name":"Al Haq","lat":42.403812,"lng":68.791299,"addr":"","type":"place_of_worship"},{"id":"xx424374_688215","name":"Islamic place","lat":42.437388,"lng":68.821519,"addr":"","type":"place_of_worship"},{"id":"xx424302_688171","name":"Islamic place","lat":42.430183,"lng":68.817108,"addr":"","type":"place_of_worship"},{"id":"xx424287_688091","name":"ӘбдіҒаппар","lat":42.428719,"lng":68.809127,"addr":"","type":"place_of_worship"},{"id":"xx432253_682676","name":"Mausoleum","lat":43.225346,"lng":68.267552,"addr":"","type":"yes"},{"id":"xx435870_676471","name":"Ноғай ата","lat":43.587002,"lng":67.647125,"addr":"","type":"place_of_worship"},{"id":"xx417589_695912","name":"Ысмайыл ата кесенесі","lat":41.758855,"lng":69.591171,"addr":"","type":"yes"},{"id":"xx423180_697806","name":"Ибраһим-ата мешіті","lat":42.317976,"lng":69.780553,"addr":"","type":"place_of_worship"},{"id":"xx423107_697694","name":"Сопы Аллаяр мешіті","lat":42.310744,"lng":69.769354,"addr":"","type":"place_of_worship"},{"id":"xx432972_682703","name":"Атаусыз кесене","lat":43.297184,"lng":68.270317,"addr":"Түркістан","type":"place_of_worship"},{"id":"xx432974_682717","name":"Тәуке Хан кесенесі","lat":43.297382,"lng":68.271688,"addr":"","type":"place_of_worship"},{"id":"xx432973_682713","name":"Есім Хан кесенесі","lat":43.297277,"lng":68.271256,"addr":"","type":"place_of_worship"},{"id":"xx432969_682664","name":"Хан Мешіті","lat":43.296856,"lng":68.266352,"addr":"","type":"place_of_worship"},{"id":"xx416761_693919","name":"Islamic place","lat":41.676065,"lng":69.391871,"addr":"","type":"place_of_worship"},{"id":"xx445112_661809","name":"средняя школа №141 имени К. Сабирова.","lat":44.511153,"lng":66.180852,"addr":"улица Астана, здание 2А","type":"school"},{"id":"xx445072_661804","name":"Мечеть Асан-Усен","lat":44.507152,"lng":66.180446,"addr":"Улица Бейбитшилик","type":"place_of_worship"},{"id":"xx438848_669178","name":"Дуйсен Ата","lat":43.884798,"lng":66.917752,"addr":"","type":"place_of_worship"},{"id":"xx417587_695911","name":"Қошқар Ата кесенесі","lat":41.758701,"lng":69.591083,"addr":"","type":"yes"},{"id":"xx424443_688285","name":"Кыдырбай Кажы","lat":42.444274,"lng":68.828526,"addr":"улица Ардагер","type":"place_of_worship"},{"id":"xx424415_688527","name":"Хазрат Абу Бакр Ас-Сыдык","lat":42.441514,"lng":68.852666,"addr":"","type":"place_of_worship"},{"id":"xx424232_687810","name":"Журын Кожа","lat":42.423205,"lng":68.781002,"addr":"","type":"place_of_worship"},{"id":"xx424243_687863","name":"Мечеть Ал Фатиха","lat":42.424269,"lng":68.786299,"addr":"улица Арапова","type":"place_of_worship"},{"id":"xx423515_695293","name":"Акмечеть имени шейха Халифы бен Заида ан-Нахайяна","lat":42.351487,"lng":69.52929,"addr":"Тамерлановское шоссе","type":"mosque"},{"id":"xx422922_695698","name":"Зират","lat":42.292207,"lng":69.569757,"addr":"","type":"mosque"},{"id":"xx432976_682712","name":"Қожа Ахмет Ясауи кесенесі","lat":43.297613,"lng":68.271153,"addr":"","type":"yes"},{"id":"xx433343_681807","name":"Islamic place","lat":43.33428,"lng":68.180749,"addr":"","type":"mosque"},{"id":"xx414679_692127","name":"Islamic place","lat":41.467854,"lng":69.212683,"addr":"улица Байтерек","type":"yes"},{"id":"xx435906_693388","name":"Islamic place","lat":43.590597,"lng":69.338755,"addr":"","type":"place_of_worship"},{"id":"xx414685_693748","name":"Islamic place","lat":41.468538,"lng":69.374815,"addr":"","type":"mosque"},{"id":"xx414681_691491","name":"Кызыл ту","lat":41.468127,"lng":69.14908,"addr":"улица Ы.Алтынсарина","type":"yes"},{"id":"xx414525_691818","name":"Islamic place","lat":41.452508,"lng":69.181803,"addr":"улица Исмаилова","type":"mosque"},{"id":"xx414524_691814","name":"Islamic place","lat":41.452406,"lng":69.181354,"addr":"улица Исмаилова","type":"mosque"},{"id":"xx417127_690132","name":"Жылға зираты","lat":41.712678,"lng":69.013209,"addr":"","type":"mosque"},{"id":"xx417141_690131","name":"Жылга мешити","lat":41.714074,"lng":69.013083,"addr":"","type":"place_of_worship"},{"id":"xx414560_691572","name":"Islamic place","lat":41.456003,"lng":69.157198,"addr":"","type":"yes"},{"id":"xx414501_691498","name":"Islamic place","lat":41.45012,"lng":69.149836,"addr":"","type":"mosque"},{"id":"xx417392_690258","name":"Islamic place","lat":41.739179,"lng":69.025796,"addr":"","type":"mosque"},{"id":"xx414484_691632","name":"Islamic place","lat":41.448376,"lng":69.163181,"addr":"Исмаилова","type":"yes"},{"id":"xx437663_691799","name":"Islamic place","lat":43.766271,"lng":69.179888,"addr":"","type":"mosque"},{"id":"xx432963_682898","name":"Ескі Қаракөз қорымы","lat":43.296266,"lng":68.289844,"addr":"","type":"grave_yard"},{"id":"xx432866_682838","name":"Бала би Тамабай мазары","lat":43.286576,"lng":68.283762,"addr":"Туркестан","type":"grave_yard"},{"id":"xx432746_682095","name":"Islamic place","lat":43.274554,"lng":68.209544,"addr":"","type":"grave_yard"},{"id":"xx433125_682708","name":"Мусульманское кладбище","lat":43.312531,"lng":68.270797,"addr":"Туркестан","type":"grave_yard"},{"id":"xx433117_682442","name":"Асанбай ата","lat":43.311716,"lng":68.244166,"addr":"Тауелсиздиктин 10 жылдыгы улица","type":"place_of_worship"},{"id":"xx433187_682635","name":"Islamic place","lat":43.318707,"lng":68.263547,"addr":"","type":"grave_yard"},{"id":"xx432904_682752","name":"Кумшык ата","lat":43.290447,"lng":68.275211,"addr":"Тоган улица","type":"place_of_worship"},{"id":"xx433117_682441","name":"Islamic place","lat":43.311651,"lng":68.244086,"addr":"","type":"yes"},{"id":"xx448495_655145","name":"Islamic place","lat":44.8495,"lng":65.514543,"addr":"","type":"mosque"},{"id":"xx448216_656231","name":"Islamic place","lat":44.821626,"lng":65.623127,"addr":"","type":"mosque"},{"id":"xx415745_690766","name":"Islamic place","lat":41.574498,"lng":69.076613,"addr":"","type":"mosque"},{"id":"xx437293_699272","name":"Islamic place","lat":43.729256,"lng":69.927224,"addr":"","type":"mosque"},{"id":"xx429917_699318","name":"Байдибек-баба","lat":42.991652,"lng":69.931815,"addr":"","type":"mosque"},{"id":"xx447968_691627","name":"Islamic place","lat":44.796822,"lng":69.162659,"addr":"","type":"mosque"},{"id":"xx437587_669132","name":"Корасан","lat":43.758717,"lng":66.913174,"addr":"","type":"yes"},{"id":"xx437602_670709","name":"Islamic place","lat":43.760203,"lng":67.070905,"addr":"","type":"place_of_worship"},{"id":"xx447758_655649","name":"Мазар","lat":44.775764,"lng":65.564934,"addr":"","type":"mosque"},{"id":"xx408440_684936","name":"Ибраева Канаевский","lat":40.843952,"lng":68.493569,"addr":"","type":"mosque"},{"id":"xx435489_697545","name":"Islamic place","lat":43.548889,"lng":69.754471,"addr":"","type":"mosque"},{"id":"xx447867_655268","name":"Акмешит-Сырдарья мечеть","lat":44.786656,"lng":65.526771,"addr":"Султана Бейбарыса улица","type":"mosque"},{"id":"xx414913_692926","name":"Islamic place","lat":41.491295,"lng":69.292649,"addr":"","type":"mosque"},{"id":"xx426011_692558","name":"Бегалы ата","lat":42.601106,"lng":69.255823,"addr":"","type":"yes"},{"id":"xx425898_692529","name":"Islamic place","lat":42.589799,"lng":69.252869,"addr":"","type":"grave_yard"},{"id":"xx423572_695985","name":"Халифа Омар","lat":42.357237,"lng":69.59849,"addr":"Улица Жабай ата","type":"yes"},{"id":"xx429752_688538","name":"Islamic place","lat":42.975189,"lng":68.853778,"addr":"","type":"mosque"},{"id":"xx425267_697678","name":"Мечеть Ашбулак","lat":42.526728,"lng":69.767784,"addr":"","type":"yes"},{"id":"xx433247_683144","name":"Көк Мешіт","lat":43.324731,"lng":68.31441,"addr":"Озбекали Жанибекова","type":"place_of_worship"},{"id":"xx438631_687517","name":"Жыныс-ата","lat":43.863081,"lng":68.751723,"addr":"","type":"mosque"},{"id":"xx423416_695929","name":"Мечеть","lat":42.341574,"lng":69.592939,"addr":"улица Казиева","type":"yes"},{"id":"xx425982_692632","name":"Мешіт","lat":42.598224,"lng":69.263198,"addr":"","type":"yes"},{"id":"xx423395_695830","name":"Мечеть имени Д.Конаева","lat":42.339469,"lng":69.582952,"addr":"улица Адильбек Керимше","type":"yes"},{"id":"xx448296_657165","name":"Islamic place","lat":44.829614,"lng":65.716456,"addr":"","type":"mosque"},{"id":"xx439431_666885","name":"Islamic place","lat":43.943081,"lng":66.68849,"addr":"","type":"mosque"},{"id":"xx441516_668053","name":"Islamic place","lat":44.151649,"lng":66.80526,"addr":"","type":"mosque"},{"id":"xx423223_695484","name":"Islamic place","lat":42.322257,"lng":69.548355,"addr":"улица Гагарина","type":"yes"},{"id":"xx429401_689208","name":"Islamic place","lat":42.940111,"lng":68.920775,"addr":"","type":"mosque"},{"id":"xx448308_655448","name":"Islamic place","lat":44.830787,"lng":65.544801,"addr":"","type":"mosque"},{"id":"xx423090_696014","name":"Мечеть Ордабасы","lat":42.308976,"lng":69.601392,"addr":"улица Толе Би","type":"yes"},{"id":"xx422998_697561","name":"Жұма мешіті","lat":42.299752,"lng":69.75613,"addr":"","type":"yes"},{"id":"xx435067_684960","name":"Орталык Мешит Кентау","lat":43.506703,"lng":68.496044,"addr":"","type":"mosque"},{"id":"xx435066_684959","name":"Центральный мечеть","lat":43.506629,"lng":68.495942,"addr":"Кентау","type":"yes"},{"id":"xx435063_684964","name":"Islamic place","lat":43.50634,"lng":68.496367,"addr":"Кентау","type":"yes"},{"id":"xx434986_684753","name":"Islamic place","lat":43.498599,"lng":68.47529,"addr":"","type":"mosque"},{"id":"xx434974_684786","name":"Islamic place","lat":43.497384,"lng":68.478613,"addr":"","type":"grave_yard"},{"id":"xx414693_692376","name":"Сыргелі Орталық Мешыты","lat":41.469314,"lng":69.237649,"addr":"","type":"mosque"},{"id":"xx440289_670227","name":"Islamic place","lat":44.028895,"lng":67.022742,"addr":"","type":"yes"},{"id":"xx439159_672666","name":"Мечеть Жанакорган","lat":43.915862,"lng":67.266584,"addr":"Хорасан ата проспект","type":"yes"},{"id":"xx437901_671913","name":"Islamic place","lat":43.790087,"lng":67.19131,"addr":"","type":"yes"},{"id":"xx441929_667842","name":"Islamic place","lat":44.192937,"lng":66.784179,"addr":"","type":"yes"},{"id":"xx441839_667315","name":"Мечить Шанхай","lat":44.183866,"lng":66.731491,"addr":"Боранов","type":"yes"},{"id":"xx443153_664758","name":"Islamic place","lat":44.315251,"lng":66.475812,"addr":"","type":"yes"},{"id":"xx442070_664963","name":"Islamic place","lat":44.207031,"lng":66.496337,"addr":"","type":"yes"},{"id":"xx422991_695930","name":"Islamic place","lat":42.299093,"lng":69.593044,"addr":"Переулок Дамыл","type":"yes"},{"id":"xx418990_694566","name":"Islamic place","lat":41.89898,"lng":69.456575,"addr":"","type":"yes"},{"id":"xx418766_694377","name":"Islamic place","lat":41.876569,"lng":69.437728,"addr":"","type":"mosque"},{"id":"xx423639_694318","name":"Islamic place","lat":42.363892,"lng":69.431771,"addr":"","type":"yes"},{"id":"xx437666_691796","name":"Центральная мечеть села Шолаккорган","lat":43.766591,"lng":69.179606,"addr":"Жибек Жолы","type":"yes"},{"id":"xx417140_690131","name":"Жылга мешити","lat":41.713971,"lng":69.013066,"addr":"","type":"mosque"},{"id":"xx414501_691495","name":"Islamic place","lat":41.450113,"lng":69.149467,"addr":"","type":"mosque"},{"id":"xx414008_691674","name":"Islamic place","lat":41.400844,"lng":69.167421,"addr":"","type":"yes"},{"id":"xx438914_687510","name":"Islamic place","lat":43.891432,"lng":68.750998,"addr":"","type":"mosque"},{"id":"xx435926_692403","name":"Islamic place","lat":43.592604,"lng":69.240305,"addr":"","type":"mosque"},{"id":"xx447766_655285","name":"Islamic place","lat":44.776603,"lng":65.528497,"addr":"","type":"mosque"},{"id":"xx414729_692438","name":"Islamic place","lat":41.472884,"lng":69.243834,"addr":"","type":"mosque"},{"id":"xx423170_696377","name":"Islamic place","lat":42.317009,"lng":69.637736,"addr":"Шымкент","type":"yes"},{"id":"xx408671_685882","name":"Islamic place","lat":40.867124,"lng":68.588171,"addr":"","type":"mosque"},{"id":"xx423224_695452","name":"Islamic place","lat":42.32245,"lng":69.545155,"addr":"Бархатная","type":"yes"},{"id":"xx423766_697204","name":"Islamic place","lat":42.376583,"lng":69.7204,"addr":"Шымкент","type":"yes"},{"id":"xx423546_696254","name":"Islamic place","lat":42.354593,"lng":69.625397,"addr":"Улица Ертаргын","type":"yes"},{"id":"xx422986_695840","name":"Мечеть Назармат","lat":42.298551,"lng":69.583988,"addr":"Улица Назармат Ерметова","type":"yes"},{"id":"xx423108_696150","name":"Имам Ағзам мешіті","lat":42.310775,"lng":69.614963,"addr":"Улица Туркестанская","type":"yes"},{"id":"xx407043_683610","name":"додо Кыдир","lat":40.704336,"lng":68.361045,"addr":"Гүлістан","type":"yes"},{"id":"xx423853_695525","name":"Islamic place","lat":42.385251,"lng":69.552482,"addr":"Улица Нұртау көшесі","type":"yes"},{"id":"xx423017_697684","name":"Islamic place","lat":42.301682,"lng":69.768407,"addr":"Амира Тимура","type":"yes"},{"id":"xx424290_698499","name":"Убайдулло Ота масжиди","lat":42.429043,"lng":69.849864,"addr":"улица Ибн Сина","type":"yes"},{"id":"xx424347_698564","name":"Мечеть Жалал баба","lat":42.434716,"lng":69.856387,"addr":"улица Жалал-Ата","type":"yes"},{"id":"xx423217_696850","name":"Ерғаш қажы мешіті","lat":42.321747,"lng":69.684973,"addr":"Шымкент","type":"yes"},{"id":"xx408399_685419","name":"Ақ Мешіт","lat":40.839899,"lng":68.541869,"addr":"Ташкентская тр, улица","type":"yes"},{"id":"xx408665_681914","name":"Islamic place","lat":40.866521,"lng":68.191438,"addr":"","type":"mosque"},{"id":"xx405972_684999","name":"Islamic place","lat":40.597211,"lng":68.49989,"addr":"","type":"mosque"},{"id":"xx432128_690331","name":"Islamic place","lat":43.212754,"lng":69.033149,"addr":"","type":"mosque"},{"id":"xx435273_685816","name":"Мечеть","lat":43.527314,"lng":68.581591,"addr":"Хантагы","type":"yes"},{"id":"xx435268_685104","name":"Мечеть Абубакир кари","lat":43.526779,"lng":68.510374,"addr":"улица Шахтерская","type":"yes"},{"id":"xx423875_696307","name":"Islamic place","lat":42.387533,"lng":69.630738,"addr":"Проспект Байдибек би","type":"yes"},{"id":"xx421205_699087","name":"Islamic place","lat":42.120517,"lng":69.908683,"addr":"","type":"yes"},{"id":"xx420985_698887","name":"Islamic place","lat":42.098495,"lng":69.888694,"addr":"","type":"yes"},{"id":"xx423782_693134","name":"Islamic place","lat":42.378177,"lng":69.313433,"addr":"","type":"yes"},{"id":"xx423924_692409","name":"Islamic place","lat":42.392421,"lng":69.240908,"addr":"","type":"yes"},{"id":"xx407888_683158","name":"Мечеть Калдыкыз ана","lat":40.788754,"lng":68.315752,"addr":"улица Ескендирова","type":"yes"},{"id":"xx407836_683337","name":"Islamic place","lat":40.783563,"lng":68.333731,"addr":"","type":"yes"},{"id":"xx409026_683582","name":"Асық-Ата мешіті","lat":40.902625,"lng":68.358208,"addr":"ул Стаымбекова","type":"yes"},{"id":"xx441473_684695","name":"Мечеть Ногай Ишан","lat":44.147281,"lng":68.469491,"addr":"","type":"yes"},{"id":"xx424474_688100","name":"Әлтәйқызы Құралайқажы","lat":42.447368,"lng":68.809977,"addr":"Арыс","type":"yes"},{"id":"xx424218_688123","name":"Islamic place","lat":42.421776,"lng":68.812337,"addr":"","type":"mosque"},{"id":"xx437629_695667","name":"Islamic place","lat":43.762866,"lng":69.566669,"addr":"","type":"yes"},{"id":"xx437688_696124","name":"Islamic place","lat":43.768848,"lng":69.61238,"addr":"","type":"yes"},{"id":"xx423559_696493","name":"Seitzhan Qari Eszhanuly Mosque","lat":42.355859,"lng":69.649263,"addr":"Шымкент","type":"yes"},{"id":"xx421838_698540","name":"Нур","lat":42.183823,"lng":69.853985,"addr":"Толе би","type":"yes"},{"id":"xx439124_672328","name":"Islamic place","lat":43.912386,"lng":67.232848,"addr":"","type":"mosque"},{"id":"xx441371_669776","name":"Сығанақ мечеть","lat":44.137077,"lng":66.977627,"addr":"Аралбаев","type":"yes"},{"id":"xx442232_667375","name":"Islamic place","lat":44.223195,"lng":66.737516,"addr":"","type":"yes"},{"id":"xx448194_654834","name":"Islamic place","lat":44.819389,"lng":65.483429,"addr":"","type":"mosque"},{"id":"xx423837_692623","name":"Islamic place","lat":42.383659,"lng":69.262327,"addr":"","type":"yes"},{"id":"xx435570_681065","name":"Islamic place","lat":43.556958,"lng":68.106457,"addr":"","type":"yes"},{"id":"xx435180_684845","name":"Балаби Медресе","lat":43.518021,"lng":68.484461,"addr":"переулок Шакарима","type":"yes"},{"id":"xx433729_684813","name":"Islamic place","lat":43.372908,"lng":68.481314,"addr":"","type":"yes"},{"id":"xx410954_686858","name":"Кобен Ешан","lat":41.095357,"lng":68.685824,"addr":"Жамбыла Жабаева","type":"yes"},{"id":"xx410954_686859","name":"Islamic place","lat":41.095443,"lng":68.685947,"addr":"","type":"mosque"},{"id":"xx410905_686918","name":"№39 Лесбек Жолдасов атындағы жалпы мектебі","lat":41.090525,"lng":68.691825,"addr":"Ыбырая Алтынсарина","type":"school"},{"id":"xx411066_686980","name":"Islamic place","lat":41.106644,"lng":68.698024,"addr":"","type":"mosque"},{"id":"xx422314_698109","name":"Islamic place","lat":42.231437,"lng":69.810883,"addr":"","type":"mosque"},{"id":"xx412438_689704","name":"Islamic place","lat":41.243776,"lng":68.9704,"addr":"","type":"mosque"},{"id":"xx441770_667458","name":"Нур Иман","lat":44.177,"lng":66.745774,"addr":"Нуркеева","type":"yes"},{"id":"xx424106_688058","name":"Islamic place","lat":42.410632,"lng":68.805762,"addr":"","type":"place_of_worship"},{"id":"xx424335_688006","name":"Islamic place","lat":42.43348,"lng":68.800643,"addr":"","type":"mosque"},{"id":"xx432765_683390","name":"Islamic place","lat":43.276532,"lng":68.33898,"addr":"","type":"mosque"},{"id":"xx432759_683388","name":"Islamic place","lat":43.27586,"lng":68.338807,"addr":"160-й квартал","type":"yes"},{"id":"xx424476_688100","name":"әлтөйқызы мұралайқажы мечіті","lat":42.447589,"lng":68.810027,"addr":"","type":"place_of_worship"},{"id":"xx424239_687863","name":"Әл-Фатиха","lat":42.42386,"lng":68.786273,"addr":"","type":"place_of_worship"},{"id":"xx432925_682737","name":"Ахмет Ясауи Мешіті","lat":43.292486,"lng":68.273708,"addr":"","type":"mosque"},{"id":"xx417629_693819","name":"Молалы мешіті","lat":41.762871,"lng":69.381899,"addr":"Валиханов","type":"yes"},{"id":"xx417447_693886","name":"Қазығұрт орталық мешіті","lat":41.744708,"lng":69.388608,"addr":"Конаева","type":"yes"},{"id":"xx417449_693885","name":"Қазығұрт орталық мешіті","lat":41.744874,"lng":69.388532,"addr":"","type":"yes"},{"id":"xx424720_696318","name":"Islamic place","lat":42.471954,"lng":69.631796,"addr":"","type":"yes"},{"id":"xx441451_667010","name":"№207 орта мектеп","lat":44.145055,"lng":66.700983,"addr":"Аймағанбетов","type":"school"},{"id":"xx439272_672620","name":"Мечеть Аль Мумин","lat":43.927205,"lng":67.261986,"addr":"Тауелсиздик","type":"yes"},{"id":"xx412744_679579","name":"Мечеть Аль-Фаттах","lat":41.274381,"lng":67.95794,"addr":"Арыстана Турдыкулова","type":"yes"},{"id":"xx437970_671262","name":"Орталық Мешіт","lat":43.796957,"lng":67.126206,"addr":"","type":"mosque"},{"id":"xx437971_671263","name":"Аула","lat":43.797095,"lng":67.12629,"addr":"","type":"mosque"},{"id":"xx424907_694092","name":"Islamic place","lat":42.490656,"lng":69.409232,"addr":"улица Кунаева","type":"yes"},{"id":"xx424811_694143","name":"Ар Рашид","lat":42.481096,"lng":69.414253,"addr":"КАЛМЕТОВ КОЙЛЫБАЙ","type":"yes"},{"id":"xx414767_691897","name":"Islamic place","lat":41.476677,"lng":69.189687,"addr":"улица Ягулвари","type":"yes"},{"id":"xx425226_697760","name":"Ашбулак","lat":42.52257,"lng":69.775953,"addr":"улица Сагинтаева","type":"yes"},{"id":"xx421825_698838","name":"Мечеть Уш ата","lat":42.182493,"lng":69.883787,"addr":"Айтеке би","type":"yes"},{"id":"xx435521_684827","name":"Islamic place","lat":43.552093,"lng":68.482746,"addr":"Володарский көшесі","type":"yes"},{"id":"xx434979_684782","name":"Әмина мешіті","lat":43.49788,"lng":68.478162,"addr":"улица Жумабаева","type":"yes"},{"id":"xx435590_697287","name":"Islamic place","lat":43.559009,"lng":69.728655,"addr":"","type":"yes"},{"id":"xx435589_697288","name":"Islamic place","lat":43.558943,"lng":69.728841,"addr":"","type":"mosque"},{"id":"xx435689_697386","name":"Islamic place","lat":43.568905,"lng":69.738557,"addr":"","type":"yes"},{"id":"xx435687_697389","name":"Islamic place","lat":43.568688,"lng":69.738889,"addr":"","type":"mosque"},{"id":"xx430011_699968","name":"Байдибек-ата","lat":43.001097,"lng":69.996793,"addr":"","type":"mosque"},{"id":"xx435852_697737","name":"Islamic place","lat":43.585208,"lng":69.773743,"addr":"","type":"mosque"},{"id":"xx435847_697779","name":"Islamic place","lat":43.584692,"lng":69.777919,"addr":"","type":"mosque"},{"id":"xx435405_697530","name":"Islamic place","lat":43.540496,"lng":69.753023,"addr":"","type":"mosque"},{"id":"xx434973_684880","name":"Намазхана Бургем","lat":43.497314,"lng":68.487985,"addr":"Кентау","type":"yes"},{"id":"xx428199_684363","name":"Темір ауылдық мешіт","lat":42.81993,"lng":68.436287,"addr":"","type":"yes"},{"id":"xx435156_683554","name":"Islamic place","lat":43.515593,"lng":68.355431,"addr":"","type":"yes"},{"id":"xx435159_683554","name":"Islamic place","lat":43.51586,"lng":68.355434,"addr":"","type":"mosque"},{"id":"xx441668_667395","name":"Мечеть","lat":44.166849,"lng":66.739474,"addr":"","type":"yes"},{"id":"xx424878_693911","name":"Әсіпбек қажы","lat":42.487791,"lng":69.391127,"addr":"Әсіпбек Омаров көшесі","type":"mosque"},{"id":"xx412656_680020","name":"Islamic place","lat":41.265585,"lng":68.00203,"addr":"Нуртаса Ондасынова","type":"yes"},{"id":"xx423386_695037","name":"Islamic place","lat":42.338562,"lng":69.5037,"addr":"Шардара улица","type":"yes"},{"id":"xx407815_683069","name":"Центральная мечеть им. Нугмана ибн Сабита","lat":40.781489,"lng":68.306862,"addr":"улица Кожанова","type":"yes"},{"id":"xx407651_683145","name":"Нур-Жетысай","lat":40.765099,"lng":68.314491,"addr":"улица Мухтара Ауезова","type":"yes"},{"id":"xx407831_683098","name":"Среднаяя школа №4 имени Абая Кунанбаева","lat":40.783099,"lng":68.309821,"addr":"улица Ескендирова","type":"school"},{"id":"xx424839_694014","name":"Исламқұлов атындағы орта мектеп","lat":42.483869,"lng":69.401434,"addr":"улица Канаева","type":"school"},{"id":"xx424964_694113","name":"Достық орта мектебі","lat":42.496399,"lng":69.411346,"addr":"0 КОШЕ","type":"school"},{"id":"xx407486_682686","name":"мечеть Қаныбек қажы","lat":40.74855,"lng":68.268629,"addr":"Әбдіхалық","type":"place_of_worship"},{"id":"xx407486_682690","name":"Islamic place","lat":40.748561,"lng":68.269031,"addr":"","type":"yes"},{"id":"xx407992_683456","name":"Islamic place","lat":40.799182,"lng":68.345559,"addr":"","type":"mosque"},{"id":"xx408029_683170","name":"Islamic place","lat":40.80295,"lng":68.316987,"addr":"","type":"mosque"},{"id":"xx407584_681701","name":"Islamic place","lat":40.758388,"lng":68.170095,"addr":"","type":"mosque"},{"id":"xx407584_681702","name":"мечеть им мода Сарсенбай","lat":40.758441,"lng":68.170224,"addr":"Байконыс","type":"yes"},{"id":"xx407303_682015","name":"мечеть Аль Малик","lat":40.73033,"lng":68.201537,"addr":"село КАРОЙ","type":"yes"},{"id":"xx407360_683018","name":"Бескетік қорымы","lat":40.736024,"lng":68.301841,"addr":"","type":"mosque"},{"id":"xx407593_683073","name":"Білім Патшалығы","lat":40.759253,"lng":68.307288,"addr":"улица Мухтара Ауезова","type":"school"},{"id":"xx433728_684815","name":"Islamic place","lat":43.372844,"lng":68.481526,"addr":"","type":"mosque"},{"id":"xx434648_683145","name":"Islamic place","lat":43.464788,"lng":68.314529,"addr":"","type":"yes"},{"id":"xx408192_682642","name":"Сатбаев мечеть","lat":40.819157,"lng":68.264214,"addr":"","type":"yes"},{"id":"xx407656_683326","name":"Жастар мешіт","lat":40.765613,"lng":68.332572,"addr":"улица Жастар","type":"yes"},{"id":"xx407924_683239","name":"Мечеть Откелбай","lat":40.79236,"lng":68.323857,"addr":"улица Яссауи","type":"yes"},{"id":"xx407954_683514","name":"Islamic place","lat":40.795386,"lng":68.35136,"addr":"","type":"mosque"},{"id":"xx435522_689022","name":"Islamic place","lat":43.552173,"lng":68.902236,"addr":"","type":"yes"},{"id":"xx435523_689022","name":"Islamic place","lat":43.552258,"lng":68.902226,"addr":"","type":"mosque"},{"id":"xx433245_686706","name":"Islamic place","lat":43.324532,"lng":68.670565,"addr":"","type":"mosque"},{"id":"xx433395_686813","name":"Islamic place","lat":43.339468,"lng":68.681288,"addr":"","type":"yes"},{"id":"xx433394_686811","name":"Islamic place","lat":43.339419,"lng":68.681147,"addr":"","type":"mosque"},{"id":"xx433389_686799","name":"Islamic place","lat":43.338907,"lng":68.679885,"addr":"","type":"yes"},{"id":"xx433955_685948","name":"Islamic place","lat":43.395486,"lng":68.594769,"addr":"","type":"mosque"},{"id":"xx434105_686049","name":"Islamic place","lat":43.410514,"lng":68.604873,"addr":"","type":"yes"},{"id":"xx434359_688084","name":"Islamic place","lat":43.435882,"lng":68.808384,"addr":"","type":"mosque"},{"id":"xx434333_688124","name":"Islamic place","lat":43.433307,"lng":68.812362,"addr":"","type":"yes"},{"id":"xx435312_686032","name":"Islamic place","lat":43.53124,"lng":68.603215,"addr":"","type":"mosque"},{"id":"xx435273_685815","name":"Islamic place","lat":43.52735,"lng":68.581547,"addr":"","type":"mosque"},{"id":"xx407979_681945","name":"Сағындық ата мазары","lat":40.797935,"lng":68.194547,"addr":"","type":"mosque"},{"id":"xx435014_697872","name":"Islamic place","lat":43.501434,"lng":69.787241,"addr":"","type":"mosque"},{"id":"xx435105_697857","name":"Islamic place","lat":43.510519,"lng":69.785728,"addr":"","type":"yes"},{"id":"xx435105_697858","name":"Islamic place","lat":43.51053,"lng":69.785779,"addr":"","type":"mosque"},{"id":"xx433291_681791","name":"Islamic place","lat":43.329149,"lng":68.179123,"addr":"","type":"mosque"},{"id":"xx448456_655270","name":"Мечеть","lat":44.845639,"lng":65.52704,"addr":"","type":"yes"},{"id":"xx433333_682721","name":"Islamic place","lat":43.333276,"lng":68.272089,"addr":"Аягоз улица","type":"yes"},{"id":"xx432814_682277","name":"Накыпалты мечеть","lat":43.281386,"lng":68.227657,"addr":"Рамбердиева улица","type":"yes"},{"id":"xx424855_694298","name":"Имам Агзам","lat":42.485463,"lng":69.429751,"addr":"КАЗЫБЕК БИ","type":"yes"},{"id":"xx424575_694036","name":"Islamic place","lat":42.457474,"lng":69.403636,"addr":"30 Коше","type":"yes"},{"id":"xx407222_682879","name":"Islamic place","lat":40.722239,"lng":68.287945,"addr":"","type":"mosque"},{"id":"xx407223_682878","name":"Мечеть им  Абдигаппар Есентемир","lat":40.722302,"lng":68.287828,"addr":"","type":"yes"},{"id":"xx408474_685721","name":"Islamic place","lat":40.847446,"lng":68.572097,"addr":"","type":"mosque"},{"id":"xx408294_682614","name":"Islamic place","lat":40.82938,"lng":68.261355,"addr":"","type":"mosque"},{"id":"xx408193_682325","name":"Islamic place","lat":40.81934,"lng":68.232527,"addr":"","type":"mosque"},{"id":"xx408564_682978","name":"Islamic place","lat":40.856409,"lng":68.297813,"addr":"","type":"mosque"},{"id":"xx408565_682979","name":"Islamic place","lat":40.85651,"lng":68.29789,"addr":"Ақниет","type":"yes"},{"id":"xx408611_683039","name":"Islamic place","lat":40.861105,"lng":68.303941,"addr":"","type":"mosque"},{"id":"xx407375_682479","name":"Islamic place","lat":40.737511,"lng":68.247943,"addr":"","type":"mosque"},{"id":"xx406998_682028","name":"Islamic place","lat":40.699816,"lng":68.202846,"addr":"","type":"mosque"},{"id":"xx434876_683665","name":"Islamic place","lat":43.487598,"lng":68.366533,"addr":"","type":"mosque"},{"id":"xx407155_683271","name":"Islamic place","lat":40.71546,"lng":68.327131,"addr":"","type":"mosque"},{"id":"xx407043_683612","name":"Islamic place","lat":40.704258,"lng":68.361164,"addr":"","type":"mosque"},{"id":"xx420203_696030","name":"Мавзолей Св. Акбура","lat":42.020335,"lng":69.602994,"addr":"","type":"yes"},{"id":"xx424652_694327","name":"Islamic place","lat":42.465188,"lng":69.432654,"addr":"","type":"mosque"},{"id":"xx433011_682229","name":"Ас-салам","lat":43.301056,"lng":68.222916,"addr":"А.Байтурсынов улица","type":"yes"},{"id":"xx408765_683256","name":"Islamic place","lat":40.876483,"lng":68.325618,"addr":"","type":"mosque"},{"id":"xx408765_683255","name":"Islamic place","lat":40.876531,"lng":68.325548,"addr":"село Талапты","type":"yes"},{"id":"xx423979_694228","name":"Islamic place","lat":42.397927,"lng":69.422833,"addr":"","type":"yes"},{"id":"xx407817_683922","name":"мечеть им Бейсенбай Ата","lat":40.781663,"lng":68.392194,"addr":"","type":"yes"},{"id":"xx407532_684027","name":"Islamic place","lat":40.753216,"lng":68.402653,"addr":"","type":"yes"},{"id":"xx407565_683992","name":"Islamic place","lat":40.756524,"lng":68.399189,"addr":"","type":"yes"},{"id":"xx407841_684262","name":"Islamic place","lat":40.784063,"lng":68.426242,"addr":"село А.Калыбеков","type":"yes"},{"id":"xx407378_682925","name":"Islamic place","lat":40.737823,"lng":68.292509,"addr":"","type":"mosque"},{"id":"xx407830_683343","name":"Аль-Худус","lat":40.783018,"lng":68.33426,"addr":"улица Яссауи","type":"yes"},{"id":"xx408619_681876","name":"Islamic place","lat":40.861888,"lng":68.187593,"addr":"село Қараөзек","type":"school"},{"id":"xx408653_681885","name":"Сианбай-Ата мешіті","lat":40.865316,"lng":68.188547,"addr":"село Караозек","type":"yes"},{"id":"xx408654_681885","name":"Islamic place","lat":40.865384,"lng":68.188501,"addr":"","type":"mosque"},{"id":"xx408458_682331","name":"с.ш № 21 Әлия Молдағұлова","lat":40.845753,"lng":68.233082,"addr":"село Кетебай","type":"school"},{"id":"xx407310_682532","name":"c.ш № 22 Қ.А. Яссауй","lat":40.731035,"lng":68.25315,"addr":"","type":"school"},{"id":"xx407242_682503","name":"Islamic place","lat":40.724196,"lng":68.250267,"addr":"","type":"yes"},{"id":"xx407639_683012","name":"Қалдыбай Қажы мешіті","lat":40.763865,"lng":68.30116,"addr":"улица Калтурсын кажы","type":"yes"},{"id":"xx407640_683009","name":"Islamic place","lat":40.763983,"lng":68.300932,"addr":"","type":"mosque"},{"id":"xx419962_694801","name":"Islamic place","lat":41.996186,"lng":69.480057,"addr":"","type":"yes"},{"id":"xx419961_694800","name":"Islamic place","lat":41.996131,"lng":69.480024,"addr":"","type":"mosque"},{"id":"xx407636_684213","name":"Айша-ана мешіті","lat":40.763583,"lng":68.421294,"addr":"","type":"mosque"},{"id":"xx408539_681973","name":"Islamic place","lat":40.853876,"lng":68.19728,"addr":"","type":"mosque"},{"id":"xx409695_682073","name":"Islamic place","lat":40.969509,"lng":68.207324,"addr":"","type":"mosque"},{"id":"xx410591_681266","name":"Islamic place","lat":41.059098,"lng":68.126572,"addr":"","type":"mosque"},{"id":"xx407738_683127","name":"Islamic place","lat":40.773782,"lng":68.312688,"addr":"улица Ерубаева","type":"school"},{"id":"xx409682_687307","name":"Islamic place","lat":40.968201,"lng":68.730665,"addr":"","type":"mosque"},{"id":"xx409954_687597","name":"Islamic place","lat":40.995391,"lng":68.759681,"addr":"","type":"mosque"},{"id":"xx410177_687540","name":"Islamic place","lat":41.017745,"lng":68.753981,"addr":"","type":"mosque"},{"id":"xx411328_688375","name":"Islamic place","lat":41.132813,"lng":68.837482,"addr":"","type":"mosque"},{"id":"xx428345_697438","name":"Islamic place","lat":42.834543,"lng":69.743777,"addr":"","type":"yes"},{"id":"xx409720_680969","name":"Islamic place","lat":40.971988,"lng":68.096856,"addr":"Туркестан","type":"yes"},{"id":"xx409720_680967","name":"Islamic place","lat":40.971986,"lng":68.096653,"addr":"","type":"mosque"},{"id":"xx410406_681340","name":"Islamic place","lat":41.04064,"lng":68.134008,"addr":"","type":"mosque"},{"id":"xx441678_668146","name":"Islamic place","lat":44.167786,"lng":66.814617,"addr":"","type":"yes"},{"id":"xx408121_683596","name":"Найманбай ата","lat":40.812099,"lng":68.359563,"addr":"село Алгабас","type":"yes"},{"id":"xx408283_683716","name":"Islamic place","lat":40.828336,"lng":68.37164,"addr":"село Казыбек би","type":"school"},{"id":"xx408331_683763","name":"Нағанай-Ата","lat":40.833093,"lng":68.376317,"addr":"ул Толегенов","type":"yes"},{"id":"xx424039_695733","name":"Islamic place","lat":42.403858,"lng":69.573316,"addr":"Улица Дидар","type":"yes"},{"id":"xx410405_681339","name":"Islamic place","lat":41.040522,"lng":68.133913,"addr":"село КАРАСАКАЛ","type":"yes"},{"id":"xx409469_681624","name":"Islamic place","lat":40.946893,"lng":68.162422,"addr":"","type":"yes"},{"id":"xx409054_682146","name":"Islamic place","lat":40.905352,"lng":68.214554,"addr":"","type":"mosque"},{"id":"xx409055_682145","name":"Қалдыбек қажы мешіті","lat":40.905498,"lng":68.214485,"addr":"Мақталы ауылдық округі","type":"yes"},{"id":"xx408487_684026","name":"Islamic place","lat":40.848665,"lng":68.402608,"addr":"","type":"mosque"},{"id":"xx408487_684027","name":"мечеть Абылбек Адилхан","lat":40.848716,"lng":68.402724,"addr":"село Жамбыл","type":"yes"},{"id":"xx408615_684290","name":"Islamic place","lat":40.8615,"lng":68.429012,"addr":"","type":"mosque"},{"id":"xx408616_684291","name":"Ырыс","lat":40.861559,"lng":68.429052,"addr":"","type":"yes"},{"id":"xx408814_681180","name":"Шора Молда мазары","lat":40.881404,"lng":68.118008,"addr":"","type":"mosque"},{"id":"xx408426_679996","name":"Қоғалы мешіті","lat":40.842644,"lng":67.999597,"addr":"ул Орталық","type":"yes"},{"id":"xx408426_679997","name":"Islamic place","lat":40.842599,"lng":67.999693,"addr":"","type":"mosque"},{"id":"xx410124_682019","name":"НУРАН мешіт","lat":41.012361,"lng":68.201924,"addr":"село Алтынкөл","type":"yes"},{"id":"xx410124_682017","name":"Islamic place","lat":41.012356,"lng":68.201716,"addr":"","type":"mosque"},{"id":"xx441716_668154","name":"ескі мешіт","lat":44.171568,"lng":66.815383,"addr":"","type":"yes"},{"id":"xx409025_683582","name":"Islamic place","lat":40.902498,"lng":68.358248,"addr":"","type":"yes"},{"id":"xx409450_683490","name":"КГУ \"Общая средняя школа №44 \"Жана дала\"","lat":40.945029,"lng":68.348951,"addr":"Билим улица","type":"residential"},{"id":"xx409430_683539","name":"Атақұл Ата мешіті","lat":40.943048,"lng":68.353944,"addr":"Атакулата","type":"yes"},{"id":"xx409431_683538","name":"Islamic place","lat":40.943117,"lng":68.353838,"addr":"","type":"mosque"},{"id":"xx406870_682852","name":"Базарбай-ата мешіті","lat":40.687042,"lng":68.285187,"addr":"село Ж Қалшораев","type":"yes"},{"id":"xx406870_682851","name":"Islamic place","lat":40.686994,"lng":68.285133,"addr":"","type":"mosque"},{"id":"xx409350_685386","name":"Ильяс Ата мешіті","lat":40.934957,"lng":68.53857,"addr":"Көкпарсай","type":"yes"},{"id":"xx409348_685387","name":"Islamic place","lat":40.934781,"lng":68.538668,"addr":"","type":"mosque"},{"id":"xx433030_682770","name":"әл Кәусар мешіті","lat":43.303018,"lng":68.277009,"addr":"Г.Мусирепов улица","type":"yes"},{"id":"xx408149_681706","name":"Islamic place","lat":40.814902,"lng":68.170642,"addr":"","type":"yes"},{"id":"xx408151_681704","name":"Сағындық Мешіті","lat":40.815129,"lng":68.170374,"addr":"","type":"mosque"},{"id":"xx408154_681688","name":"Средняя школа имени Шокана Уалиханова","lat":40.815387,"lng":68.168773,"addr":"улица Майлина","type":"school"},{"id":"xx432953_682075","name":"Islamic place","lat":43.295322,"lng":68.207502,"addr":"З.Калауова улица","type":"yes"},{"id":"xx408519_681259","name":"Islamic place","lat":40.85185,"lng":68.125913,"addr":"","type":"yes"},{"id":"xx436925_677679","name":"Ноғай ата мешіті","lat":43.692501,"lng":67.767942,"addr":"","type":"yes"},{"id":"xx408024_685392","name":"Бірлік мешіті","lat":40.802445,"lng":68.539211,"addr":"Бірлік ауылдық округі","type":"yes"},{"id":"xx408026_685390","name":"Islamic place","lat":40.802573,"lng":68.538962,"addr":"","type":"mosque"},{"id":"xx408183_685444","name":"Islamic place","lat":40.81827,"lng":68.544427,"addr":"","type":"yes"},{"id":"xx408717_681400","name":"Иманқұл Қалпе атындағы мешіт","lat":40.871702,"lng":68.139967,"addr":"село АТАМЕКЕН","type":"yes"},{"id":"xx408111_685447","name":"Islamic place","lat":40.811071,"lng":68.54475,"addr":"","type":"mosque"},{"id":"xx406419_685111","name":"Молла Исмайл мешіті","lat":40.641929,"lng":68.511113,"addr":"Еңбекші ауылдық округі","type":"yes"},{"id":"xx405989_685057","name":"Islamic place","lat":40.598868,"lng":68.505682,"addr":"","type":"yes"},{"id":"xx406408_684376","name":"Islamic place","lat":40.640756,"lng":68.437629,"addr":"","type":"yes"},{"id":"xx406626_683930","name":"Мәлік ата мешіті","lat":40.662578,"lng":68.392998,"addr":"","type":"yes"},{"id":"xx406852_683944","name":"Қожа Исмайл мешіті","lat":40.685217,"lng":68.394441,"addr":"Жолдыбай Нұрлыбаев ауылдық округі","type":"yes"},{"id":"xx407905_683150","name":"Islamic place","lat":40.790453,"lng":68.314961,"addr":"","type":"mosque"},{"id":"xx406681_684397","name":"Islamic place","lat":40.66809,"lng":68.439685,"addr":"","type":"yes"},{"id":"xx406723_684805","name":"Islamic place","lat":40.672301,"lng":68.480549,"addr":"","type":"yes"},{"id":"xx406723_684802","name":"АР-РАХМАН мешіті","lat":40.672304,"lng":68.480213,"addr":"","type":"yes"},{"id":"xx407016_684209","name":"Islamic place","lat":40.701554,"lng":68.420932,"addr":"","type":"mosque"},{"id":"xx407014_684211","name":"Атабек-Ата","lat":40.701432,"lng":68.421057,"addr":"ул Қ Жойшыбеков","type":"yes"},{"id":"xx407301_684680","name":"Islamic place","lat":40.730149,"lng":68.468046,"addr":"","type":"yes"},{"id":"xx407839_684263","name":"Islamic place","lat":40.783854,"lng":68.426316,"addr":"","type":"mosque"},{"id":"xx429953_688716","name":"Islamic place","lat":42.995264,"lng":68.8716,"addr":"","type":"yes"},{"id":"xx406217_686457","name":"Islamic place","lat":40.62171,"lng":68.645743,"addr":"","type":"mosque"},{"id":"xx406635_686617","name":"Islamic place","lat":40.663452,"lng":68.661739,"addr":"","type":"mosque"},{"id":"xx406828_686637","name":"Islamic place","lat":40.682787,"lng":68.663669,"addr":"","type":"mosque"},{"id":"xx408117_685668","name":"Islamic place","lat":40.811651,"lng":68.566762,"addr":"","type":"mosque"},{"id":"xx414156_691163","name":"Islamic place","lat":41.415621,"lng":69.116305,"addr":"","type":"yes"},{"id":"xx423773_693750","name":"Islamic place","lat":42.377267,"lng":69.375003,"addr":"","type":"yes"},{"id":"xx435085_685279","name":"Islamic place","lat":43.508453,"lng":68.527885,"addr":"Кентау","type":"yes"},{"id":"xx435084_685280","name":"Islamic place","lat":43.508414,"lng":68.52805,"addr":"","type":"mosque"},{"id":"xx422415_696415","name":"Мусульманское кладбище","lat":42.241491,"lng":69.641526,"addr":"","type":"mosque"},{"id":"xx421401_695343","name":"Islamic place","lat":42.140146,"lng":69.534251,"addr":"","type":"mosque"},{"id":"xx421583_695316","name":"Islamic place","lat":42.158342,"lng":69.531638,"addr":"","type":"mosque"},{"id":"xx421935_695252","name":"Islamic place","lat":42.19352,"lng":69.525183,"addr":"","type":"mosque"},{"id":"xx422598_696174","name":"Мусульманское кладбище","lat":42.259831,"lng":69.617367,"addr":"","type":"mosque"},{"id":"xx422700_695930","name":"Мусульманское кладбище","lat":42.270034,"lng":69.592952,"addr":"","type":"mosque"},{"id":"xx422730_695905","name":"Мусульманское кладбище","lat":42.273021,"lng":69.590462,"addr":"","type":"mosque"},{"id":"xx422776_696630","name":"Мусульманское кладбище","lat":42.277586,"lng":69.663034,"addr":"","type":"mosque"},{"id":"xx422512_697116","name":"Мусульманское кладбище","lat":42.251248,"lng":69.711557,"addr":"","type":"mosque"},{"id":"xx422777_697586","name":"Мусульманское кладбище","lat":42.277728,"lng":69.758625,"addr":"","type":"mosque"},{"id":"xx422943_697652","name":"Мусульманское кладбище","lat":42.294299,"lng":69.765229,"addr":"","type":"mosque"},{"id":"xx422959_697616","name":"Мусульманское кладбище","lat":42.295898,"lng":69.761576,"addr":"","type":"mosque"},{"id":"xx423003_697643","name":"Мусульманское кладбище","lat":42.300309,"lng":69.764279,"addr":"","type":"mosque"},{"id":"xx423025_697545","name":"Мусульманское кладбище","lat":42.30247,"lng":69.754483,"addr":"","type":"mosque"},{"id":"xx423079_697505","name":"Мусульманское кладбище","lat":42.307918,"lng":69.750523,"addr":"","type":"mosque"},{"id":"xx423233_697669","name":"Мусульманское кладбище","lat":42.323288,"lng":69.766922,"addr":"","type":"mosque"},{"id":"xx423890_697751","name":"Мусульманское кладбище","lat":42.388994,"lng":69.775109,"addr":"","type":"mosque"},{"id":"xx423807_697229","name":"Мусульманское кладбище","lat":42.380719,"lng":69.722917,"addr":"","type":"mosque"},{"id":"xx423607_697379","name":"Мусульманское кладбище","lat":42.360655,"lng":69.737893,"addr":"","type":"mosque"},{"id":"xx423887_696935","name":"Мусульманское кладбище","lat":42.388708,"lng":69.693545,"addr":"","type":"mosque"},{"id":"xx423566_696850","name":"Мусульманское кладбище","lat":42.356626,"lng":69.684951,"addr":"","type":"mosque"},{"id":"xx423447_696760","name":"Мусульманское кладбище","lat":42.344671,"lng":69.675983,"addr":"","type":"mosque"},{"id":"xx423390_696635","name":"Мусульманское кладбище","lat":42.338967,"lng":69.663516,"addr":"","type":"mosque"},{"id":"xx423334_696573","name":"Мусульманское кладбище","lat":42.333435,"lng":69.657324,"addr":"","type":"mosque"},{"id":"xx424185_696378","name":"Мусульманское кладбище","lat":42.418512,"lng":69.637767,"addr":"","type":"mosque"},{"id":"xx423715_696423","name":"Мұсылман зираты","lat":42.37152,"lng":69.642339,"addr":"","type":"mosque"},{"id":"xx423902_695881","name":"Мусульманское кладбище","lat":42.390209,"lng":69.588063,"addr":"","type":"mosque"},{"id":"xx423255_695327","name":"Старое мусульманское кладбище","lat":42.325537,"lng":69.532706,"addr":"","type":"mosque"},{"id":"xx423680_695153","name":"Мусульманское кладбище","lat":42.367973,"lng":69.515294,"addr":"","type":"mosque"},{"id":"xx423832_694908","name":"Islamic place","lat":42.383201,"lng":69.490845,"addr":"","type":"mosque"},{"id":"xx424230_698035","name":"Islamic place","lat":42.422979,"lng":69.803504,"addr":"","type":"mosque"},{"id":"xx414902_692825","name":"Islamic place","lat":41.490214,"lng":69.282464,"addr":"","type":"mosque"},{"id":"xx423190_697821","name":"Ибраһим ата күмбезі","lat":42.319012,"lng":69.782106,"addr":"","type":"yes"},{"id":"xx424720_696313","name":"Ауыл мешіті","lat":42.472044,"lng":69.631327,"addr":"","type":"mosque"},{"id":"xx435181_683563","name":"Islamic place","lat":43.518095,"lng":68.356313,"addr":"","type":"yes"},{"id":"xx421863_698976","name":"Толе Би","lat":42.18634,"lng":69.897608,"addr":"","type":"place_of_worship"},{"id":"xx420205_696021","name":"Islamic place","lat":42.02049,"lng":69.602061,"addr":"","type":"mosque"},{"id":"xx421750_698840","name":"Islamic place","lat":42.174962,"lng":69.883953,"addr":"","type":"mosque"},{"id":"xx422296_681813","name":"Islamic place","lat":42.229556,"lng":68.181286,"addr":"","type":"mosque"},{"id":"xx432969_682663","name":"Islamic place","lat":43.296863,"lng":68.266341,"addr":"","type":"yes"},{"id":"xx423147_695776","name":"Islamic place","lat":42.314701,"lng":69.57755,"addr":"","type":"mosque"},{"id":"xx446868_660821","name":"№142 Базарбек Қашқынбаев атындағы орта мектеп","lat":44.686785,"lng":66.082054,"addr":"Жаназар батыр ауылы","type":"school"},{"id":"xx446861_660844","name":"Қалкул Ана","lat":44.686123,"lng":66.084413,"addr":"Жаназар батыр ауылы","type":"yes"},{"id":"xx443378_665138","name":"Islamic place","lat":44.337766,"lng":66.513848,"addr":"","type":"yes"},{"id":"xx435961_673994","name":"Ә.Әбутәліпов атындағы №209 орта мектеп","lat":43.59612,"lng":67.399393,"addr":"улица Д.Конаева","type":"school"},{"id":"xx435978_674093","name":"Жүніс би мешіті","lat":43.59777,"lng":67.409265,"addr":"улица Н.Палымбетова","type":"yes"},{"id":"xx449244_653704","name":"Islamic place","lat":44.924447,"lng":65.370381,"addr":"","type":"yes"},{"id":"xx407887_683152","name":"Мечеть Калдыкыз ана","lat":40.788661,"lng":68.315224,"addr":"улица Ескендирова","type":"yes"},{"id":"xx440610_670700","name":"им Бегайдар Аралбаева","lat":44.060978,"lng":67.07002,"addr":"Тақыркөл","type":"school"},{"id":"xx440574_670646","name":"Ескендір мешіті","lat":44.057391,"lng":67.064645,"addr":"","type":"yes"},{"id":"xx440367_672592","name":"жайылма мечеть","lat":44.036722,"lng":67.259247,"addr":"","type":"yes"},{"id":"xx435947_674114","name":"Islamic place","lat":43.594735,"lng":67.411375,"addr":"улица Н.Ержанова №4","type":"house"},{"id":"xx440661_670294","name":"№162 жалпы орта мектебі","lat":44.066132,"lng":67.02941,"addr":"улица М. Шадиков","type":"school"},{"id":"xx440644_670227","name":"Мешіт","lat":44.064352,"lng":67.022729,"addr":"улица Шаймен","type":"yes"},{"id":"xx440277_670179","name":"Мечеть Аль-Хак","lat":44.027697,"lng":67.017853,"addr":"улица Рахманберди Бимуратова, 7","type":"yes"},{"id":"xx435147_675484","name":"Айқожа кесенесі","lat":43.514744,"lng":67.548411,"addr":"","type":"yes"},{"id":"xx408035_685835","name":"Paxtakor jom'e masjidi","lat":40.80348,"lng":68.583542,"addr":"","type":"yes"},{"id":"xx413559_690776","name":"Islamic place","lat":41.355937,"lng":69.07763,"addr":"","type":"yes"},{"id":"xx437639_672338","name":"Ақсуат мешіті","lat":43.763852,"lng":67.233752,"addr":"","type":"mosque"},{"id":"xx432958_682832","name":"Islamic place","lat":43.295831,"lng":68.283155,"addr":"","type":"mosque"},{"id":"xx432805_683172","name":"Төреқұлұлы Нәзір","lat":43.28046,"lng":68.317217,"addr":"Ы.Исмаилов улица","type":"mosque"},{"id":"xx432804_683174","name":"Islamic place","lat":43.280426,"lng":68.317386,"addr":"","type":"mosque"},{"id":"xx435154_675473","name":"Ақтас мешіті","lat":43.515442,"lng":67.547341,"addr":"","type":"yes"},{"id":"xx431515_678171","name":"Мечеть Икрама","lat":43.151495,"lng":67.817101,"addr":"","type":"yes"},{"id":"xx428557_682683","name":"White mosque with gold dome","lat":42.855682,"lng":68.268307,"addr":"","type":"yes"},{"id":"xx428684_686899","name":"Mosque with blue domes","lat":42.868441,"lng":68.689915,"addr":"","type":"yes"},{"id":"xx428685_686899","name":"Islamic place","lat":42.868469,"lng":68.689908,"addr":"","type":"mosque"},{"id":"xx424415_688526","name":"Хазрат Абу Бакр Ас-Сыдык","lat":42.441517,"lng":68.852633,"addr":"Арыс","type":"yes"},{"id":"xx433050_681985","name":"Islamic place","lat":43.304953,"lng":68.198478,"addr":"","type":"yes"},{"id":"xx432846_682044","name":"Islamic place","lat":43.284558,"lng":68.204426,"addr":"","type":"yes"},{"id":"xx422920_695696","name":"Зират","lat":42.291992,"lng":69.569619,"addr":"","type":"mosque"},{"id":"xx432976_682711","name":"Қожа Ахмет Ясауи кесенесі","lat":43.297605,"lng":68.271145,"addr":"","type":"yes"},{"id":"xx433342_681807","name":"Islamic place","lat":43.334197,"lng":68.180654,"addr":"","type":"mosque"},{"id":"xx414525_691817","name":"Islamic place","lat":41.452476,"lng":69.181704,"addr":"улица Исмаилова","type":"mosque"},{"id":"xx417127_690131","name":"Жылға зираты","lat":41.712658,"lng":69.01314,"addr":"","type":"mosque"},{"id":"xx417139_690130","name":"Жылга мешити","lat":41.713928,"lng":69.013044,"addr":"","type":"place_of_worship"},{"id":"xx414501_691497","name":"Islamic place","lat":41.450067,"lng":69.149691,"addr":"","type":"mosque"},{"id":"xx432865_682837","name":"Бала би Тамабай мазары","lat":43.286546,"lng":68.283726,"addr":"Туркестан","type":"grave_yard"},{"id":"xx432744_682094","name":"Islamic place","lat":43.274445,"lng":68.209404,"addr":"","type":"grave_yard"},{"id":"xx433116_682441","name":"Асанбай ата","lat":43.311618,"lng":68.244079,"addr":"Тауелсиздиктин 10 жылдыгы улица","type":"place_of_worship"},{"id":"xx448494_655145","name":"Islamic place","lat":44.849437,"lng":65.514452,"addr":"","type":"mosque"},{"id":"xx448216_656220","name":"Islamic place","lat":44.821616,"lng":65.622017,"addr":"","type":"mosque"},{"id":"xx429916_699318","name":"Байдибек-баба","lat":42.991622,"lng":69.931814,"addr":"","type":"mosque"},{"id":"xx447965_691622","name":"Islamic place","lat":44.796483,"lng":69.162199,"addr":"","type":"mosque"},{"id":"xx447756_655648","name":"Мазар","lat":44.775603,"lng":65.564775,"addr":"","type":"mosque"},{"id":"xx408440_684935","name":"Ибраева Канаевский","lat":40.843992,"lng":68.493484,"addr":"","type":"mosque"},{"id":"xx429750_688536","name":"Islamic place","lat":42.974986,"lng":68.853602,"addr":"","type":"mosque"},{"id":"xx448295_657163","name":"Islamic place","lat":44.82954,"lng":65.716321,"addr":"","type":"mosque"},{"id":"xx439431_666883","name":"Islamic place","lat":43.943091,"lng":66.688275,"addr":"","type":"mosque"},{"id":"xx441514_668051","name":"Islamic place","lat":44.151405,"lng":66.805117,"addr":"","type":"mosque"},{"id":"xx429400_689206","name":"Islamic place","lat":42.940042,"lng":68.920588,"addr":"","type":"mosque"},{"id":"xx448308_655441","name":"Islamic place","lat":44.830777,"lng":65.54406,"addr":"","type":"mosque"},{"id":"xx435063_684963","name":"Islamic place","lat":43.506308,"lng":68.496324,"addr":"Кентау","type":"yes"},{"id":"xx441838_667315","name":"Мечить Шанхай","lat":44.18385,"lng":66.731481,"addr":"Боранов","type":"yes"},{"id":"xx443152_664758","name":"Islamic place","lat":44.31524,"lng":66.475797,"addr":"","type":"yes"},{"id":"xx418990_694565","name":"Islamic place","lat":41.898971,"lng":69.456545,"addr":"","type":"yes"},{"id":"xx423639_694317","name":"Islamic place","lat":42.363876,"lng":69.43174,"addr":"","type":"yes"},{"id":"xx438913_687510","name":"Islamic place","lat":43.891332,"lng":68.750983,"addr":"","type":"mosque"},{"id":"xx435924_692398","name":"Islamic place","lat":43.592449,"lng":69.239782,"addr":"","type":"mosque"},{"id":"xx447765_655283","name":"Islamic place","lat":44.776505,"lng":65.528286,"addr":"","type":"mosque"},{"id":"xx408673_685879","name":"Islamic place","lat":40.867311,"lng":68.587868,"addr":"","type":"mosque"},{"id":"xx423545_696254","name":"Islamic place","lat":42.354544,"lng":69.625369,"addr":"Улица Ертаргын","type":"yes"},{"id":"xx422985_695840","name":"Мечеть Назармат","lat":42.298542,"lng":69.583987,"addr":"Улица Назармат Ерметова","type":"yes"},{"id":"xx423107_696149","name":"Имам Ағзам мешіті","lat":42.310725,"lng":69.61494,"addr":"Улица Туркестанская","type":"yes"},{"id":"xx408399_685418","name":"Ақ Мешіт","lat":40.839893,"lng":68.541827,"addr":"Ташкентская тр, улица","type":"yes"},{"id":"xx408664_681913","name":"Islamic place","lat":40.866432,"lng":68.191317,"addr":"","type":"mosque"},{"id":"xx432126_690328","name":"Islamic place","lat":43.212605,"lng":69.032844,"addr":"","type":"mosque"},{"id":"xx424218_688121","name":"Islamic place","lat":42.421773,"lng":68.812096,"addr":"","type":"mosque"},{"id":"xx437629_695666","name":"Islamic place","lat":43.762854,"lng":69.566645,"addr":"","type":"yes"},{"id":"xx423558_696492","name":"Seitzhan Qari Eszhanuly Mosque","lat":42.355844,"lng":69.649234,"addr":"Шымкент","type":"yes"},{"id":"xx421838_698539","name":"Нур","lat":42.183803,"lng":69.853944,"addr":"Толе би","type":"yes"},{"id":"xx423836_692623","name":"Islamic place","lat":42.383623,"lng":69.262314,"addr":"","type":"yes"},{"id":"xx435569_681064","name":"Islamic place","lat":43.556925,"lng":68.106414,"addr":"","type":"yes"},{"id":"xx432960_682709","name":"Islamic place","lat":43.296039,"lng":68.270901,"addr":"Түркістан","type":"yes"},{"id":"xx435180_684844","name":"Балаби Медресе","lat":43.518013,"lng":68.484439,"addr":"переулок Шакарима","type":"yes"},{"id":"xx410953_686859","name":"Islamic place","lat":41.09534,"lng":68.685877,"addr":"","type":"mosque"},{"id":"xx410903_686916","name":"№39 Лесбек Жолдасов атындағы жалпы мектебі","lat":41.090262,"lng":68.691604,"addr":"Ыбырая Алтынсарина","type":"school"},{"id":"xx411065_686979","name":"Islamic place","lat":41.106473,"lng":68.697877,"addr":"","type":"mosque"},{"id":"xx424106_688056","name":"Islamic place","lat":42.41061,"lng":68.80564,"addr":"","type":"place_of_worship"},{"id":"xx432760_683387","name":"Islamic place","lat":43.276035,"lng":68.338659,"addr":"","type":"mosque"},{"id":"xx432757_683386","name":"Islamic place","lat":43.275748,"lng":68.338584,"addr":"160-й квартал","type":"yes"},{"id":"xx424238_687862","name":"Әл-Фатиха","lat":42.423845,"lng":68.786239,"addr":"","type":"place_of_worship"},{"id":"xx432925_682736","name":"Ахмет Ясауи Мешіті","lat":43.292477,"lng":68.273554,"addr":"","type":"mosque"},{"id":"xx424719_696318","name":"Islamic place","lat":42.471929,"lng":69.631793,"addr":"","type":"yes"},{"id":"xx441450_667010","name":"№207 орта мектеп","lat":44.145008,"lng":66.700952,"addr":"Аймағанбетов","type":"school"},{"id":"xx439272_672619","name":"Мечеть Аль Мумин","lat":43.927222,"lng":67.261944,"addr":"Тауелсиздик","type":"yes"},{"id":"xx424906_694092","name":"Islamic place","lat":42.490628,"lng":69.409212,"addr":"улица Кунаева","type":"yes"},{"id":"xx435522_684826","name":"Islamic place","lat":43.55217,"lng":68.482577,"addr":"","type":"mosque"},{"id":"xx434979_684781","name":"Әмина мешіті","lat":43.497866,"lng":68.478134,"addr":"улица Жумабаева","type":"yes"},{"id":"xx435590_697286","name":"Islamic place","lat":43.559007,"lng":69.72862,"addr":"","type":"yes"},{"id":"xx435590_697288","name":"Islamic place","lat":43.558996,"lng":69.728754,"addr":"","type":"mosque"},{"id":"xx435689_697385","name":"Islamic place","lat":43.568902,"lng":69.738546,"addr":"","type":"yes"},{"id":"xx435847_697768","name":"Islamic place","lat":43.584745,"lng":69.776809,"addr":"","type":"mosque"},{"id":"xx435404_697529","name":"Islamic place","lat":43.54042,"lng":69.752924,"addr":"","type":"mosque"},{"id":"xx423385_695037","name":"Islamic place","lat":42.338535,"lng":69.503689,"addr":"Шардара улица","type":"yes"},{"id":"xx424961_694112","name":"Достық орта мектебі","lat":42.496144,"lng":69.411239,"addr":"0 КОШЕ","type":"school"},{"id":"xx407486_682684","name":"мечеть Қаныбек қажы","lat":40.748623,"lng":68.268432,"addr":"Әбдіхалық","type":"place_of_worship"},{"id":"xx408029_683169","name":"Islamic place","lat":40.802894,"lng":68.316897,"addr":"","type":"mosque"},{"id":"xx407592_683072","name":"Білім Патшалығы","lat":40.759184,"lng":68.307242,"addr":"улица Мухтара Ауезова","type":"school"},{"id":"xx434649_683143","name":"Islamic place","lat":43.464872,"lng":68.314324,"addr":"","type":"mosque"},{"id":"xx407953_683513","name":"Islamic place","lat":40.795319,"lng":68.351313,"addr":"","type":"mosque"},{"id":"xx433242_686701","name":"Islamic place","lat":43.324249,"lng":68.670066,"addr":"","type":"mosque"},{"id":"xx433395_686812","name":"Islamic place","lat":43.339467,"lng":68.681216,"addr":"","type":"yes"},{"id":"xx433389_686798","name":"Islamic place","lat":43.338901,"lng":68.679845,"addr":"","type":"yes"},{"id":"xx433954_685946","name":"Islamic place","lat":43.395388,"lng":68.594635,"addr":"","type":"mosque"},{"id":"xx434105_686048","name":"Islamic place","lat":43.410511,"lng":68.604769,"addr":"","type":"mosque"},{"id":"xx434358_688082","name":"Islamic place","lat":43.43582,"lng":68.808157,"addr":"","type":"mosque"},{"id":"xx435014_697869","name":"Islamic place","lat":43.501428,"lng":69.786925,"addr":"","type":"mosque"},{"id":"xx433289_681790","name":"Islamic place","lat":43.328945,"lng":68.179025,"addr":"","type":"mosque"},{"id":"xx432814_682276","name":"Накыпалты мечеть","lat":43.281363,"lng":68.227641,"addr":"Рамбердиева улица","type":"yes"},{"id":"xx424854_694297","name":"Имам Агзам","lat":42.485427,"lng":69.429729,"addr":"КАЗЫБЕК БИ","type":"yes"},{"id":"xx408473_685720","name":"Islamic place","lat":40.847277,"lng":68.572039,"addr":"","type":"mosque"},{"id":"xx409683_687306","name":"Islamic place","lat":40.968335,"lng":68.730551,"addr":"","type":"mosque"},{"id":"xx410174_687540","name":"Islamic place","lat":41.01737,"lng":68.753976,"addr":"","type":"mosque"},{"id":"xx409721_680966","name":"Islamic place","lat":40.972057,"lng":68.096646,"addr":"","type":"mosque"},{"id":"xx441715_668154","name":"ескі мешіт","lat":44.171547,"lng":66.815367,"addr":"","type":"yes"},{"id":"xx408025_685390","name":"Islamic place","lat":40.802545,"lng":68.538954,"addr":"","type":"mosque"},{"id":"xx408110_685447","name":"Islamic place","lat":40.811014,"lng":68.544735,"addr":"","type":"mosque"},{"id":"xx405990_685057","name":"Islamic place","lat":40.599008,"lng":68.505725,"addr":"","type":"mosque"},{"id":"xx407903_683149","name":"Islamic place","lat":40.790338,"lng":68.314858,"addr":"","type":"mosque"},{"id":"xx406722_684805","name":"Islamic place","lat":40.672247,"lng":68.480547,"addr":"","type":"yes"},{"id":"xx406632_686617","name":"Islamic place","lat":40.663247,"lng":68.661737,"addr":"","type":"mosque"},{"id":"xx422411_696411","name":"Мусульманское кладбище","lat":42.241108,"lng":69.641082,"addr":"","type":"mosque"},{"id":"xx421937_695251","name":"Islamic place","lat":42.193748,"lng":69.52506,"addr":"","type":"mosque"},{"id":"xx422598_696173","name":"Мусульманское кладбище","lat":42.25976,"lng":69.617303,"addr":"","type":"mosque"},{"id":"xx422699_695929","name":"Мусульманское кладбище","lat":42.269933,"lng":69.592851,"addr":"","type":"mosque"},{"id":"xx422729_695904","name":"Мусульманское кладбище","lat":42.272928,"lng":69.590409,"addr":"","type":"mosque"},{"id":"xx422775_696629","name":"Мусульманское кладбище","lat":42.277459,"lng":69.66288,"addr":"","type":"mosque"},{"id":"xx422514_697116","name":"Мусульманское кладбище","lat":42.251359,"lng":69.711554,"addr":"","type":"mosque"},{"id":"xx423002_697643","name":"Мусульманское кладбище","lat":42.300248,"lng":69.764276,"addr":"","type":"mosque"},{"id":"xx423605_697376","name":"Мусульманское кладбище","lat":42.360486,"lng":69.737583,"addr":"","type":"mosque"},{"id":"xx423884_696935","name":"Мусульманское кладбище","lat":42.388441,"lng":69.693522,"addr":"","type":"mosque"},{"id":"xx424184_696377","name":"Мусульманское кладбище","lat":42.418385,"lng":69.637747,"addr":"","type":"mosque"},{"id":"xx423713_696423","name":"Мұсылман зираты","lat":42.371335,"lng":69.642296,"addr":"","type":"mosque"},{"id":"xx423900_695880","name":"Мусульманское кладбище","lat":42.390044,"lng":69.587983,"addr":"","type":"mosque"},{"id":"xx423833_694905","name":"Islamic place","lat":42.383313,"lng":69.490512,"addr":"","type":"mosque"},{"id":"xx424231_698034","name":"Islamic place","lat":42.423147,"lng":69.803414,"addr":"","type":"mosque"},{"id":"xx414903_692824","name":"Islamic place","lat":41.490321,"lng":69.282418,"addr":"","type":"mosque"},{"id":"xx420205_696020","name":"Islamic place","lat":42.020529,"lng":69.602024,"addr":"","type":"mosque"},{"id":"xx421750_698839","name":"Islamic place","lat":42.174991,"lng":69.883874,"addr":"","type":"mosque"},{"id":"xx423087_695884","name":"Islamic place","lat":42.308723,"lng":69.588406,"addr":"улица Амангельды","type":"yes"},{"id":"xx423089_695884","name":"Кошкар-ата","lat":42.308908,"lng":69.588398,"addr":"","type":"place_of_worship"},{"id":"xx423147_695775","name":"Islamic place","lat":42.314692,"lng":69.5775,"addr":"","type":"mosque"},{"id":"xx449244_653703","name":"Islamic place","lat":44.924442,"lng":65.370341,"addr":"","type":"yes"},{"id":"xx440643_670227","name":"Мешіт","lat":44.064335,"lng":67.022708,"addr":"улица Шаймен","type":"yes"},{"id":"xx408034_685835","name":"Paxtakor jom'e masjidi","lat":40.803442,"lng":68.583541,"addr":"","type":"yes"},{"id":"xx437639_672337","name":"Ақсуат мешіті","lat":43.763861,"lng":67.233745,"addr":"","type":"mosque"},{"id":"xx432958_682831","name":"Islamic place","lat":43.29582,"lng":68.28313,"addr":"","type":"mosque"},{"id":"xx432803_683172","name":"Islamic place","lat":43.280305,"lng":68.317176,"addr":"","type":"mosque"},{"id":"xx433049_681984","name":"Islamic place","lat":43.304932,"lng":68.198422,"addr":"","type":"yes"},{"id":"xx412098_694934","name":"Islamic place","lat":41.20981,"lng":69.493447,"addr":"","type":"place_of_worship"},{"id":"xx412496_692219","name":"No'g'oy qo'rg'on jom`e masjidi","lat":41.249613,"lng":69.221876,"addr":"","type":"place_of_worship"},{"id":"xx413405_692209","name":"Islamic place","lat":41.340539,"lng":69.220856,"addr":"","type":"mosque"},{"id":"xx413575_692912","name":"Юнусабадский Мечеть","lat":41.357495,"lng":69.291216,"addr":"","type":"place_of_worship"},{"id":"xx413300_692273","name":"Islamic place","lat":41.330034,"lng":69.227311,"addr":"","type":"place_of_worship"},{"id":"xx412895_693509","name":"Al Hudaybiya masjid","lat":41.289537,"lng":69.350933,"addr":"","type":"place_of_worship"},{"id":"xx414093_693081","name":"Islamic place","lat":41.409312,"lng":69.308062,"addr":"","type":"mosque"},{"id":"xx414094_693084","name":"Islamic place","lat":41.409365,"lng":69.30838,"addr":"","type":"mosque"},{"id":"xx414096_693079","name":"Islamic place","lat":41.409616,"lng":69.307936,"addr":"","type":"mosque"},{"id":"xx414097_693083","name":"Islamic place","lat":41.40968,"lng":69.308252,"addr":"","type":"mosque"},{"id":"xx411595_691123","name":"Islamic place","lat":41.159498,"lng":69.112339,"addr":"","type":"place_of_worship"},{"id":"xx412404_693291","name":"Islamic place","lat":41.240411,"lng":69.329091,"addr":"","type":"place_of_worship"},{"id":"xx405551_656799","name":"Святой источник Чашма","lat":40.555056,"lng":65.679916,"addr":"","type":"mosque"},{"id":"xx406195_666786","name":"Islamic place","lat":40.619541,"lng":66.678581,"addr":"","type":"place_of_worship"},{"id":"xx413136_693438","name":"Avayxon Jom`e masjidi","lat":41.313589,"lng":69.343813,"addr":"","type":"place_of_worship"},{"id":"xx413311_692420","name":"Islamic place","lat":41.331076,"lng":69.241984,"addr":"","type":"mosque"},{"id":"xx401266_684958","name":"Islamic place","lat":40.126586,"lng":68.495801,"addr":"","type":"place_of_worship"},{"id":"xx413074_692046","name":"“Фотимаи Заҳро”","lat":41.307431,"lng":69.204592,"addr":"","type":"place_of_worship"},{"id":"xx413158_698559","name":"Mosque Khazrati Ali Buva","lat":41.315766,"lng":69.855929,"addr":"","type":"place_of_worship"},{"id":"xx412581_693274","name":"IMOM A'ZAM jom`e masjidi","lat":41.258105,"lng":69.327405,"addr":"","type":"place_of_worship"},{"id":"xx413725_693789","name":"Ar - Rahmon jome' masjidi","lat":41.372546,"lng":69.37889,"addr":"","type":"mosque"},{"id":"xx413317_691757","name":"Abdulloh ibn Huzofa jom`e masjidi","lat":41.331676,"lng":69.175717,"addr":"","type":"mosque"},{"id":"xx413801_691350","name":"Ramadon jome’ masjidi","lat":41.380073,"lng":69.135029,"addr":"","type":"place_of_worship"},{"id":"xx412647_691739","name":"TINCHLIK jome masjidi","lat":41.264723,"lng":69.173877,"addr":"","type":"place_of_worship"},{"id":"xx412679_691385","name":"Umir jome’ masjidi","lat":41.267909,"lng":69.138526,"addr":"","type":"place_of_worship"},{"id":"xx413182_692145","name":"OQILON jom`e masjidi","lat":41.318172,"lng":69.214541,"addr":"","type":"place_of_worship"},{"id":"xx413445_692520","name":"Mevazor jome masjidi","lat":41.344521,"lng":69.251964,"addr":"","type":"place_of_worship"},{"id":"xx413159_692362","name":"Baland jome masjidi","lat":41.315862,"lng":69.23624,"addr":"","type":"place_of_worship"},{"id":"xx413376_692010","name":"OQ-TUNUKA jom`e masjidi","lat":41.33761,"lng":69.201041,"addr":"","type":"place_of_worship"},{"id":"xx413135_692258","name":"ZANGI - OTA jome masjidi","lat":41.313542,"lng":69.225772,"addr":"","type":"place_of_worship"},{"id":"xx413321_693018","name":"Oqqurg'on masjidi","lat":41.33215,"lng":69.3018,"addr":"","type":"mosque"},{"id":"xx412693_692920","name":"Ал-Бадр жомеъ масжиди","lat":41.269265,"lng":69.291978,"addr":"","type":"mosque"},{"id":"xx413082_691660","name":"Beshqayragoch jome' masjidi","lat":41.308168,"lng":69.166036,"addr":"Quruvchi 7-o'tish ko'chasi","type":"place_of_worship"},{"id":"xx412515_693376","name":"Islamic place","lat":41.251484,"lng":69.337587,"addr":"","type":"yes"},{"id":"xx409083_687098","name":"Yangi Chinoz jome’ masjidi","lat":40.908329,"lng":68.70982,"addr":"","type":"place_of_worship"},{"id":"xx413234_691633","name":"Abdulhamid hoji ota","lat":41.323368,"lng":69.163251,"addr":"","type":"mosque"},{"id":"xx412320_691640","name":"Beshqo‘rg‘on jome’ masjidi","lat":41.232011,"lng":69.164024,"addr":"","type":"place_of_worship"},{"id":"xx413025_691327","name":"Ammor ibn Yosir jome’ masjidi","lat":41.30255,"lng":69.132744,"addr":"","type":"yes"},{"id":"xx413044_691487","name":"Vaqqos ota jom`e masjidi","lat":41.304413,"lng":69.148706,"addr":"","type":"place_of_worship"},{"id":"xx408156_692075","name":"Toshloq jome’ masjidi","lat":40.815604,"lng":69.207488,"addr":"","type":"mosque"},{"id":"xx406042_687304","name":"Ziyo jom'e masjidi","lat":40.604246,"lng":68.730427,"addr":"","type":"place_of_worship"},{"id":"xx413153_691693","name":"Burhoniddin Marg‘iloniy","lat":41.315286,"lng":69.169257,"addr":"","type":"place_of_worship"},{"id":"xx401806_686703","name":"Axmadxo'ja jom`e masjidi","lat":40.180622,"lng":68.670318,"addr":"","type":"place_of_worship"},{"id":"xx414039_692828","name":"Rahbar ota Akbar o‘g‘li jome’ masjidi","lat":41.403869,"lng":69.282815,"addr":"","type":"mosque"},{"id":"xx412593_691864","name":"SHAYX MUHAMMAD SODIQ MUHAMMAD YUSUF jom`e masjidi","lat":41.259283,"lng":69.186444,"addr":"","type":"place_of_worship"},{"id":"xx400911_681576","name":"Oq Masjid jom`e masjidi","lat":40.091139,"lng":68.157632,"addr":"","type":"place_of_worship"},{"id":"xx412960_692032","name":"Hasan qori jom`e masjidi","lat":41.295955,"lng":69.203154,"addr":"","type":"place_of_worship"},{"id":"xx412902_691838","name":"jom'e masjid","lat":41.290236,"lng":69.183837,"addr":"","type":"place_of_worship"},{"id":"xx408988_696730","name":"Место для намаза","lat":40.898759,"lng":69.673047,"addr":"","type":"place_of_worship"},{"id":"xx401370_652562","name":"DO'RMON jom`e masjidi","lat":40.137025,"lng":65.256209,"addr":"","type":"place_of_worship"},{"id":"xx412440_693595","name":"jom'e masjid","lat":41.243975,"lng":69.359521,"addr":"","type":"place_of_worship"},{"id":"xx411784_692495","name":"jom'e masjid","lat":41.178426,"lng":69.249498,"addr":"","type":"place_of_worship"},{"id":"xx413478_693595","name":"Shayx Ziyovuddin jom'e masjidi","lat":41.347782,"lng":69.359469,"addr":"Temur Malik ko'chasi","type":"place_of_worship"},{"id":"xx413130_693439","name":"jom'e masjid","lat":41.312999,"lng":69.343877,"addr":"","type":"place_of_worship"},{"id":"xx413322_693017","name":"jom'e masjid","lat":41.332168,"lng":69.301715,"addr":"","type":"place_of_worship"},{"id":"xx413276_693514","name":"jom'e masjid","lat":41.327648,"lng":69.351351,"addr":"","type":"place_of_worship"},{"id":"xx413381_693647","name":"Mulla Xolmirza jom'e masjid","lat":41.338057,"lng":69.364675,"addr":"Gulsara ko'chasi","type":"place_of_worship"},{"id":"xx413404_692206","name":"Imomi Buxoriy jom`e masjidi","lat":41.340387,"lng":69.220644,"addr":"","type":"place_of_worship"},{"id":"xx413376_692521","name":"AT-TERMIZIY jom`e masjidi","lat":41.337589,"lng":69.252092,"addr":"","type":"place_of_worship"},{"id":"xx413543_691915","name":"jom'e masjid","lat":41.354261,"lng":69.191476,"addr":"","type":"place_of_worship"},{"id":"xx413504_691671","name":"\"Chimir ota\" jom'e masjid","lat":41.350408,"lng":69.167147,"addr":"Toshkent halqa avtomobil yo'li","type":"place_of_worship"},{"id":"xx413505_691879","name":"TO'LQIN AKROM O'G'LI jom`e masjidi","lat":41.350458,"lng":69.187889,"addr":"","type":"place_of_worship"},{"id":"xx413694_692429","name":"jom'e masjid","lat":41.369386,"lng":69.242906,"addr":"","type":"place_of_worship"},{"id":"xx413627_692250","name":"jom'e masjid","lat":41.362741,"lng":69.224957,"addr":"","type":"place_of_worship"},{"id":"xx413340_692269","name":"SAFABOY OTA jom`e masjidi","lat":41.333985,"lng":69.226869,"addr":"","type":"place_of_worship"},{"id":"xx413603_691944","name":"AHMADJON QORI jom`e masjidi","lat":41.360309,"lng":69.194418,"addr":"","type":"place_of_worship"},{"id":"xx413701_692215","name":"Jom'e Masjid","lat":41.370119,"lng":69.221474,"addr":"","type":"place_of_worship"},{"id":"xx413311_692419","name":"jom'e masjid","lat":41.331142,"lng":69.241874,"addr":"","type":"place_of_worship"},{"id":"xx412435_692004","name":"jom'e masjid","lat":41.243489,"lng":69.200417,"addr":"","type":"place_of_worship"},{"id":"xx413125_691783","name":"jom'e masjid","lat":41.312462,"lng":69.178349,"addr":"","type":"place_of_worship"},{"id":"xx413181_691747","name":"jom'e masjid","lat":41.318143,"lng":69.174669,"addr":"","type":"place_of_worship"},{"id":"xx413202_691801","name":"jom'e masjid","lat":41.320169,"lng":69.180106,"addr":"","type":"place_of_worship"},{"id":"xx412865_691413","name":"jom'e masjid","lat":41.286545,"lng":69.141262,"addr":"","type":"place_of_worship"},{"id":"xx412981_691651","name":"jom'e masjid","lat":41.29813,"lng":69.165063,"addr":"","type":"place_of_worship"},{"id":"xx413037_691705","name":"jom'e masjid","lat":41.303686,"lng":69.170524,"addr":"","type":"place_of_worship"},{"id":"xx412953_691578","name":"jom'e masjid","lat":41.295299,"lng":69.157761,"addr":"","type":"place_of_worship"},{"id":"xx413235_691633","name":"jom'e masjid","lat":41.323505,"lng":69.163285,"addr":"","type":"place_of_worship"},{"id":"xx413234_691753","name":"jom'e masjid","lat":41.323399,"lng":69.175283,"addr":"","type":"place_of_worship"},{"id":"xx413192_691652","name":"jom'e masjid","lat":41.319152,"lng":69.165202,"addr":"","type":"place_of_worship"},{"id":"xx412572_692006","name":"NOSIRXON jom`e masjidi","lat":41.25718,"lng":69.200581,"addr":"","type":"place_of_worship"},{"id":"xx412625_692092","name":"Do‘mbirobod masjidi","lat":41.262459,"lng":69.209219,"addr":"","type":"place_of_worship"},{"id":"xx412648_691738","name":"jom'e masjid","lat":41.264794,"lng":69.17379,"addr":"","type":"place_of_worship"},{"id":"xx412909_691973","name":"jom'e masjid","lat":41.290939,"lng":69.197313,"addr":"","type":"place_of_worship"},{"id":"xx412671_691956","name":"Qatortol ​Masjid","lat":41.267145,"lng":69.195638,"addr":"","type":"place_of_worship"},{"id":"xx413443_691973","name":"ESHON-BOBOXON jom`e masjidi","lat":41.34432,"lng":69.197344,"addr":"","type":"place_of_worship"},{"id":"xx413322_692115","name":"jom'e masjid","lat":41.332218,"lng":69.211524,"addr":"","type":"place_of_worship"},{"id":"xx413480_691844","name":"DORUSSALOM jom`e masjidi","lat":41.347989,"lng":69.184414,"addr":"","type":"place_of_worship"},{"id":"xx413179_692243","name":"Suzuk Ota jom`e masjidi","lat":41.317918,"lng":69.224337,"addr":"","type":"place_of_worship"},{"id":"xx413391_691961","name":"jom'e masjid","lat":41.339097,"lng":69.196122,"addr":"","type":"place_of_worship"},{"id":"xx413380_691685","name":"jom'e masjid","lat":41.338037,"lng":69.168526,"addr":"","type":"place_of_worship"},{"id":"xx413253_692206","name":"jom'e masjid","lat":41.325251,"lng":69.220581,"addr":"","type":"place_of_worship"},{"id":"xx413204_692328","name":"jom'e masjid","lat":41.320439,"lng":69.232779,"addr":"","type":"place_of_worship"},{"id":"xx413101_691999","name":"jom'e masjid","lat":41.310076,"lng":69.199937,"addr":"","type":"place_of_worship"},{"id":"xx413158_692250","name":"jom'e masjid","lat":41.31578,"lng":69.225033,"addr":"","type":"place_of_worship"},{"id":"xx413509_692923","name":"jom'e masjid","lat":41.350858,"lng":69.292317,"addr":"","type":"place_of_worship"},{"id":"xx413575_692913","name":"jom'e masjid","lat":41.357471,"lng":69.29126,"addr":"","type":"place_of_worship"},{"id":"xx413501_692691","name":"Umar ibn Xattob","lat":41.350112,"lng":69.26907,"addr":"","type":"place_of_worship"},{"id":"xx413638_693175","name":"Oqtepa Jome Masjidi","lat":41.363828,"lng":69.317453,"addr":"","type":"place_of_worship"},{"id":"xx413805_692918","name":"jom'e masjid","lat":41.380466,"lng":69.291782,"addr":"","type":"place_of_worship"},{"id":"xx413937_692607","name":"Hasanboy jome masjidi","lat":41.393668,"lng":69.260681,"addr":"","type":"place_of_worship"},{"id":"xx412895_693511","name":"jom'e masjid","lat":41.289466,"lng":69.351061,"addr":"","type":"place_of_worship"},{"id":"xx412694_693554","name":"HOLID IBN VALID jom`e masjidi","lat":41.269392,"lng":69.355439,"addr":"","type":"place_of_worship"},{"id":"xx412902_693357","name":"Pul Emas ota","lat":41.290244,"lng":69.335667,"addr":"","type":"place_of_worship"},{"id":"xx412844_693275","name":"jom'e masjid","lat":41.284378,"lng":69.327468,"addr":"","type":"place_of_worship"},{"id":"xx411627_696717","name":"Said Ota jom`e masjidi","lat":41.162704,"lng":69.671669,"addr":"Bahor ko'chasi","type":"place_of_worship"},{"id":"xx404016_692728","name":"Dalvarzin jome’ masjidi","lat":40.401571,"lng":69.272841,"addr":"","type":"place_of_worship"},{"id":"xx405325_691990","name":"Do‘stlik jome’ masjidi","lat":40.532463,"lng":69.198951,"addr":"","type":"place_of_worship"},{"id":"xx404814_692632","name":"Amirov Dadaxon jome’ masjidi","lat":40.481393,"lng":69.263191,"addr":"","type":"place_of_worship"},{"id":"xx405354_692071","name":"Chanoq jome’ masjidi","lat":40.53539,"lng":69.20706,"addr":"","type":"place_of_worship"},{"id":"xx405880_692451","name":"Mulla Mamatqul jome’ masjidi","lat":40.58802,"lng":69.245109,"addr":"","type":"place_of_worship"},{"id":"xx403402_692463","name":"Ittifoq jome’ masjidi","lat":40.340158,"lng":69.246289,"addr":"","type":"place_of_worship"},{"id":"xx402871_692303","name":"Mulla Abdug‘offor xoji jome’ masjidi","lat":40.287106,"lng":69.230258,"addr":"","type":"place_of_worship"},{"id":"xx403122_691999","name":"Ulug‘bek jome’ masjidi","lat":40.312181,"lng":69.199876,"addr":"","type":"place_of_worship"},{"id":"xx403034_691662","name":"O‘zbekiston jome’ masjidi","lat":40.303373,"lng":69.166233,"addr":"","type":"place_of_worship"},{"id":"xx403389_691423","name":"Yangiobod jome’ masjidi","lat":40.338914,"lng":69.14227,"addr":"","type":"place_of_worship"},{"id":"xx402715_691975","name":"Xos jome’ masjidi","lat":40.271528,"lng":69.197519,"addr":"","type":"place_of_worship"},{"id":"xx402767_691511","name":"Turkman jome’ masjidi","lat":40.276672,"lng":69.151128,"addr":"","type":"place_of_worship"},{"id":"xx402732_691240","name":"Qushtamg‘ali jome’ masjidi","lat":40.273209,"lng":69.123972,"addr":"","type":"place_of_worship"},{"id":"xx403247_690961","name":"Nayman jome’ masjidi","lat":40.3247,"lng":69.096139,"addr":"","type":"place_of_worship"},{"id":"xx403433_690828","name":"Mulla Norqul jome’ masjidi","lat":40.343348,"lng":69.082846,"addr":"","type":"place_of_worship"},{"id":"xx403663_690891","name":"Achamayli jome’ masjidi","lat":40.36635,"lng":69.089064,"addr":"","type":"place_of_worship"},{"id":"xx402124_692443","name":"Qora mozor jome’ masjidi","lat":40.212385,"lng":69.24426,"addr":"Bobur ko'chasi","type":"place_of_worship"},{"id":"xx415563_697707","name":"Doniyor bin Ozod jome’ masjidi","lat":41.556282,"lng":69.770726,"addr":"","type":"place_of_worship"},{"id":"xx415706_697821","name":"Olimjon ota jome’ masjidi","lat":41.570588,"lng":69.782114,"addr":"","type":"place_of_worship"},{"id":"xx415510_696792","name":"Mulla Po‘lat ota jome’ masjidi","lat":41.550963,"lng":69.679245,"addr":"","type":"place_of_worship"},{"id":"xx414835_696286","name":"Xazrat Usmon jome’ masjidi","lat":41.483513,"lng":69.628583,"addr":"","type":"place_of_worship"},{"id":"xx415457_696855","name":"Sidqiy Xondaliqiy jome’ masjidi","lat":41.545707,"lng":69.685458,"addr":"","type":"place_of_worship"},{"id":"xx414549_696057","name":"Masat ota jome’ masjidi","lat":41.454877,"lng":69.605716,"addr":"","type":"place_of_worship"},{"id":"xx416757_699571","name":"Sayitboy o‘g‘li vali Xalfa jome’ masjidi","lat":41.675702,"lng":69.957064,"addr":"","type":"place_of_worship"},{"id":"xx415390_696720","name":"Sori eshon Abduali jome’ masjidi","lat":41.538967,"lng":69.671968,"addr":"","type":"place_of_worship"},{"id":"xx415377_697123","name":"Sari qangli jome’ masjidi","lat":41.537699,"lng":69.712335,"addr":"","type":"place_of_worship"},{"id":"xx416117_697237","name":"Sulton xo‘ja eshtoy bobo jome’ masjidi","lat":41.611708,"lng":69.72367,"addr":"","type":"place_of_worship"},{"id":"xx414970_696705","name":"jom'e masjid","lat":41.497049,"lng":69.670529,"addr":"","type":"place_of_worship"},{"id":"xx416131_698720","name":"Jomboy jome’ masjidi","lat":41.613135,"lng":69.872031,"addr":"","type":"place_of_worship"},{"id":"xx414284_695998","name":"Oq ota jome’ masjidi","lat":41.428443,"lng":69.599834,"addr":"","type":"place_of_worship"},{"id":"xx414486_696331","name":"Qumursqa ota jome’ masjidi","lat":41.448587,"lng":69.633074,"addr":"","type":"place_of_worship"},{"id":"xx414784_696496","name":"Qizil Qang‘li ota jome’ masjidi","lat":41.478366,"lng":69.649614,"addr":"","type":"place_of_worship"},{"id":"xx407781_690977","name":"Chimildiq ota jome’ masjidi","lat":40.778115,"lng":69.097653,"addr":"","type":"place_of_worship"},{"id":"xx407338_691540","name":"Raxmatulla qori jome’ masjidi","lat":40.733786,"lng":69.15396,"addr":"","type":"place_of_worship"},{"id":"xx407481_690277","name":"Tursun ona jome’ masjidi","lat":40.748095,"lng":69.027652,"addr":"","type":"place_of_worship"},{"id":"xx408084_692371","name":"Qodirxon Mahsum jome’ masjidi","lat":40.808431,"lng":69.237133,"addr":"","type":"place_of_worship"},{"id":"xx406398_692146","name":"Saydali eshon jome’ masjidi","lat":40.639834,"lng":69.214619,"addr":"","type":"place_of_worship"},{"id":"xx408123_692860","name":"Qoraqo‘yli jome’ masjidi","lat":40.812255,"lng":69.285962,"addr":"","type":"place_of_worship"},{"id":"xx407924_691281","name":"Mulla Abduroziq jome’ masjidi","lat":40.792369,"lng":69.128086,"addr":"","type":"place_of_worship"},{"id":"xx408032_691967","name":"Oltish jome’ masjidi","lat":40.803234,"lng":69.19671,"addr":"","type":"place_of_worship"},{"id":"xx407187_691106","name":"Jonjigit qori jome’ masjidi","lat":40.718684,"lng":69.110601,"addr":"","type":"place_of_worship"},{"id":"xx407153_690525","name":"Oqsoq ota jome’ masjidi","lat":40.715313,"lng":69.052463,"addr":"","type":"place_of_worship"},{"id":"xx407186_692835","name":"Rovat jome’ masjidi","lat":40.718554,"lng":69.283511,"addr":"","type":"place_of_worship"},{"id":"xx406990_692205","name":"Bo‘ston jome’ masjidi","lat":40.698966,"lng":69.220503,"addr":"","type":"place_of_worship"},{"id":"xx407820_692083","name":"Polvonto‘ra jome’ masjidi","lat":40.782007,"lng":69.20827,"addr":"","type":"place_of_worship"},{"id":"xx407582_691792","name":"Moytepa jome’ masjidi","lat":40.758233,"lng":69.179184,"addr":"","type":"place_of_worship"},{"id":"xx407354_693042","name":"Eshtoy bobo jome’ masjidi","lat":40.735361,"lng":69.30419,"addr":"","type":"place_of_worship"},{"id":"xx413311_691503","name":"Abdulloh ibn Ravoha jome’ masjidi","lat":41.331105,"lng":69.150327,"addr":"","type":"place_of_worship"},{"id":"xx413370_691308","name":"Amir Hamza ibn Abdumuttolib jome’ masjidi","lat":41.337016,"lng":69.130826,"addr":"","type":"place_of_worship"},{"id":"xx412775_690342","name":"Anas ibn Malik jome’ masjidi","lat":41.277474,"lng":69.034213,"addr":"","type":"place_of_worship"},{"id":"xx412237_691387","name":"Mir Abdullo eshon jome’ masjidi","lat":41.223747,"lng":69.138671,"addr":"","type":"place_of_worship"},{"id":"xx413129_691423","name":"Fath jome’ masjidi","lat":41.312934,"lng":69.142309,"addr":"","type":"place_of_worship"},{"id":"xx413924_693420","name":"O‘nqo‘rg‘on jome’ masjidi","lat":41.39241,"lng":69.342041,"addr":"","type":"place_of_worship"},{"id":"xx414165_694281","name":"Masharip ota jome' masjidi","lat":41.416465,"lng":69.428133,"addr":"","type":"place_of_worship"},{"id":"xx413616_693847","name":"Cho'daraxt","lat":41.361612,"lng":69.384725,"addr":"","type":"place_of_worship"},{"id":"xx414428_694414","name":"Xo‘jaqo‘rg‘on jome' masjidi","lat":41.442843,"lng":69.441424,"addr":"","type":"place_of_worship"},{"id":"xx413836_694694","name":"Darvish buva jome’ masjidi","lat":41.383606,"lng":69.469358,"addr":"","type":"place_of_worship"},{"id":"xx414241_693496","name":"Dada Muxammad xoji Firdavs jome' masjidi","lat":41.424149,"lng":69.349592,"addr":"","type":"place_of_worship"},{"id":"xx413597_693554","name":"Yalang'och ota jome' masjidi","lat":41.359721,"lng":69.355399,"addr":"","type":"place_of_worship"},{"id":"xx408537_689339","name":"Yangi mahalla jome’ masjidi","lat":40.853687,"lng":68.933887,"addr":"","type":"place_of_worship"},{"id":"xx409099_688036","name":"Xo‘ja Axmad Yassaviy jome’ masjidi","lat":40.909905,"lng":68.803551,"addr":"","type":"place_of_worship"},{"id":"xx409853_690972","name":"Toshboy ota jome’ masjidi","lat":40.985279,"lng":69.097203,"addr":"","type":"place_of_worship"},{"id":"xx409812_690460","name":"Olmazor jome’ masjidi","lat":40.981177,"lng":69.046034,"addr":"","type":"place_of_worship"},{"id":"xx410177_691234","name":"Amir Xamza Asadulloh jome’ masjidi","lat":41.017657,"lng":69.123389,"addr":"","type":"place_of_worship"},{"id":"xx410377_691290","name":"Yilqichi jome’ masjidi","lat":41.037683,"lng":69.128956,"addr":"","type":"place_of_worship"},{"id":"xx409077_687826","name":"Arslonbob jome’ masjidi","lat":40.907749,"lng":68.782587,"addr":"","type":"place_of_worship"},{"id":"xx408841_690240","name":"Xo‘ja jome’ masjidi","lat":40.884138,"lng":69.024033,"addr":"","type":"place_of_worship"},{"id":"xx408471_687990","name":"Gul jome’ masjidi","lat":40.847067,"lng":68.799023,"addr":"","type":"place_of_worship"},{"id":"xx409632_690496","name":"jom'e masjid","lat":40.963224,"lng":69.049599,"addr":"","type":"place_of_worship"},{"id":"xx409898_693674","name":"Ismat ota jome’ masjidi","lat":40.989756,"lng":69.367371,"addr":"","type":"place_of_worship"},{"id":"xx410005_693659","name":"jom'e masjid","lat":41.000473,"lng":69.365912,"addr":"","type":"place_of_worship"},{"id":"xx409154_691163","name":"Juvonmard jome’ masjidi","lat":40.915361,"lng":69.116305,"addr":"","type":"place_of_worship"},{"id":"xx409496_691487","name":"Erbo‘ta qozi jome’ masjidi","lat":40.949621,"lng":69.148674,"addr":"","type":"place_of_worship"},{"id":"xx409848_692227","name":"Imom al-Buxoriy jome’ masjidi","lat":40.98483,"lng":69.222661,"addr":"","type":"place_of_worship"},{"id":"xx407661_689568","name":"Namozboy bobo jome’ masjidi","lat":40.766119,"lng":68.956813,"addr":"","type":"place_of_worship"},{"id":"xx407420_689750","name":"Shoxruxiya jome’ masjidi","lat":40.742025,"lng":68.974982,"addr":"","type":"place_of_worship"},{"id":"xx409023_696413","name":"Xonobod jome’ masjidi","lat":40.902271,"lng":69.641252,"addr":"","type":"place_of_worship"},{"id":"xx410643_694435","name":"Imomi Husain ibn Ali jome’ masjidi","lat":41.064287,"lng":69.443506,"addr":"","type":"place_of_worship"},{"id":"xx410596_695306","name":"Quraysh jome’ masjidi","lat":41.059617,"lng":69.530595,"addr":"","type":"place_of_worship"},{"id":"xx408667_696779","name":"Abduqoxxor Maxsum jome’ masjidi","lat":40.866716,"lng":69.677881,"addr":"","type":"place_of_worship"},{"id":"xx409064_697323","name":"Qoraxitoy jome’ masjidi","lat":40.906395,"lng":69.732258,"addr":"","type":"place_of_worship"},{"id":"xx408958_698815","name":"Mulla Umar Oxun jome’ masjidi","lat":40.895831,"lng":69.881493,"addr":"","type":"place_of_worship"},{"id":"xx408803_698148","name":"Chilqori jome’ masjidi","lat":40.880272,"lng":69.814786,"addr":"","type":"place_of_worship"},{"id":"xx408779_697466","name":"Qo‘rg‘on shams jome' masjidi","lat":40.877914,"lng":69.74662,"addr":"","type":"place_of_worship"},{"id":"xx409073_699379","name":"Payg‘ambar ota jome’ masjidi","lat":40.907298,"lng":69.937899,"addr":"","type":"place_of_worship"},{"id":"xx411812_696820","name":"Sirli jome’ masjidi","lat":41.18122,"lng":69.681952,"addr":"","type":"place_of_worship"},{"id":"xx412999_696800","name":"Bobo mochin jome’ masjidi","lat":41.299883,"lng":69.679954,"addr":"","type":"place_of_worship"},{"id":"xx413104_696287","name":"Boyqozon jome’ masjidi","lat":41.31038,"lng":69.628712,"addr":"","type":"place_of_worship"},{"id":"xx412485_698025","name":"jom'e masjid","lat":41.248505,"lng":69.802529,"addr":"","type":"place_of_worship"},{"id":"xx411921_697703","name":"Nevich jome’ masjidi","lat":41.192131,"lng":69.770297,"addr":"","type":"place_of_worship"},{"id":"xx411918_697533","name":"Novdak jome’ masjidi","lat":41.191762,"lng":69.75327,"addr":"","type":"place_of_worship"},{"id":"xx413109_696752","name":"Nurak ota jome’ masjidi","lat":41.310862,"lng":69.675241,"addr":"","type":"place_of_worship"},{"id":"xx412768_697945","name":"Odil ota jome’ masjidi","lat":41.276826,"lng":69.79455,"addr":"","type":"place_of_worship"},{"id":"xx413081_695663","name":"Ubay ibn Ka’ab jome’ masjidi","lat":41.308106,"lng":69.566303,"addr":"","type":"place_of_worship"},{"id":"xx412993_697403","name":"Fayzulloxon boy jome’ masjidi","lat":41.299302,"lng":69.740286,"addr":"","type":"place_of_worship"},{"id":"xx413081_697747","name":"Xisarak jome’ masjidi","lat":41.308069,"lng":69.774656,"addr":"","type":"place_of_worship"},{"id":"xx408241_693525","name":"Mulla bo‘ta qozi jome’ masjidi","lat":40.824125,"lng":69.352542,"addr":"","type":"place_of_worship"},{"id":"xx409385_692588","name":"O‘smat ota jome’ masjidi","lat":40.938545,"lng":69.258825,"addr":"","type":"place_of_worship"},{"id":"xx408980_694876","name":"Kelovchi jome’ masjidi","lat":40.897976,"lng":69.487586,"addr":"","type":"place_of_worship"},{"id":"xx408293_695004","name":"Ko‘l ota jome’ masjidi","lat":40.829298,"lng":69.500367,"addr":"","type":"place_of_worship"},{"id":"xx408596_694102","name":"Sobirxon ota jome’ masjidi","lat":40.85959,"lng":69.410156,"addr":"","type":"place_of_worship"},{"id":"xx408483_693574","name":"Said ota jome’ masjidi","lat":40.84831,"lng":69.357445,"addr":"","type":"place_of_worship"},{"id":"xx413565_691331","name":"Abdulloh ibn Abbos jome’ masjidi","lat":41.356484,"lng":69.133117,"addr":"","type":"place_of_worship"},{"id":"xx414381_693456","name":"Ayri ota jome’ masjidi","lat":41.438071,"lng":69.345556,"addr":"","type":"place_of_worship"},{"id":"xx414091_691809","name":"Zunnurayn jome’ masjidi","lat":41.409138,"lng":69.180923,"addr":"","type":"place_of_worship"},{"id":"xx413899_693211","name":"Raxim ota jome’ masjidi","lat":41.389861,"lng":69.321109,"addr":"","type":"place_of_worship"},{"id":"xx414091_692123","name":"jom'e masjid","lat":41.409109,"lng":69.21228,"addr":"","type":"place_of_worship"},{"id":"xx414086_692627","name":"Xasan ibn Sobit jome’ masjidi","lat":41.408585,"lng":69.262749,"addr":"","type":"place_of_worship"},{"id":"xx414315_693278","name":"Hoji ota jome’ masjidi","lat":41.431526,"lng":69.327829,"addr":"","type":"place_of_worship"},{"id":"xx414246_693111","name":"Xolmuhammad ota jome' masjidi","lat":41.424633,"lng":69.3111,"addr":"","type":"place_of_worship"},{"id":"xx414487_692428","name":"Chuvalachi jome’ masjidi","lat":41.448709,"lng":69.242845,"addr":"","type":"place_of_worship"},{"id":"xx410000_693041","name":"Tuyabo‘g‘iz jome’ masjidi","lat":41.00003,"lng":69.304071,"addr":"","type":"place_of_worship"},{"id":"xx412166_693338","name":"Bektemir jome’ masjidi","lat":41.21656,"lng":69.33377,"addr":"","type":"place_of_worship"},{"id":"xx411354_694063","name":"Boboxon ota jome’ masjidi","lat":41.135368,"lng":69.406308,"addr":"","type":"place_of_worship"},{"id":"xx410723_693053","name":"Sayd Muhammad vali jome’ masjidi","lat":41.07226,"lng":69.305341,"addr":"","type":"place_of_worship"},{"id":"xx409744_693681","name":"Burgalik jome’ masjidi","lat":40.97436,"lng":69.368125,"addr":"","type":"place_of_worship"},{"id":"xx410840_693279","name":"Hazrat Umar jome’ masjidi","lat":41.084007,"lng":69.327929,"addr":"","type":"place_of_worship"},{"id":"xx411728_693005","name":"Xo‘ja korsoz jome’ masjidi","lat":41.172839,"lng":69.300501,"addr":"","type":"place_of_worship"},{"id":"xx409366_687603","name":"Qozi jome’ masjidi","lat":40.936568,"lng":68.76034,"addr":"","type":"place_of_worship"},{"id":"xx409468_687332","name":"Yallama jome’ masjidi","lat":40.9468,"lng":68.733154,"addr":"","type":"place_of_worship"},{"id":"xx409684_688602","name":"Xazrati Ali jome’ masjidi","lat":40.968436,"lng":68.860222,"addr":"","type":"place_of_worship"},{"id":"xx410468_688481","name":"Qulaxmadxo‘ja jome’ masjidi","lat":41.046822,"lng":68.848122,"addr":"","type":"place_of_worship"},{"id":"xx409703_688473","name":"jom'e masjid","lat":40.970325,"lng":68.847347,"addr":"","type":"place_of_worship"},{"id":"xx409570_687422","name":"Saydrahmon to‘ra jome’ masjidi","lat":40.957045,"lng":68.74219,"addr":"","type":"place_of_worship"},{"id":"xx415018_696039","name":"Jalayer O‘rta mahalla jome' masjidi","lat":41.501849,"lng":69.603855,"addr":"","type":"place_of_worship"},{"id":"xx413147_695228","name":"Abu Hanifa jome’ masjidi","lat":41.314663,"lng":69.52284,"addr":"","type":"place_of_worship"},{"id":"xx413578_695523","name":"Omilxon eshon jome’ masjidi","lat":41.357772,"lng":69.552316,"addr":"","type":"place_of_worship"},{"id":"xx414167_695813","name":"Saksonota jome’ masjidi","lat":41.416726,"lng":69.581298,"addr":"","type":"place_of_worship"},{"id":"xx412529_694111","name":"Bordonko‘l jome’ masjidi","lat":41.252919,"lng":69.411103,"addr":"","type":"place_of_worship"},{"id":"xx411183_690550","name":"Jome jome’ masjidi","lat":41.118296,"lng":69.055009,"addr":"","type":"place_of_worship"},{"id":"xx411188_690394","name":"jom'e masjid","lat":41.118817,"lng":69.039365,"addr":"","type":"place_of_worship"},{"id":"xx410899_690324","name":"Eskiqovunchi jome’ masjidi","lat":41.089903,"lng":69.032365,"addr":"","type":"place_of_worship"},{"id":"xx411566_691159","name":"Badr xoji jome’ masjidi","lat":41.156599,"lng":69.115927,"addr":"","type":"place_of_worship"},{"id":"xx411724_692283","name":"jom'e masjid","lat":41.172354,"lng":69.228336,"addr":"","type":"place_of_worship"},{"id":"xx411881_691202","name":"Ikrom xoji jome’ masjidi","lat":41.188088,"lng":69.120226,"addr":"","type":"place_of_worship"},{"id":"xx411075_689306","name":"Imomi A’zam jome’ masjidi","lat":41.107467,"lng":68.930572,"addr":"","type":"place_of_worship"},{"id":"xx410903_690603","name":"jom'e masjid","lat":41.090331,"lng":69.060345,"addr":"","type":"place_of_worship"},{"id":"xx411351_689973","name":"Keskan jome’ masjidi","lat":41.135087,"lng":68.997292,"addr":"","type":"place_of_worship"},{"id":"xx410902_690606","name":"QIRSADAQ jom`e masjidi","lat":41.090218,"lng":69.060588,"addr":"","type":"place_of_worship"},{"id":"xx411261_690484","name":"Pusur oqsoqol jome’ masjidi","lat":41.126114,"lng":69.048434,"addr":"","type":"place_of_worship"},{"id":"xx411017_690850","name":"Sayid ibn Zayd jome’ masjidi","lat":41.101715,"lng":69.084967,"addr":"","type":"place_of_worship"},{"id":"xx411397_691451","name":"Sayid ota jome’ masjidi","lat":41.139738,"lng":69.145077,"addr":"","type":"place_of_worship"},{"id":"xx411433_691689","name":"Sultonxon o‘g‘li Murodxon jome’ masjidi","lat":41.143296,"lng":69.168876,"addr":"","type":"place_of_worship"},{"id":"xx411077_689521","name":"Tavxid jome’ masjidi","lat":41.107689,"lng":68.952129,"addr":"","type":"place_of_worship"},{"id":"xx411706_690134","name":"Usmoni Zunnurayn jome’ masjidi","lat":41.170623,"lng":69.013439,"addr":"","type":"place_of_worship"},