[{"id":"xx462749_-1193457","name":"Islamic Center of Tri Cities","lat":46.27486,"lng":-119.345688,"addr":"Bombing Range Road","type":"yes"},{"id":"xx462748_-1193457","name":"Islamic Center of Tri Cities","lat":46.274849,"lng":-119.345717,"addr":"Bombing Range Road","type":"yes"},{"id":"xx467370_-1171656","name":"Pullman Islamic Center","lat":46.737043,"lng":-117.165623,"addr":"","type":"yes"},{"id":"xx467369_-1171626","name":"St. James Episcopal Church","lat":46.736946,"lng":-117.162618,"addr":"NE Stadium Way","type":"yes"},{"id":"xx476556_-1173181","name":"Spokane Islamic Center","lat":47.655636,"lng":-117.31805,"addr":"","type":"yes"},{"id":"xx462366_-1190729","name":"Saint James Christian Methodist Episcopal Church","lat":46.236636,"lng":-119.072919,"addr":"North Owen Avenue","type":"yes"},{"id":"xx477680_-1173554","name":"Jafaria Community Center","lat":47.768016,"lng":-117.355428,"addr":"North Market Street","type":"mosque"},{"id":"xx477681_-1173556","name":"Islamic place","lat":47.768089,"lng":-117.355557,"addr":"","type":"mosque"}]