[{"id":"xx451279_-629615","name":"St. James United Church","lat":45.127873,"lng":-62.96153,"addr":"Highway 224","type":"place_of_worship"},{"id":"xx450028_-624731","name":"St , James United Church","lat":45.002806,"lng":-62.473091,"addr":"Lewiston Road","type":"yes"},{"id":"xx450888_-634045","name":"St James Anglican Church","lat":45.088777,"lng":-63.404451,"addr":"Highway 2","type":"yes"},{"id":"xx457349_-638686","name":"St. James Presbyterian Church","lat":45.734889,"lng":-63.868578,"addr":"","type":"yes"},{"id":"xx462340_-631277","name":"Charlottetown Mosque","lat":46.233982,"lng":-63.127697,"addr":"Queen Street","type":"place_of_worship"},{"id":"xx450668_-641776","name":"United Church of St. James","lat":45.066763,"lng":-64.177583,"addr":"","type":"yes"},{"id":"xx462351_-631324","name":"St. James Presbyterian Church","lat":46.235063,"lng":-63.132383,"addr":"Fitzroy Street","type":"yes"},{"id":"xx456224_-619888","name":"St James United","lat":45.622421,"lng":-61.98882,"addr":"","type":"yes"},{"id":"xx450762_-644931","name":"St. James Anglican Church","lat":45.076151,"lng":-64.49315,"addr":"Prospect Avenue","type":"church"},{"id":"xx453922_-632158","name":"Truro Masjid","lat":45.392177,"lng":-63.2158,"addr":"","type":"yes"},{"id":"xx450762_-644932","name":"St. James Anglican Church","lat":45.07615,"lng":-64.493172,"addr":"Prospect Avenue","type":"church"},{"id":"xx461624_-601080","name":"Baitul Hafeez Mosque","lat":46.162382,"lng":-60.108001,"addr":"Grand Lake Road","type":"yes"},{"id":"xx462720_-604271","name":"St James Church","lat":46.271978,"lng":-60.427066,"addr":"","type":"yes"},{"id":"xx456099_-626368","name":"Pictou County Mosque","lat":45.609882,"lng":-62.636765,"addr":"Forge Street","type":"church"},{"id":"xx456776_-627089","name":"St. James Anglican Church","lat":45.677646,"lng":-62.708879,"addr":"Denoon Street","type":"church"},{"id":"xx459025_-645176","name":"St James Anglican Church","lat":45.902504,"lng":-64.517566,"addr":"Main Street","type":"yes"},{"id":"xx454167_-636004","name":"St. James United Church","lat":45.416736,"lng":-63.600411,"addr":"","type":"yes"},{"id":"xx488264_-645442","name":"St. James","lat":48.826411,"lng":-64.544202,"addr":"Montée de Wakeham","type":"church"},{"id":"xx465673_-638782","name":"St. James Anglican Church","lat":46.567298,"lng":-63.878221,"addr":"","type":"yes"},{"id":"xx465673_-638790","name":"Old St. James Church","lat":46.567286,"lng":-63.878997,"addr":"","type":"yes"},{"id":"xx481407_-649895","name":"St. James'","lat":48.140677,"lng":-64.989529,"addr":"Route 132","type":"yes"},{"id":"xx481407_-649896","name":"St. James'","lat":48.140669,"lng":-64.989551,"addr":"Route 132","type":"yes"}]