[{"id":"xx464957_-843460","name":"Saint James Episcopal Church","lat":46.495735,"lng":-84.345973,"addr":"","type":"place_of_worship"},{"id":"xx462289_-845947","name":"Saint James Lutheran Church","lat":46.228889,"lng":-84.594722,"addr":"","type":"place_of_worship"},{"id":"xx461843_-829587","name":"St. James the Greater Parish","lat":46.184323,"lng":-82.958687,"addr":"","type":"place_of_worship"},{"id":"xx465132_-809346","name":"Sudbury Mosque","lat":46.513194,"lng":-80.934591,"addr":"Churchill Avenue","type":"mosque"},{"id":"xx466512_-810077","name":"St James United Church","lat":46.651197,"lng":-81.007682,"addr":"","type":"yes"},{"id":"xx456426_-844802","name":"Saint James Episcopal Church","lat":45.642591,"lng":-84.480182,"addr":"South Huron Street","type":"church"},{"id":"xx453453_-800333","name":"St. James Centennial United Church","lat":45.345305,"lng":-80.033328,"addr":"Mary Street","type":"yes"},{"id":"xx453453_-800334","name":"St. James Centennial United Church","lat":45.34531,"lng":-80.033361,"addr":"Mary Street","type":"yes"},{"id":"xx453784_-839261","name":"Saint James Lutheran Church","lat":45.378415,"lng":-83.926141,"addr":"South Ward Branch Road","type":"yes"}]