[{"id":"xx487503_19197","name":"Salle de prière","lat":48.750292,"lng":1.919672,"addr":"Rue des Marchands","type":"place_of_worship"},{"id":"xx488917_24337","name":"Mosquée Niya","lat":48.891668,"lng":2.433699,"addr":"","type":"place_of_worship"},{"id":"xx485437_26353","name":"Islamic place","lat":48.543742,"lng":2.635291,"addr":"","type":"place_of_worship"},{"id":"xx491511_22752","name":"Mosquée de Persan","lat":49.151105,"lng":2.275185,"addr":"","type":"place_of_worship"},{"id":"xx488735_23547","name":"Mosquée 'Ali Ibn Al Khattab","lat":48.873521,"lng":2.354738,"addr":"","type":"place_of_worship"},{"id":"xx488454_22827","name":"Mosquée de Paris 15ème","lat":48.845432,"lng":2.282672,"addr":"","type":"place_of_worship"},{"id":"xx488680_23808","name":"Association Culturelle des Musulmans","lat":48.86796,"lng":2.3808,"addr":"","type":"mosque"},{"id":"xx479023_18987","name":"Masjid Ibn-Badiss","lat":47.902348,"lng":1.898711,"addr":"Rue des Carmes","type":"place_of_worship"},{"id":"xx456960_48775","name":"A.U.M.I \"Nour\"","lat":45.696049,"lng":4.877459,"addr":"","type":"place_of_worship"},{"id":"xx456975_48992","name":"Es-Sunna","lat":45.697516,"lng":4.899192,"addr":"","type":"place_of_worship"},{"id":"xx456696_47597","name":"Association Islamique de Brignais Abou Bakr","lat":45.669631,"lng":4.759693,"addr":"","type":"place_of_worship"},{"id":"xx456911_48740","name":"Bilal","lat":45.691055,"lng":4.873959,"addr":"","type":"place_of_worship"},{"id":"xx461225_34312","name":"El Hijra","lat":46.122505,"lng":3.431233,"addr":"","type":"place_of_worship"},{"id":"xx465718_33404","name":"Centre Culturel Islamique de Moulins","lat":46.571803,"lng":3.340409,"addr":"","type":"place_of_worship"},{"id":"xx458957_44333","name":"Association pour la Connaissance de l'Islam","lat":45.895744,"lng":4.43328,"addr":"","type":"place_of_worship"},{"id":"xx468063_17040","name":"Mosquée Er-Rahma","lat":46.806314,"lng":1.703957,"addr":"","type":"place_of_worship"},{"id":"xx489054_23819","name":"Masjîd de la Fraternité","lat":48.905392,"lng":2.3819,"addr":"","type":"place_of_worship"},{"id":"xx479702_01650","name":"Mosquée de l'association des musulmans d'Allonnes","lat":47.970227,"lng":0.165018,"addr":"Allonnes","type":"place_of_worship"},{"id":"xx487355_24498","name":"Islamic place","lat":48.735488,"lng":2.4498,"addr":"","type":"place_of_worship"},{"id":"xx459849_47303","name":"One Store Orient","lat":45.984856,"lng":4.73031,"addr":"Route de Frans","type":"mosque"},{"id":"xx494121_02469","name":"Islamic place","lat":49.412068,"lng":0.246922,"addr":"","type":"place_of_worship"},{"id":"xx454402_43773","name":"lieu de prière","lat":45.440165,"lng":4.377296,"addr":"Rue Saint-Just","type":"place_of_worship"},{"id":"xx489294_24039","name":"Union des Organisations Islamiques de France","lat":48.929431,"lng":2.403869,"addr":"","type":"place_of_worship"},{"id":"xx488876_23607","name":"Abdoulmajid","lat":48.88762,"lng":2.360651,"addr":"","type":"place_of_worship"},{"id":"xx488874_23698","name":"Mosquée A Daawa","lat":48.887437,"lng":2.369842,"addr":"Rue de Tanger","type":"place_of_worship"},{"id":"xx488076_22962","name":"Salle de prière de Châtillon","lat":48.807614,"lng":2.29618,"addr":"","type":"place_of_worship"},{"id":"xx488431_25325","name":"Mosquée de Noisy","lat":48.843112,"lng":2.532501,"addr":"Rue Léon Menu","type":"place_of_worship"},{"id":"xx487723_24071","name":"Mosquée de Choisy-le-Roi","lat":48.772284,"lng":2.407063,"addr":"Voie des Roses","type":"place_of_worship"},{"id":"xx488820_24867","name":"Mosquée de Rosny-sous-Bois","lat":48.881962,"lng":2.486666,"addr":"Rue Philibert Hoffmann","type":"place_of_worship"},{"id":"xx488949_22993","name":"Mosquée des Abeilles","lat":48.894947,"lng":2.299346,"addr":"Rue Jules Verne","type":"place_of_worship"},{"id":"xx488826_23723","name":"Pompes funèbres musulmanes","lat":48.882618,"lng":2.372267,"addr":"","type":"mosque"},{"id":"xx488921_23490","name":"Boucherie Gouraya","lat":48.892129,"lng":2.348956,"addr":"Boulevard Ornano","type":"mosque"},{"id":"xx457805_49058","name":"Islamic place","lat":45.780526,"lng":4.905803,"addr":"","type":"place_of_worship"},{"id":"xx488282_23765","name":"Masjid Alrahmen","lat":48.828156,"lng":2.376459,"addr":"","type":"place_of_worship"},{"id":"xx488595_23801","name":"Association Islamique en France","lat":48.859501,"lng":2.380148,"addr":"Cité Industrielle","type":"place_of_worship"},{"id":"xx489491_24130","name":"Mosquée Sidna Nuh","lat":48.949108,"lng":2.412972,"addr":"Rue Louise Michel","type":"place_of_worship"},{"id":"xx489141_25487","name":"Groupe Scolaire Privé Bellevue","lat":48.914141,"lng":2.548684,"addr":"","type":"school"},{"id":"xx458461_12621","name":"Association des Musulmans de Limoges pour la Fraternité","lat":45.846053,"lng":1.262136,"addr":"","type":"mosque"},{"id":"xx489061_23944","name":"Nahdj el Istikbal","lat":48.906055,"lng":2.394351,"addr":"","type":"mosque"},{"id":"xx483216_08031","name":"Islamic place","lat":48.321577,"lng":0.803101,"addr":"Rue Maison Maraine","type":"place_of_worship"},{"id":"xx487362_13460","name":"Mosquée Omar","lat":48.736173,"lng":1.346038,"addr":"","type":"place_of_worship"},{"id":"xx483099_40365","name":"Ibn Omaïr","lat":48.309914,"lng":4.036461,"addr":"","type":"place_of_worship"},{"id":"xx492497_24631","name":"Collège Al Ghazali","lat":49.2497,"lng":2.463079,"addr":"Rue Louis Aragon","type":"school"},{"id":"xx487632_23298","name":"Mosquée de Fresnes","lat":48.763224,"lng":2.329822,"addr":"","type":"place_of_worship"},{"id":"xx454350_43823","name":"Islamic place","lat":45.434976,"lng":4.382329,"addr":"","type":"place_of_worship"},{"id":"xx454347_43826","name":"Pompes Funèbres Musulmanes Nabil","lat":45.434701,"lng":4.382594,"addr":"","type":"mosque"},{"id":"xx454357_43859","name":"Pompes Funèbres Qibla","lat":45.435733,"lng":4.385907,"addr":"","type":"mosque"},{"id":"xx488586_24258","name":"Mosquée El-Islah","lat":48.858575,"lng":2.425815,"addr":"","type":"place_of_worship"},{"id":"xx487999_22995","name":"Association cultuelle et culturelle indo-française Jaffari","lat":48.799899,"lng":2.299548,"addr":"Chemin Latéral","type":"mosque"},{"id":"xx487857_20433","name":"Islamic place","lat":48.785746,"lng":2.043269,"addr":"","type":"place_of_worship"},{"id":"xx451594_15043","name":"Mosquée El-Fath","lat":45.159376,"lng":1.50434,"addr":"","type":"place_of_worship"},{"id":"xx489116_23151","name":"Centre Cultuel et Culturel Musulman de Clichy","lat":48.911558,"lng":2.315123,"addr":"","type":"community_centre"},{"id":"xx458774_48442","name":"Mosquée Bilal","lat":45.877391,"lng":4.844202,"addr":"","type":"place_of_worship"},{"id":"xx488120_21947","name":"Mosquée de Chaville","lat":48.811989,"lng":2.194721,"addr":"","type":"place_of_worship"},{"id":"xx488656_25106","name":"Mosquée Al-Amel","lat":48.865566,"lng":2.510622,"addr":"Rue des Renouilleres","type":"mosque"},{"id":"xx473756_07108","name":"Mosquée de Bouzignac","lat":47.375623,"lng":0.710781,"addr":"","type":"place_of_worship"},{"id":"xx473476_06581","name":"Mosquée de Joué-lès-Tours","lat":47.347615,"lng":0.658076,"addr":"","type":"place_of_worship"},{"id":"xx488755_22275","name":"Mosquée Salam","lat":48.875511,"lng":2.227547,"addr":"Rue des Velettes","type":"place_of_worship"},{"id":"xx488816_23640","name":"El Badre","lat":48.8816,"lng":2.363981,"addr":"","type":"mosque"},{"id":"xx489052_25549","name":"Mosquée Bilal","lat":48.905211,"lng":2.554945,"addr":"","type":"place_of_worship"},{"id":"xx457713_48328","name":"Mosquée Koba","lat":45.771289,"lng":4.832754,"addr":"","type":"place_of_worship"},{"id":"xx488126_23132","name":"Association mosquée de Montrouge","lat":48.812584,"lng":2.313152,"addr":"","type":"place_of_worship"},{"id":"xx488872_23541","name":"Khalid Ibn Walid","lat":48.887234,"lng":2.354084,"addr":"","type":"place_of_worship"},{"id":"xx489962_21512","name":"Salle de Prière (mosquée)","lat":48.99623,"lng":2.151192,"addr":"","type":"place_of_worship"},{"id":"xx488884_23563","name":"Salle de Prière","lat":48.888441,"lng":2.356285,"addr":"","type":"place_of_worship"},{"id":"xx494320_21039","name":"Mosquée","lat":49.432045,"lng":2.103917,"addr":"","type":"place_of_worship"},{"id":"xx454251_43831","name":"Islamic place","lat":45.425055,"lng":4.383078,"addr":"Rue de la Vierge","type":"place_of_worship"},{"id":"xx457528_48449","name":"Mosquée Mosaab Ibn Umaïr","lat":45.752783,"lng":4.844923,"addr":"","type":"place_of_worship"},{"id":"xx494261_20982","name":"Mosquée","lat":49.426082,"lng":2.098191,"addr":"","type":"place_of_worship"},{"id":"xx487016_23868","name":"Salle de prière ABPE","lat":48.701555,"lng":2.38676,"addr":"Avenue du 18 Avril 1944","type":"musalla"},{"id":"xx461459_34143","name":"Al Rahma","lat":46.14586,"lng":3.414266,"addr":"Allée des Ailes","type":"place_of_worship"},{"id":"xx489176_23044","name":"Safa","lat":48.917582,"lng":2.304354,"addr":"","type":"place_of_worship"},{"id":"xx454418_43958","name":"Association Culturelle l'Ouverture","lat":45.44179,"lng":4.395768,"addr":"","type":"place_of_worship"},{"id":"xx495079_01763","name":"Islamic place","lat":49.507876,"lng":0.176335,"addr":"","type":"place_of_worship"},{"id":"xx488251_25166","name":"École maternelle privée l'Olivier des Enfants","lat":48.825144,"lng":2.516552,"addr":"Rue Eugène Varlin","type":"school"},{"id":"xx494356_10865","name":"Erradja Funéraires","lat":49.43559,"lng":1.086453,"addr":"","type":"mosque"},{"id":"xx457556_48447","name":"Iqra Shop","lat":45.755572,"lng":4.844673,"addr":"","type":"mosque"},{"id":"xx488765_24450","name":"Mosquée de l'Association pour la Fraternité et la Tolérance","lat":48.87646,"lng":2.444982,"addr":"","type":"place_of_worship"},{"id":"xx488685_23799","name":"Imane","lat":48.86846,"lng":2.379894,"addr":"Rue Jean-Pierre Timbaud","type":"mosque"},{"id":"xx457523_48452","name":"Yümna","lat":45.752274,"lng":4.845157,"addr":"Rue Chalopin","type":"mosque"},{"id":"xx457608_49293","name":"Amicale des Algériens de France","lat":45.760766,"lng":4.929251,"addr":"","type":"place_of_worship"},{"id":"xx457570_48490","name":"Salam Tour","lat":45.757006,"lng":4.849016,"addr":"","type":"mosque"},{"id":"xx489765_17076","name":"Mosquée Mantes Sud","lat":48.976541,"lng":1.707646,"addr":"Rue des Merisiers","type":"place_of_worship"},{"id":"xx485402_26248","name":"Islamic place","lat":48.540188,"lng":2.624797,"addr":"","type":"place_of_worship"},{"id":"xx485380_26282","name":"Islamic place","lat":48.537956,"lng":2.628199,"addr":"","type":"place_of_worship"},{"id":"xx456482_01855","name":"Mosquée Alfath","lat":45.648199,"lng":0.185505,"addr":"","type":"place_of_worship"},{"id":"xx459587_17456","name":"Mosquée de Bourganeuf","lat":45.958733,"lng":1.745627,"addr":"Avenue de la Voie Dieu","type":"place_of_worship"},{"id":"xx489304_23327","name":"Grande Mosquée de Villeneuve-La-Garenne","lat":48.930364,"lng":2.332689,"addr":"Rue Arthur Guillemain","type":"place_of_worship"},{"id":"xx457888_48541","name":"As Sakina","lat":45.788802,"lng":4.854101,"addr":"","type":"place_of_worship"},{"id":"xx489491_23852","name":"Grande Mosquée de Stains","lat":48.949149,"lng":2.385239,"addr":"Avenue de Stalingrad","type":"place_of_worship"},{"id":"xx489480_23762","name":"Salle de prière","lat":48.948045,"lng":2.376237,"addr":"Avenue de Stalingrad","type":"place_of_worship"},{"id":"xx487313_23035","name":"Mosquée Hal Houda","lat":48.731316,"lng":2.303525,"addr":"","type":"place_of_worship"},{"id":"xx454715_44033","name":"École Luqmân","lat":45.471524,"lng":4.403337,"addr":"Rue Paganini","type":"school"},{"id":"xx456937_49322","name":"Mosquée Ennour","lat":45.69371,"lng":4.932239,"addr":"","type":"place_of_worship"},{"id":"xx492553_24725","name":"Mosquée Omar Ibn Alkhattab","lat":49.255279,"lng":2.47249,"addr":"","type":"place_of_worship"},{"id":"xx488595_24462","name":"Association de la communauté musulmane de Montreuil","lat":48.859546,"lng":2.446181,"addr":"rue Gaston Lauriau","type":"place_of_worship"},{"id":"xx497658_47193","name":"Al Firdaous","lat":49.765753,"lng":4.719295,"addr":"Avenue d'Arches","type":"mosque"},{"id":"xx490013_16868","name":"École Eva De Vitray","lat":49.001311,"lng":1.686794,"addr":"","type":"school"},{"id":"xx489980_16876","name":"École Eva De Vitray","lat":48.997996,"lng":1.687564,"addr":"","type":"school"},{"id":"xx488567_24228","name":"Mosquée El-Forqane","lat":48.856652,"lng":2.422758,"addr":"","type":"place_of_worship"},{"id":"xx486497_24113","name":"Mosquée de la Miséricorde","lat":48.649723,"lng":2.411334,"addr":"","type":"place_of_worship"},{"id":"xx489998_16832","name":"Islamic place","lat":48.999751,"lng":1.683219,"addr":"","type":"place_of_worship"},{"id":"xx488994_23521","name":"Mosque - Sociocultural Institute of Muslims","lat":48.899383,"lng":2.352111,"addr":"Avenue de la Porte des Poissonniers","type":"place_of_worship"},{"id":"xx468008_17040","name":"Grande Mosquée de Châteauroux","lat":46.800812,"lng":1.703985,"addr":"","type":"place_of_worship"},{"id":"xx489138_23884","name":"Mosquée Al Ansar","lat":48.913787,"lng":2.388421,"addr":"Ruelle de la Grande Cour","type":"place_of_worship"},{"id":"xx488653_25141","name":"Mosquée Al-Amel","lat":48.865302,"lng":2.514052,"addr":"Rue Sir Alexander Fleming","type":"place_of_worship"},{"id":"xx485743_22032","name":"Islamic place","lat":48.574303,"lng":2.20319,"addr":"","type":"place_of_worship"},{"id":"xx475831_13043","name":"École primaire Les S@voirs","lat":47.583146,"lng":1.304329,"addr":"","type":"school"},{"id":"xx475831_13042","name":"Lycée Les S@voirs","lat":47.583068,"lng":1.304169,"addr":"","type":"school"},{"id":"xx488679_24055","name":"Anwaar e Madina","lat":48.867877,"lng":2.40551,"addr":"","type":"place_of_worship"},{"id":"xx454272_43836","name":"Mosquée Bilal","lat":45.427242,"lng":4.383617,"addr":"","type":"place_of_worship"},{"id":"xx490092_19036","name":"Islamic place","lat":49.009173,"lng":1.903567,"addr":"","type":"place_of_worship"},{"id":"xx489496_28936","name":"Islamic place","lat":48.949556,"lng":2.893591,"addr":"","type":"place_of_worship"},{"id":"xx488382_27289","name":"École Avenir Val de Bussy","lat":48.838243,"lng":2.72893,"addr":"","type":"school"},{"id":"xx473493_06634","name":"Al Qamar","lat":47.349305,"lng":0.663392,"addr":"","type":"mosque"},{"id":"xx489399_20296","name":"Mosquée de l'Union des Musulmans de Carrières","lat":48.939897,"lng":2.029583,"addr":"","type":"place_of_worship"},{"id":"xx459767_47472","name":"Collège privé La Plume Bleue","lat":45.976719,"lng":4.747227,"addr":"","type":"school"},{"id":"xx459768_47473","name":"École élémentaire privée La Plume Bleue","lat":45.976819,"lng":4.747319,"addr":"","type":"school"},{"id":"xx488985_25479","name":"Ditib mosquée selimiye","lat":48.898495,"lng":2.547868,"addr":"avenue Jean Jaurès","type":"place_of_worship"},{"id":"xx457118_48900","name":"École primaire privée La Maison d'Arqam","lat":45.711805,"lng":4.890043,"addr":"","type":"school"},{"id":"xx457117_48901","name":"École secondaire privée La Maison d'Arqam","lat":45.71171,"lng":4.890117,"addr":"","type":"school"},{"id":"xx489005_25534","name":"Mosquée des louanges","lat":48.900503,"lng":2.553397,"addr":"","type":"place_of_worship"},{"id":"xx489663_23377","name":"École primaire privée Al Qalam","lat":48.96632,"lng":2.337718,"addr":"","type":"school"},{"id":"xx492509_24675","name":"Abou Bakr","lat":49.250875,"lng":2.467523,"addr":"","type":"place_of_worship"},{"id":"xx487776_26120","name":"Association Culturelle et Cutuelle Franco Pakistanaise","lat":48.777629,"lng":2.612042,"addr":"Rue de l'Épinette","type":"place_of_worship"},{"id":"xx465484_33519","name":"Association Culturelle Turque d'Yzeure","lat":46.548435,"lng":3.351949,"addr":"Rue Nicolas Rambourg","type":"place_of_worship"},{"id":"xx489024_22485","name":"AviSeine","lat":48.902421,"lng":2.24851,"addr":"Rue Pierre Brossolette","type":"community_centre"},{"id":"xx495147_01746","name":"Salle de prière","lat":49.514747,"lng":0.174617,"addr":"Av. du 8 Mai 1945","type":"place_of_worship"},{"id":"xx457143_48898","name":"Mosquée Ottoman (ACCTL)","lat":45.714262,"lng":4.889799,"addr":"Rue Marcel Pagnol","type":"place_of_worship"},{"id":"xx457357_48411","name":"Institut INSAN","lat":45.735665,"lng":4.841108,"addr":"Rue Croix-Barret","type":"community_centre"},{"id":"xx457513_48652","name":"Conseil régional du culte musulman Rhône-Alpes","lat":45.751331,"lng":4.86517,"addr":"Rue du Dauphiné","type":"community_centre"},{"id":"xx457470_48606","name":"Association des etudiants musukmans de France","lat":45.747009,"lng":4.860567,"addr":"Av. des Frères Lumière","type":"community_centre"},{"id":"xx457607_31214","name":"Conseil Départemental Du Culte Musulman Dy Puy De Dôme","lat":45.760675,"lng":3.121445,"addr":"Av. de la Margeride","type":"community_centre"},{"id":"xx457809_30987","name":"Association Culturelle Maghrébine","lat":45.780907,"lng":3.098724,"addr":"Rue d'Alsace","type":"community_centre"},{"id":"xx457875_31217","name":"Amicale Culturelle Turque","lat":45.787482,"lng":3.121722,"addr":"Av. Jean Mermoz","type":"place_of_worship"},{"id":"xx457414_48543","name":"Pompes funèbres musulmanes L'Éternité","lat":45.741399,"lng":4.854283,"addr":"Avenue Berthelot","type":"mosque"},{"id":"xx457410_31707","name":"Grande Mosquée de Cournon d'Auvergne","lat":45.74102,"lng":3.170696,"addr":"Avenue d'Aubière","type":"place_of_worship"},{"id":"xx455915_40725","name":"Association culturelle turque","lat":45.591508,"lng":4.072509,"addr":"Rue de Saint-Anthème","type":"place_of_worship"},{"id":"xx487689_24659","name":"Orient funéraire Al Wassia","lat":48.768886,"lng":2.465929,"addr":"","type":"mosque"},{"id":"xx498443_32967","name":"Mosquée Ayasofya (DITIB Saint-Quentin)","lat":49.844261,"lng":3.296669,"addr":"","type":"place_of_worship"},{"id":"xx465765_33307","name":"Mosquée","lat":46.576521,"lng":3.330696,"addr":"","type":"place_of_worship"},{"id":"xx497639_46941","name":"Mosquée Tawhid De Charleville-Mézières","lat":49.763899,"lng":4.694111,"addr":"","type":"place_of_worship"},{"id":"xx452536_46635","name":"Mosquée d’Annonay","lat":45.253621,"lng":4.663516,"addr":"","type":"place_of_worship"},{"id":"xx482724_40825","name":"Mosquée (Association 3C Chartreux)","lat":48.272361,"lng":4.0825,"addr":"","type":"place_of_worship"},{"id":"xx471359_49562","name":"L'Ouverture Mosquée - مسجد","lat":47.135942,"lng":4.956172,"addr":"","type":"place_of_worship"},{"id":"xx473365_49937","name":"Mosquée de Talant","lat":47.33645,"lng":4.993661,"addr":"","type":"place_of_worship"},{"id":"xx450050_01367","name":"Mosquée (AMM)","lat":45.005043,"lng":0.136694,"addr":"","type":"place_of_worship"},{"id":"xx483117_19971","name":"Mosquée (Association Culturelle Musulmane d'Angerville)","lat":48.311662,"lng":1.997087,"addr":"","type":"place_of_worship"},{"id":"xx487086_25225","name":"Mosquée de brunoy","lat":48.708631,"lng":2.522492,"addr":"","type":"place_of_worship"},{"id":"xx487104_23231","name":"Grande Mosquée de Chilly-Mazarin (AMCM)","lat":48.710363,"lng":2.323091,"addr":"","type":"place_of_worship"},{"id":"xx486199_24680","name":"Corbeil-essonnes cami mosquée","lat":48.619882,"lng":2.468008,"addr":"","type":"place_of_worship"},{"id":"xx485928_24784","name":"Mosquée Nour EL Fajr Ermitage Corbeil-Essonnes","lat":48.592782,"lng":2.478435,"addr":"","type":"place_of_worship"},{"id":"xx486814_24303","name":"Mosquée Nour de Draveil مسجد النور","lat":48.681409,"lng":2.430299,"addr":"","type":"place_of_worship"},{"id":"xx484334_21499","name":"Mosquée (Association Culturelle Turque d'Etampes)","lat":48.433363,"lng":2.149884,"addr":"","type":"place_of_worship"},{"id":"xx484509_21687","name":"Mosquée Etampes Nord","lat":48.450892,"lng":2.168656,"addr":"","type":"place_of_worship"},{"id":"xx491648_13442","name":"Mosquée An-Nasr Gaillon / Aubevoye","lat":49.164835,"lng":1.344228,"addr":"","type":"place_of_worship"},{"id":"xx490061_11633","name":"Grande Mosquée d'Evreux (UCME)","lat":49.006058,"lng":1.163337,"addr":"","type":"place_of_worship"},{"id":"xx490303_11828","name":"Mosquée Nour","lat":49.030342,"lng":1.182776,"addr":"","type":"place_of_worship"},{"id":"xx452893_33719","name":"Mosquée Tawba","lat":45.28933,"lng":3.371872,"addr":"","type":"place_of_worship"},{"id":"xx450440_38874","name":"Mosquée La Bienveillante","lat":45.044019,"lng":3.887388,"addr":"","type":"place_of_worship"},{"id":"xx486453_49712","name":"Mosquée de St-Dizier - ACBSD","lat":48.645291,"lng":4.971183,"addr":"","type":"place_of_worship"},{"id":"xx458511_12996","name":"Mosquée (Association Les Compagnons)","lat":45.851135,"lng":1.299614,"addr":"","type":"place_of_worship"},{"id":"xx473920_07260","name":"Mosquée El-Kawthar St pierre des corps","lat":47.391985,"lng":0.725954,"addr":"","type":"place_of_worship"},{"id":"xx455830_47980","name":"Mosquée","lat":45.583024,"lng":4.797973,"addr":"","type":"place_of_worship"},{"id":"xx455425_48607","name":"Mosquée Tawba","lat":45.542544,"lng":4.860745,"addr":"","type":"place_of_worship"},{"id":"xx455298_48823","name":"Mosquée Es souna","lat":45.529782,"lng":4.88235,"addr":"","type":"place_of_worship"},{"id":"xx476990_15027","name":"Mosquée de MER","lat":47.698999,"lng":1.502695,"addr":"","type":"place_of_worship"},{"id":"xx455205_42733","name":"Mosquée (Association Culturelle Franco-Turque)","lat":45.520478,"lng":4.273295,"addr":"","type":"place_of_worship"},{"id":"xx478964_20273","name":"Mosquée de Chécy - Association du Culte Mulsuman de Chécy","lat":47.89641,"lng":2.02729,"addr":"","type":"place_of_worship"},{"id":"xx479043_18711","name":"la future Mosquée des Salmoneries","lat":47.904299,"lng":1.871138,"addr":"","type":"place_of_worship"},{"id":"xx479524_18617","name":"Mosquée Saran - Association Mosquée de saran","lat":47.952366,"lng":1.861723,"addr":"","type":"place_of_worship"},{"id":"xx477672_23450","name":"Grande Mosquée de Sully-sur-Loire","lat":47.767183,"lng":2.344962,"addr":"","type":"place_of_worship"},{"id":"xx487693_48342","name":"Mosquée (Association culturelle des musulmans de Pargny)","lat":48.769276,"lng":4.83424,"addr":"","type":"place_of_worship"},{"id":"xx469855_31788","name":"Mosquée Bords de Loire","lat":46.985532,"lng":3.178755,"addr":"","type":"place_of_worship"},{"id":"xx492515_24646","name":"Mosquée Omar de Creil","lat":49.251469,"lng":2.464581,"addr":"","type":"place_of_worship"},{"id":"xx492767_24783","name":"Mosquée Al Firdaws","lat":49.276742,"lng":2.478336,"addr":"","type":"place_of_worship"},{"id":"xx492675_24570","name":"Mosquée de Nogent-sur-Oise - Ibn Khamis","lat":49.267529,"lng":2.456993,"addr":"","type":"place_of_worship"},{"id":"xx457965_31058","name":"Mosquée (Association des Jeunes d'Auvergne pour le Bien)","lat":45.796456,"lng":3.105804,"addr":"","type":"place_of_worship"},{"id":"xx457609_31211","name":"Mosquée de la fontaine du bac","lat":45.760927,"lng":3.121077,"addr":"","type":"place_of_worship"},{"id":"xx457944_30618","name":"Mosquée 🕌","lat":45.794378,"lng":3.061815,"addr":"","type":"place_of_worship"},{"id":"xx458267_31478","name":"Mosquée Al-Madinah (Association Coeur et Partage)","lat":45.826718,"lng":3.147838,"addr":"","type":"place_of_worship"},{"id":"xx461092_47412","name":"Mosquée (Amicale Des Citoyens Franco-Turcs Du Beaujolais)","lat":46.109212,"lng":4.74117,"addr":"","type":"place_of_worship"},{"id":"xx457539_49098","name":"Mosquée","lat":45.753887,"lng":4.909792,"addr":"","type":"place_of_worship"},{"id":"xx457080_48658","name":"Mosquée (Centre Culturel Bosniaque - Dzemat Bosniaque)","lat":45.708018,"lng":4.865802,"addr":"","type":"place_of_worship"},{"id":"xx456951_48695","name":"Mosquée At-Tawbah","lat":45.69506,"lng":4.869526,"addr":"","type":"place_of_worship"},{"id":"xx456981_48612","name":"Mosquée Otmane","lat":45.698149,"lng":4.861158,"addr":"","type":"place_of_worship"},{"id":"xx457079_48652","name":"Mosquée bosniaque (Bosnjacki Kulturni Centar Dzemat Lyon)","lat":45.707884,"lng":4.865224,"addr":"","type":"place_of_worship"},{"id":"xx469597_43108","name":"Mosquée (Association Cultuelle Musulmane d'Autun)","lat":46.959658,"lng":4.310849,"addr":"","type":"place_of_worship"},{"id":"xx463322_48243","name":"Grande Mosquée de Sancé (ACSE)","lat":46.332152,"lng":4.824322,"addr":"","type":"place_of_worship"},{"id":"xx467827_44288","name":"Mosquée de Torcy","lat":46.782667,"lng":4.428769,"addr":"","type":"place_of_worship"},{"id":"xx495787_04852","name":"Mosquée de bolbec","lat":49.578712,"lng":0.4852,"addr":"","type":"place_of_worship"},{"id":"xx499124_10756","name":"Mosquée Oumati Dieppe","lat":49.912361,"lng":1.075597,"addr":"","type":"place_of_worship"},{"id":"xx493565_10114","name":"Grande Mosquée de Grand-Couronne (Mosquée El-Fath)","lat":49.356536,"lng":1.011357,"addr":"","type":"place_of_worship"},{"id":"xx494165_10365","name":"Mosquée Le Grand Quevilly - مسجد","lat":49.416495,"lng":1.036496,"addr":"","type":"place_of_worship"},{"id":"xx495241_01106","name":"Mosquée (Fatih Camii)","lat":49.524054,"lng":0.110559,"addr":"","type":"place_of_worship"},{"id":"xx495151_01012","name":"Mosquée Maryam","lat":49.515143,"lng":0.101243,"addr":"","type":"place_of_worship"},{"id":"xx494237_10473","name":"Mosquée (Association Cultuelle de Petit Quevilly)","lat":49.423714,"lng":1.047316,"addr":"","type":"place_of_worship"},{"id":"xx494903_10443","name":"Mosquée (Association Multiculturelle Musulmane Bondevillaise)","lat":49.49027,"lng":1.044287,"addr":"","type":"place_of_worship"},{"id":"xx494842_10461","name":"Mosquée Maryam","lat":49.484194,"lng":1.0461,"addr":"","type":"place_of_worship"},{"id":"xx494805_05757","name":"Mosquée Ryiad Assalam (ACN)","lat":49.480452,"lng":0.575686,"addr":"","type":"place_of_worship"},{"id":"xx494521_10633","name":"Mosquee alrahmah","lat":49.452128,"lng":1.063345,"addr":"","type":"place_of_worship"},{"id":"xx494457_11193","name":"Mosquée ARA","lat":49.445739,"lng":1.11926,"addr":"","type":"place_of_worship"},{"id":"xx494510_10762","name":"Mosquée de Zey","lat":49.45102,"lng":1.076151,"addr":"","type":"place_of_worship"},{"id":"xx489123_24279","name":"Mosquée Nejma","lat":48.912277,"lng":2.4279,"addr":"","type":"place_of_worship"},{"id":"xx489074_25544","name":"Mosquée de Clichy-sous-Bois Bilal","lat":48.907366,"lng":2.554385,"addr":"","type":"place_of_worship"},{"id":"xx488800_25441","name":"Mosquée Maryam - Jean Moulin (UAMG)","lat":48.880043,"lng":2.544071,"addr":"","type":"place_of_worship"},{"id":"xx489250_24097","name":"Grande Mosquée Anwaar-e-Tayyeba (AMMOI)","lat":48.925014,"lng":2.409694,"addr":"","type":"place_of_worship"},{"id":"xx488625_24669","name":"Mosquee Al Mohsinine - مسجد","lat":48.862469,"lng":2.466896,"addr":"","type":"place_of_worship"},{"id":"xx489616_23535","name":"Mosquée de Pierrefitte sur Seine","lat":48.961572,"lng":2.353488,"addr":"","type":"place_of_worship"},{"id":"xx492676_12117","name":"Mosque Annasr","lat":49.267602,"lng":1.211702,"addr":"","type":"place_of_worship"},{"id":"xx489488_24450","name":"Grande Mosquée du Blanc-Mesnil (UMBM)","lat":48.948808,"lng":2.445034,"addr":"","type":"place_of_worship"},{"id":"xx488465_26520","name":"Mosquée de Torcy","lat":48.846477,"lng":2.651975,"addr":"","type":"place_of_worship"},{"id":"xx489590_23617","name":"Grande Mosquée de Pierrefitte - مسجد","lat":48.959039,"lng":2.361676,"addr":"","type":"place_of_worship"},{"id":"xx485451_26513","name":"Mosquée ACDFT melun","lat":48.545074,"lng":2.651293,"addr":"","type":"place_of_worship"},{"id":"xx491013_25237","name":"Grande Mosquée de Fosses (ACMF)","lat":49.101287,"lng":2.523707,"addr":"","type":"place_of_worship"},{"id":"xx489807_22348","name":"Mosquée (Association Souleymaniyah Union Musulmane)","lat":48.980725,"lng":2.234802,"addr":"","type":"place_of_worship"},{"id":"xx490524_25023","name":"Mosquée de Louvres Le Bienfait","lat":49.052373,"lng":2.502271,"addr":"","type":"place_of_worship"},{"id":"xx489801_23851","name":"Mosquée Kitab wa Sunnah (A.M.I.S)","lat":48.980056,"lng":2.385136,"addr":"","type":"place_of_worship"},{"id":"xx490463_20754","name":"Mosquée (Cergy Pontoise Sultan Ahmet Camii)","lat":49.046334,"lng":2.07535,"addr":"","type":"place_of_worship"},{"id":"xx489637_22784","name":"Mosquée de Saint-Gratien","lat":48.963667,"lng":2.27845,"addr":"","type":"place_of_worship"},{"id":"xx487751_25265","name":"Mosquée de Sucy-en-Brie","lat":48.775104,"lng":2.526527,"addr":"","type":"place_of_worship"},{"id":"xx487509_24680","name":"Grande Mosquée de Valenton (ACCMV)","lat":48.750882,"lng":2.467993,"addr":"","type":"place_of_worship"},{"id":"xx487700_24695","name":"Mosquee de l'Association Culturelle et Musulmane du mont-Mesly","lat":48.769965,"lng":2.469494,"addr":"","type":"place_of_worship"},{"id":"xx487538_23860","name":"Mosquée de Thiais","lat":48.753772,"lng":2.386036,"addr":"","type":"place_of_worship"},{"id":"xx488258_25468","name":"Mosquée Villiers sur Marne","lat":48.825787,"lng":2.546798,"addr":"","type":"place_of_worship"},{"id":"xx487871_24065","name":"Nouvelle Mosquée Vitry-Sur-Seine","lat":48.78711,"lng":2.406495,"addr":"","type":"place_of_worship"},{"id":"xx479991_37177","name":"Mosquée de Saint Florentin","lat":47.999128,"lng":3.717661,"addr":"","type":"place_of_worship"},{"id":"xx489447_20230","name":"Grande Mosquée Ayasofya (DITIB Carrières-sous-Poissy)","lat":48.944742,"lng":2.022984,"addr":"","type":"place_of_worship"},{"id":"xx489938_16345","name":"Mosquée ANHORS Rosny sur seine","lat":48.993792,"lng":1.634455,"addr":"","type":"place_of_worship"},{"id":"xx488096_20388","name":"Mosquée de Fontenay-le-Fleury","lat":48.809627,"lng":2.038791,"addr":"","type":"place_of_worship"},{"id":"xx487685_19430","name":"Mosquée Maurepas","lat":48.768451,"lng":1.942951,"addr":"","type":"place_of_worship"},{"id":"xx473954_07005","name":"Mosquée de Tours","lat":47.395403,"lng":0.700501,"addr":"","type":"mosque"},{"id":"xx489500_24967","name":"Islamic place","lat":48.949953,"lng":2.496684,"addr":"","type":"place_of_worship"},{"id":"xx487814_24460","name":"Mosquée Sahaba","lat":48.781353,"lng":2.446026,"addr":"","type":"yes"},{"id":"xx489499_24967","name":"Islamic place","lat":48.949937,"lng":2.496664,"addr":"","type":"place_of_worship"},{"id":"xx479757_02139","name":"Mosquée Salman Al-Farissi","lat":47.975694,"lng":0.213881,"addr":"","type":"yes"},{"id":"xx488078_23413","name":"Mosquée d'Arcueil","lat":48.807807,"lng":2.341276,"addr":"Avenue François Vincent Raspail","type":"mosque"},{"id":"xx488079_23413","name":"Islamic place","lat":48.807914,"lng":2.34134,"addr":"","type":"mosque"},{"id":"xx457553_48668","name":"Mosquée Es-salem","lat":45.755253,"lng":4.866836,"addr":"","type":"mosque"},{"id":"xx457368_48902","name":"Mosquée Badr Eddine","lat":45.736811,"lng":4.89021,"addr":"","type":"yes"},{"id":"xx457307_48770","name":"Islamic place","lat":45.730688,"lng":4.876964,"addr":"","type":"mosque"},{"id":"xx457280_48860","name":"Mosquée El-Houda","lat":45.727996,"lng":4.886012,"addr":"Rue Jules Froment","type":"mosque"},{"id":"xx489340_23315","name":"Association d'Unification Islamique","lat":48.933972,"lng":2.331518,"addr":"","type":"yes"},{"id":"xx457552_48668","name":"Mosquée Es-salem","lat":45.755242,"lng":4.866826,"addr":"","type":"mosque"},{"id":"xx478005_35479","name":"Mosquée Khadija","lat":47.800454,"lng":3.547869,"addr":"","type":"yes"},{"id":"xx488848_23838","name":"Salle de Prière La Villette","lat":48.884785,"lng":2.383817,"addr":"","type":"yes"},{"id":"xx454351_43755","name":"Mosquée El-Fattah","lat":45.435064,"lng":4.375532,"addr":"Rue Calixte Ploton","type":"yes"},{"id":"xx454506_43991","name":"Grande Mosquée Mohammed VI de Saint-Étienne","lat":45.45063,"lng":4.399101,"addr":"","type":"mosque"},{"id":"xx489795_22381","name":"Centre Culturel Musulman","lat":48.979522,"lng":2.238102,"addr":"","type":"yes"},{"id":"xx488680_23773","name":"Mosquée Omar bn El Khattab","lat":48.867972,"lng":2.377292,"addr":"","type":"yes"},{"id":"xx487948_23393","name":"Mosquée Falah","lat":48.794796,"lng":2.3393,"addr":"","type":"yes"},{"id":"xx489134_22971","name":"Islamic place","lat":48.91337,"lng":2.297097,"addr":"","type":"mosque"},{"id":"xx478004_35479","name":"Mosquée Khadija","lat":47.80044,"lng":3.547858,"addr":"","type":"yes"},{"id":"xx488743_23562","name":"Association Culturelle Islamique Kurdes","lat":48.874277,"lng":2.356239,"addr":"","type":"yes"},{"id":"xx488707_23526","name":"Centre Culturel Islamique","lat":48.870711,"lng":2.352646,"addr":"","type":"yes"},{"id":"xx452619_17546","name":"Mosquée","lat":45.261898,"lng":1.754635,"addr":"","type":"yes"},{"id":"xx487818_23572","name":"Islamic place","lat":48.781815,"lng":2.357163,"addr":"","type":"yes"},{"id":"xx487817_23572","name":"Islamic place","lat":48.781739,"lng":2.357158,"addr":"","type":"yes"},{"id":"xx494545_11414","name":"El Mouhsinin","lat":49.454477,"lng":1.141401,"addr":"Rouen","type":"yes"},{"id":"xx457458_48502","name":"Mosquée El Oulfa","lat":45.745779,"lng":4.850221,"addr":"","type":"terrace"},{"id":"xx494298_10712","name":"Mosquée El Kaouthar","lat":49.429841,"lng":1.071198,"addr":"Rue du Nouveau Monde","type":"yes"},{"id":"xx471061_24106","name":"Mosquée Al Fath","lat":47.106075,"lng":2.410583,"addr":"","type":"yes"},{"id":"xx479690_02032","name":"Association Culturelle et Islamique des Turques de la Sarthe","lat":47.968962,"lng":0.203217,"addr":"","type":"yes"},{"id":"xx479921_02161","name":"Masjid AsSunna","lat":47.99213,"lng":0.216061,"addr":"","type":"yes"},{"id":"xx486403_49492","name":"La Mosquée","lat":48.640287,"lng":4.949152,"addr":"","type":"yes"},{"id":"xx486403_49491","name":"La Mosquée","lat":48.640289,"lng":4.949146,"addr":"","type":"yes"},{"id":"xx455952_47737","name":"Mosquée Khaled ibn El Walid","lat":45.595221,"lng":4.77371,"addr":"","type":"yes"},{"id":"xx458153_31088","name":"Mosquée Assalam","lat":45.815349,"lng":3.10878,"addr":"","type":"yes"},{"id":"xx457870_30940","name":"Grande Mosquée de Clermont","lat":45.787027,"lng":3.094023,"addr":"","type":"yes"},{"id":"xx456999_48247","name":"Association Musulmane de Pierre Bénite","lat":45.699872,"lng":4.82467,"addr":"","type":"yes"},{"id":"xx458154_31088","name":"Mosquée Assalam","lat":45.815369,"lng":3.108779,"addr":"","type":"yes"},{"id":"xx456999_48246","name":"Association Musulmane de Pierre Bénite","lat":45.699873,"lng":4.824647,"addr":"","type":"yes"},{"id":"xx493892_33126","name":"Mosquée Badr","lat":49.389237,"lng":3.312599,"addr":"Avenue de Pasly","type":"mosque"},{"id":"xx489522_22347","name":"Mosquée Al Ihsan d'Argenteuil","lat":48.952213,"lng":2.234738,"addr":"","type":"mosque"},{"id":"xx493992_10754","name":"Mosquée Yahia","lat":49.399247,"lng":1.07541,"addr":"Rue Georges Guynemer","type":"yes"},{"id":"xx458462_12622","name":"Grande Mosquée de Limoges","lat":45.84616,"lng":1.262183,"addr":"","type":"mosque"},{"id":"xx489255_22793","name":"Mosquée d'Asnières","lat":48.92554,"lng":2.279307,"addr":"","type":"yes"},{"id":"xx495146_01655","name":"Mosquée Essalam","lat":49.514572,"lng":0.165474,"addr":"Avenue du 8 Mai 1945","type":"yes"},{"id":"xx495145_01656","name":"Islamic place","lat":49.514462,"lng":0.165638,"addr":"","type":"mosque"},{"id":"xx458461_12622","name":"Grande Mosquée de Limoges","lat":45.84614,"lng":1.262177,"addr":"","type":"mosque"},{"id":"xx495145_01653","name":"Mosquée Essalam","lat":49.514547,"lng":0.165338,"addr":"Avenue du 8 Mai 1945","type":"yes"},{"id":"xx495144_01656","name":"Islamic place","lat":49.514413,"lng":0.165579,"addr":"","type":"mosque"},{"id":"xx487114_22605","name":"Mosquée de Palaiseau","lat":48.711398,"lng":2.260452,"addr":"Rue Salvador Allende","type":"yes"},{"id":"xx487857_22511","name":"Mosquée de Clamart","lat":48.785708,"lng":2.251135,"addr":"","type":"mosque"},{"id":"xx479709_35250","name":"Mosquée Turque","lat":47.970866,"lng":3.525016,"addr":"","type":"mosque"},{"id":"xx481985_32954","name":"Centre Culturel Turc de Sens","lat":48.198519,"lng":3.295384,"addr":"Rue de la Louptière","type":"mosque"},{"id":"xx482724_40802","name":"Islamic place","lat":48.272364,"lng":4.080162,"addr":"Rue Jean Berthelin","type":"yes"},{"id":"xx483075_40453","name":"EL Fath","lat":48.307515,"lng":4.045257,"addr":"","type":"yes"},{"id":"xx492045_11500","name":"Mosquée Badr","lat":49.204516,"lng":1.150032,"addr":"","type":"yes"},{"id":"xx489040_23950","name":"Assoc Ligue amicale des cultures et de recherche scientifique","lat":48.903972,"lng":2.39503,"addr":"Rue Gabrielle Josserand","type":"yes"},{"id":"xx483025_40964","name":"Hamza","lat":48.302526,"lng":4.096376,"addr":"","type":"yes"},{"id":"xx482963_40781","name":"Imam Ali","lat":48.296252,"lng":4.078091,"addr":"","type":"yes"},{"id":"xx487959_21396","name":"Centre socio-culturel des Musulmans de Versailles","lat":48.795893,"lng":2.139558,"addr":"","type":"yes"},{"id":"xx494115_28016","name":"Islamic place","lat":49.411499,"lng":2.801599,"addr":"","type":"yes"},{"id":"xx494932_01425","name":"Mosquée Amah","lat":49.493212,"lng":0.142499,"addr":"","type":"yes"},{"id":"xx478077_10687","name":"Mosquée","lat":47.807703,"lng":1.068727,"addr":"","type":"yes"},{"id":"xx489095_22167","name":"Mosquée Okba","lat":48.909471,"lng":2.216666,"addr":"","type":"mosque"},{"id":"xx489506_23920","name":"Islamic place","lat":48.950612,"lng":2.391972,"addr":"","type":"yes"},{"id":"xx463421_25898","name":"Al Hidjra","lat":46.342146,"lng":2.589769,"addr":"","type":"yes"},{"id":"xx458294_49697","name":"Mosquée de Miribel","lat":45.829399,"lng":4.969703,"addr":"Rue de la Paix","type":"mosque"},{"id":"xx489304_22688","name":"Islamic place","lat":48.9304,"lng":2.268839,"addr":"","type":"yes"},{"id":"xx488173_23937","name":"Mosquée An Nour","lat":48.817321,"lng":2.393653,"addr":"","type":"mosque"},{"id":"xx457088_48595","name":"Mosquée de Saint-Fons","lat":45.708753,"lng":4.859462,"addr":"","type":"yes"},{"id":"xx456970_49007","name":"Mosquée Sunna","lat":45.696975,"lng":4.900688,"addr":"","type":"mosque"},{"id":"xx456995_48720","name":"Islamic place","lat":45.699468,"lng":4.872002,"addr":"","type":"yes"},{"id":"xx457013_48635","name":"Mosquée Al Forqane","lat":45.701298,"lng":4.863507,"addr":"","type":"yes"},{"id":"xx490118_22585","name":"Moubarak Mosquée","lat":49.011785,"lng":2.258489,"addr":"Rue Louis et Gérald Donzelle","type":"mosque"},{"id":"xx489506_23919","name":"Islamic place","lat":48.950572,"lng":2.391925,"addr":"","type":"yes"},{"id":"xx463421_25897","name":"Al Hidjra","lat":46.34215,"lng":2.589744,"addr":"","type":"yes"},{"id":"xx488173_23936","name":"Mosquée An Nour","lat":48.817313,"lng":2.393631,"addr":"","type":"mosque"},{"id":"xx457088_48594","name":"Mosquée de Saint-Fons","lat":45.708783,"lng":4.859431,"addr":"","type":"yes"},{"id":"xx489678_23441","name":"Mosquée de Villetaneuse","lat":48.967755,"lng":2.344071,"addr":"","type":"mosque"},{"id":"xx489253_02036","name":"Islamic place","lat":48.925291,"lng":0.203568,"addr":"","type":"yes"},{"id":"xx490121_11607","name":"Mosquée Al Fath","lat":49.012111,"lng":1.160714,"addr":"","type":"yes"},{"id":"xx490131_11640","name":"Mosquée Assalam","lat":49.013054,"lng":1.163955,"addr":"","type":"yes"},{"id":"xx457689_48752","name":"Mosquée Errahma","lat":45.768851,"lng":4.875247,"addr":"","type":"yes"},{"id":"xx488229_19567","name":"Mosquée de Plaisir","lat":48.822945,"lng":1.956709,"addr":"Rue du Valibout","type":"yes"},{"id":"xx456864_49361","name":"Grande Mosquée de Saint-Priest","lat":45.686366,"lng":4.936057,"addr":"Rue des Lys","type":"mosque"},{"id":"xx489253_02035","name":"Islamic place","lat":48.925288,"lng":0.203521,"addr":"","type":"yes"},{"id":"xx488879_24612","name":"Islamic place","lat":48.88795,"lng":2.461214,"addr":"","type":"yes"},{"id":"xx488876_23605","name":"Islamic place","lat":48.887623,"lng":2.36051,"addr":"","type":"mosque"},{"id":"xx489084_24727","name":"Islamic place","lat":48.908411,"lng":2.472719,"addr":"","type":"yes"},{"id":"xx468044_05457","name":"Mosquée Essalam","lat":46.804417,"lng":0.545665,"addr":"","type":"yes"},{"id":"xx489451_24526","name":"Islamic place","lat":48.945052,"lng":2.45259,"addr":"","type":"yes"},{"id":"xx489223_24734","name":"Islamic place","lat":48.92228,"lng":2.473425,"addr":"","type":"yes"},{"id":"xx489200_24253","name":"Mosquée de Drancy","lat":48.919992,"lng":2.425303,"addr":"","type":"yes"},{"id":"xx450420_39034","name":"Mosquée","lat":45.041971,"lng":3.903367,"addr":"","type":"yes"},{"id":"xx487383_22877","name":"El Asr","lat":48.738257,"lng":2.287659,"addr":"","type":"yes"},{"id":"xx453886_43178","name":"Lieu de culte","lat":45.388624,"lng":4.317779,"addr":"","type":"yes"},{"id":"xx488880_24612","name":"Islamic place","lat":48.887958,"lng":2.461183,"addr":"","type":"yes"},{"id":"xx492369_40269","name":"Mosquée Othman","lat":49.236922,"lng":4.026851,"addr":"","type":"yes"},{"id":"xx451870_48156","name":"Islamic place","lat":45.187012,"lng":4.815586,"addr":"","type":"mosque"},{"id":"xx451869_48156","name":"Islamic place","lat":45.186889,"lng":4.8156,"addr":"","type":"mosque"},{"id":"xx488341_25457","name":"Mosquée Al-Ihsan","lat":48.834072,"lng":2.545735,"addr":"","type":"mosque"},{"id":"xx492666_40674","name":"Mosquée El-Mansour","lat":49.26661,"lng":4.067434,"addr":"","type":"yes"},{"id":"xx488311_25359","name":"Mosquée Al-Islah","lat":48.831143,"lng":2.535941,"addr":"","type":"mosque"},{"id":"xx497566_47197","name":"Mosquée de Charleville-Mézières","lat":49.756587,"lng":4.719661,"addr":"Rue de la Fonderie","type":"mosque"},{"id":"xx478702_22285","name":"Islamic place","lat":47.870236,"lng":2.228528,"addr":"","type":"yes"},{"id":"xx492293_28841","name":"Mosquée","lat":49.229317,"lng":2.884101,"addr":"Avenue de Levallois-Perret","type":"yes"},{"id":"xx492407_40338","name":"Association de la Mosquée et du Centre Islamique de Reims","lat":49.240746,"lng":4.03376,"addr":"","type":"yes"},{"id":"xx492369_40268","name":"Mosquée Othman","lat":49.236925,"lng":4.026844,"addr":"","type":"yes"},{"id":"xx492293_28840","name":"Mosquée","lat":49.229325,"lng":2.884046,"addr":"Avenue de Levallois-Perret","type":"yes"},{"id":"xx492408_40338","name":"Association de la Mosquée et du Centre Islamique de Reims","lat":49.240755,"lng":4.033757,"addr":"","type":"yes"},{"id":"xx490210_20318","name":"Mosquée Assalam","lat":49.021015,"lng":2.031821,"addr":"","type":"yes"},{"id":"xx488198_22575","name":"Islamic place","lat":48.819759,"lng":2.257495,"addr":"Avenue de Verdun","type":"yes"},{"id":"xx477581_23674","name":"Islamic place","lat":47.758141,"lng":2.367412,"addr":"","type":"yes"},{"id":"xx477664_23671","name":"Mosquée de Sully","lat":47.766388,"lng":2.367116,"addr":"Chemin de la Levée","type":"yes"},{"id":"xx490520_21139","name":"Islamic place","lat":49.052035,"lng":2.113922,"addr":"","type":"yes"},{"id":"xx484406_15179","name":"Mosquée Anoussra","lat":48.440614,"lng":1.51791,"addr":"","type":"yes"},{"id":"xx490281_22218","name":"Mosquée de Taverny","lat":49.028061,"lng":2.221808,"addr":"","type":"yes"},{"id":"xx488555_24715","name":"Mosquée Essalam","lat":48.855543,"lng":2.471451,"addr":"","type":"yes"},{"id":"xx488197_22575","name":"Islamic place","lat":48.819748,"lng":2.257482,"addr":"Avenue de Verdun","type":"yes"},{"id":"xx488555_24714","name":"Mosquée Essalam","lat":48.855541,"lng":2.471413,"addr":"","type":"yes"},{"id":"xx488295_22375","name":"Centre Culturel et Cultuel Musulman","lat":48.829519,"lng":2.237491,"addr":"","type":"yes"},{"id":"xx488080_25483","name":"Mosquée Al Amine","lat":48.808006,"lng":2.548282,"addr":"","type":"mosque"},{"id":"xx489657_20571","name":"Mosquée de la Paix","lat":48.965697,"lng":2.057111,"addr":"Rue des Bauches","type":"yes"},{"id":"xx488987_26019","name":"Mosquée des Coudreaux","lat":48.898657,"lng":2.601926,"addr":"","type":"yes"},{"id":"xx489499_43436","name":"Mosquée AN NOUR","lat":48.949854,"lng":4.343571,"addr":"","type":"yes"},{"id":"xx465949_03406","name":"Mosquée de Poitiers","lat":46.594875,"lng":0.340598,"addr":"","type":"mosque"},{"id":"xx489547_29122","name":"Centre Musulman de Meaux","lat":48.954714,"lng":2.912243,"addr":"","type":"yes"},{"id":"xx486040_25760","name":"Islamic place","lat":48.604035,"lng":2.576,"addr":"","type":"yes"},{"id":"xx487712_26813","name":"Association Culturelle Musulmane Ozoirienne","lat":48.77122,"lng":2.681344,"addr":"Avenue Berthelot","type":"yes"},{"id":"xx485508_26706","name":"Mosquée El Nour","lat":48.550771,"lng":2.670628,"addr":"","type":"yes"},{"id":"xx489547_29121","name":"Centre Musulman de Meaux","lat":48.954668,"lng":2.91209,"addr":"","type":"yes"},{"id":"xx485244_26460","name":"Mosquée al Salam","lat":48.524376,"lng":2.645992,"addr":"","type":"mosque"},{"id":"xx488517_25781","name":"Mosquée de Champs-sur-Marne","lat":48.851711,"lng":2.578052,"addr":"","type":"yes"},{"id":"xx488073_26234","name":"Islamic place","lat":48.807278,"lng":2.623405,"addr":"Allée du Temps Qui Passe","type":"mosque"},{"id":"xx488067_26229","name":"Islamic place","lat":48.806674,"lng":2.622902,"addr":"Rue du Bonheur","type":"mosque"},{"id":"xx457712_49085","name":"Mosquée Bendida","lat":45.771154,"lng":4.90849,"addr":"","type":"mosque"},{"id":"xx486260_24218","name":"mosquée d'Évry","lat":48.625976,"lng":2.421804,"addr":"","type":"yes"},{"id":"xx488517_25780","name":"Mosquée de Champs-sur-Marne","lat":48.851723,"lng":2.578037,"addr":"","type":"yes"},{"id":"xx457711_49085","name":"Mosquée Bendida","lat":45.771147,"lng":4.90847,"addr":"","type":"mosque"},{"id":"xx457714_49762","name":"Mosquée de Décines Charpieu","lat":45.771369,"lng":4.976227,"addr":"","type":"mosque"},{"id":"xx475890_13039","name":"Mosquée Bilal","lat":47.589001,"lng":1.3039,"addr":"","type":"mosque"},{"id":"xx475925_13225","name":"Mosquée Sunna de Blois","lat":47.592518,"lng":1.322464,"addr":"Blois","type":"yes"},{"id":"xx457119_48903","name":"Mosquée Eyüp Sultan","lat":45.711927,"lng":4.890314,"addr":"","type":"mosque"},{"id":"xx454721_45053","name":"Mosquée Attaqwa de Saint-Chamond","lat":45.472103,"lng":4.50534,"addr":"Rue de Saint-Étienne","type":"mosque"},{"id":"xx454792_45213","name":"Mosquée de la communauté islamique Millî Görüş","lat":45.479228,"lng":4.521307,"addr":"","type":"mosque"},{"id":"xx496142_32087","name":"Mosquée Essalam","lat":49.614197,"lng":3.208665,"addr":"Rue du Brouage","type":"yes"},{"id":"xx468094_48423","name":"Islamic place","lat":46.809404,"lng":4.842279,"addr":"","type":"yes"},{"id":"xx467821_48608","name":"Mosquée El-Fath","lat":46.782147,"lng":4.860793,"addr":"","type":"mosque"},{"id":"xx467905_48392","name":"Essalam","lat":46.790464,"lng":4.839191,"addr":"","type":"mosque"},{"id":"xx496142_32086","name":"Mosquée Essalam","lat":49.614207,"lng":3.208649,"addr":"Rue du Brouage","type":"yes"},{"id":"xx468094_48422","name":"Islamic place","lat":46.809364,"lng":4.842199,"addr":"","type":"yes"},{"id":"xx467821_48607","name":"Mosquée El-Fath","lat":46.782122,"lng":4.86073,"addr":"","type":"mosque"},{"id":"xx467904_48392","name":"Essalam","lat":46.79044,"lng":4.839162,"addr":"","type":"mosque"},{"id":"xx458128_48981","name":"Mosquée de Rillieux-la-Pape","lat":45.812848,"lng":4.89805,"addr":"Montée Castellane","type":"yes"},{"id":"xx460315_40756","name":"Mosquée de Roanne","lat":46.031529,"lng":4.075591,"addr":"","type":"yes"},{"id":"xx479087_19294","name":"Islamic place","lat":47.908685,"lng":1.929445,"addr":"","type":"yes"},{"id":"xx479127_19253","name":"Islamic place","lat":47.91266,"lng":1.925281,"addr":"Rue du Petit Pont","type":"yes"},{"id":"xx457282_49147","name":"Mosquée Omar","lat":45.728185,"lng":4.914659,"addr":"","type":"yes"},{"id":"xx457562_48122","name":"Mosquée El Houda","lat":45.756238,"lng":4.812212,"addr":"","type":"mosque"},{"id":"xx458128_48980","name":"Mosquée de Rillieux-la-Pape","lat":45.812818,"lng":4.898027,"addr":"Montée Castellane","type":"yes"},{"id":"xx490807_14850","name":"Islamic place","lat":49.080695,"lng":1.484965,"addr":"","type":"yes"},{"id":"xx498512_32691","name":"Mosquée Assalam","lat":49.851156,"lng":3.269091,"addr":"Rue Marcel Bugain","type":"mosque"},{"id":"xx486795_21637","name":"Mosquée des Ulis","lat":48.679534,"lng":2.163696,"addr":"","type":"yes"},{"id":"xx490807_14849","name":"Islamic place","lat":49.080684,"lng":1.48494,"addr":"","type":"yes"},{"id":"xx489498_21977","name":"Mosquée Ennour","lat":48.949757,"lng":2.197685,"addr":"Rue Jean Pierre Timbaud","type":"mosque"},{"id":"xx489499_21966","name":"Mosquée Ennour","lat":48.949924,"lng":2.196619,"addr":"Rue Jean Pierre Timbaud","type":"mosque"},{"id":"xx489664_23376","name":"Islamic place","lat":48.966376,"lng":2.33764,"addr":"","type":"yes"},{"id":"xx471820_30223","name":"Islamic place","lat":47.182008,"lng":3.022276,"addr":"","type":"mosque"},{"id":"xx488121_21947","name":"Islamic place","lat":48.812058,"lng":2.194706,"addr":"","type":"mosque"},{"id":"xx462929_48135","name":"Mosquée turque de Mâcon","lat":46.292933,"lng":4.813539,"addr":"Rue Olivier de Serres","type":"yes"},{"id":"xx489915_19146","name":"Mosquée Tarik Ibn Ziyad","lat":48.991499,"lng":1.914565,"addr":"","type":"mosque"},{"id":"xx490167_11885","name":"Association Franco-Turc d'Evreux","lat":49.016707,"lng":1.188508,"addr":"","type":"yes"},{"id":"xx490407_15959","name":"Association des Musulmans de la Porte de Normandie","lat":49.040737,"lng":1.595869,"addr":"Rue des Coutumes","type":"yes"},{"id":"xx487176_25003","name":"Mosquée Annour","lat":48.71761,"lng":2.500303,"addr":"","type":"mosque"},{"id":"xx486344_23456","name":"Mosquée","lat":48.634378,"lng":2.34561,"addr":"","type":"yes"},{"id":"xx455287_48743","name":"Mosquee Hamza","lat":45.528739,"lng":4.874318,"addr":"","type":"apartments"},{"id":"xx459765_47472","name":"La Mosquée Bleue","lat":45.976477,"lng":4.747224,"addr":"","type":"yes"},{"id":"xx459808_47427","name":"At-Taqwa","lat":45.980762,"lng":4.742668,"addr":"","type":"yes"},{"id":"xx459895_47250","name":"Mosquée El-Houda","lat":45.989479,"lng":4.725043,"addr":"","type":"yes"},{"id":"xx489544_25021","name":"Mosquée","lat":48.954378,"lng":2.50206,"addr":"","type":"yes"},{"id":"xx494230_28222","name":"Mosquée Turque de Compiègne","lat":49.423027,"lng":2.822166,"addr":"","type":"yes"},{"id":"xx487843_24045","name":"Mosquée Rahma","lat":48.784326,"lng":2.404479,"addr":"Rue Broussais","type":"mosque"},{"id":"xx499094_23048","name":"Mosquée Badr","lat":49.909374,"lng":2.304829,"addr":"","type":"yes"},{"id":"xx499057_23170","name":"Mosquée El Feth","lat":49.905692,"lng":2.317,"addr":"","type":"yes"},{"id":"xx499109_23022","name":"Mosquée du 19","lat":49.910902,"lng":2.302232,"addr":"","type":"yes"},{"id":"xx499136_22449","name":"Mosquée Al Mohssinine","lat":49.913553,"lng":2.244852,"addr":"","type":"yes"},{"id":"xx498972_22900","name":"Mosquée Annour","lat":49.897235,"lng":2.289988,"addr":"","type":"yes"},{"id":"xx489517_25645","name":"Islamic place","lat":48.95168,"lng":2.564492,"addr":"","type":"yes"},{"id":"xx481794_22528","name":"Mosquée","lat":48.179369,"lng":2.252808,"addr":"","type":"yes"},{"id":"xx459894_47250","name":"Mosquée El-Houda","lat":45.989438,"lng":4.725036,"addr":"","type":"yes"},{"id":"xx489544_25019","name":"Mosquée","lat":48.954356,"lng":2.501945,"addr":"","type":"yes"},{"id":"xx494230_28221","name":"Mosquée Turque de Compiègne","lat":49.423018,"lng":2.822147,"addr":"","type":"yes"},{"id":"xx499093_23048","name":"Mosquée Badr","lat":49.909346,"lng":2.304809,"addr":"","type":"yes"},{"id":"xx487510_24132","name":"Mosquée d'Orly","lat":48.750985,"lng":2.413216,"addr":"Avenue Marcel Cachin","type":"yes"},{"id":"xx499884_34518","name":"Centre Culturel IslamiqueTurc","lat":49.988385,"lng":3.45179,"addr":"Rue Paulin Pecqueux","type":"yes"},{"id":"xx487056_24097","name":"Mosquée de Vigneux sur Seine","lat":48.705586,"lng":2.409676,"addr":"Rue Galilée","type":"mosque"},{"id":"xx487057_24098","name":"Islamic place","lat":48.705707,"lng":2.409796,"addr":"Rue Galilée","type":"mosque"},{"id":"xx487055_24093","name":"Islamic place","lat":48.705478,"lng":2.409328,"addr":"","type":"mosque"},{"id":"xx486250_18265","name":"AMR","lat":48.625049,"lng":1.826472,"addr":"Rue Gustave Eiffel","type":"mosque"},{"id":"xx487959_23164","name":"Mosquée Omar Ibn Khattab à Bagneux","lat":48.795883,"lng":2.316432,"addr":"","type":"place_of_worship"},{"id":"xx489522_25504","name":"Mosquée de Villepinte","lat":48.952166,"lng":2.550364,"addr":"Avenue Emile Dambel","type":"yes"},{"id":"xx489558_25629","name":"École Malik Ibn Anas","lat":48.95578,"lng":2.562851,"addr":"Allée Louis Bréguet","type":"school"},{"id":"xx495693_36442","name":"Mosquée Annour","lat":49.569289,"lng":3.644231,"addr":"Avenue Charles de Gaulle","type":"mosque"},{"id":"xx486251_18264","name":"AMR","lat":48.62507,"lng":1.82644,"addr":"Rue Gustave Eiffel","type":"mosque"},{"id":"xx489522_25503","name":"Mosquée de Villepinte","lat":48.952203,"lng":2.55032,"addr":"Avenue Emile Dambel","type":"yes"},{"id":"xx489558_25628","name":"École Malik Ibn Anas","lat":48.955776,"lng":2.56285,"addr":"Allée Louis Bréguet","type":"school"},{"id":"xx457754_49262","name":"mosquée","lat":45.77535,"lng":4.926248,"addr":"","type":"yes"},{"id":"xx492787_17797","name":"Mosquée de Gisors","lat":49.278683,"lng":1.779716,"addr":"Rue de Saint-Ouen","type":"yes"},{"id":"xx477813_16199","name":"Mosquée El Mouhsinine","lat":47.78134,"lng":1.619916,"addr":"","type":"yes"},{"id":"xx488816_22404","name":"Mosquée de Puteaux","lat":48.88163,"lng":2.240423,"addr":"","type":"yes"},{"id":"xx480168_27111","name":"Mosquée Fatih","lat":48.016811,"lng":2.711078,"addr":"","type":"yes"},{"id":"xx480191_27127","name":"Islamic place","lat":48.019062,"lng":2.712696,"addr":"","type":"yes"},{"id":"xx480176_27157","name":"Mosquée Ismaïl","lat":48.017634,"lng":2.715663,"addr":"","type":"yes"},{"id":"xx480132_27222","name":"Islamic place","lat":48.013235,"lng":2.722193,"addr":"","type":"mosque"},{"id":"xx453702_47914","name":"Islamic place","lat":45.370233,"lng":4.791391,"addr":"","type":"mosque"},{"id":"xx480176_27156","name":"Mosquée Ismaïl","lat":48.017639,"lng":2.71565,"addr":"","type":"yes"},{"id":"xx480133_27222","name":"Islamic place","lat":48.013276,"lng":2.72218,"addr":"","type":"mosque"},{"id":"xx492580_31011","name":"Mosquée de Villers-Cotterêts","lat":49.258035,"lng":3.10114,"addr":"Rue de la Marlière","type":"yes"},{"id":"xx490448_33876","name":"Mosquée de Château-Thierry","lat":49.044827,"lng":3.387606,"addr":"Rue du Patis Saint-Martin","type":"yes"},{"id":"xx490028_16945","name":"Mosquée des Garennes","lat":49.002845,"lng":1.69448,"addr":"Rue Roald Amundsen","type":"mosque"},{"id":"xx489948_16778","name":"Grande Mosquée de Mantes-la-Jolie","lat":48.994801,"lng":1.677761,"addr":"","type":"yes"},{"id":"xx490371_39543","name":"Ahmadiyya Epernay","lat":49.03712,"lng":3.954308,"addr":"Rue de l'Hôpital Auban Moët","type":"house"},{"id":"xx485830_22351","name":"Mosquée d'Égly","lat":48.583025,"lng":2.23513,"addr":"Avenue d'Arpajon","type":"yes"},{"id":"xx456086_40575","name":"Islamic place","lat":45.608609,"lng":4.057536,"addr":"","type":"yes"},{"id":"xx490029_16945","name":"Mosquée des Garennes","lat":49.002874,"lng":1.694469,"addr":"Rue Roald Amundsen","type":"mosque"},{"id":"xx489948_16776","name":"Grande Mosquée de Mantes-la-Jolie","lat":48.994807,"lng":1.677647,"addr":"","type":"yes"},{"id":"xx487831_19833","name":"Grande Mosquée de Trappes","lat":48.783084,"lng":1.98331,"addr":"","type":"mosque"},{"id":"xx487230_46000","name":"Masjid As-Salam (Mosquée de la Paix)","lat":48.722992,"lng":4.600023,"addr":"","type":"yes"},{"id":"xx492880_10108","name":"Mosquée An'Nour","lat":49.288018,"lng":1.010787,"addr":"Rue Pierre Renaudel","type":"yes"},{"id":"xx487463_13416","name":"Islamic place","lat":48.746272,"lng":1.341593,"addr":"","type":"yes"},{"id":"xx487233_13749","name":"Mosquée Tariq Ibnou Zyed","lat":48.723264,"lng":1.374915,"addr":"","type":"yes"},{"id":"xx487226_13822","name":"Islamic place","lat":48.722583,"lng":1.382188,"addr":"","type":"yes"},{"id":"xx487350_13335","name":"Mosquée de la Tabellionne - Masjid Ad-Dawatou ilaLLah","lat":48.735042,"lng":1.333538,"addr":"","type":"yes"},{"id":"xx457790_48892","name":"Mosquée Othmane","lat":45.779024,"lng":4.889246,"addr":"","type":"yes"},{"id":"xx484624_17702","name":"Islamic place","lat":48.462381,"lng":1.77019,"addr":"","type":"yes"},{"id":"xx487232_13749","name":"Mosquée Tariq Ibnou Zyed","lat":48.723232,"lng":1.374913,"addr":"","type":"yes"},{"id":"xx468070_17041","name":"Islamic place","lat":46.806964,"lng":1.70405,"addr":"","type":"mosque"},{"id":"xx468066_17036","name":"Islamic place","lat":46.806552,"lng":1.703627,"addr":"","type":"mosque"},{"id":"xx468065_17036","name":"Islamic place","lat":46.80653,"lng":1.703606,"addr":"","type":"mosque"},{"id":"xx489872_17538","name":"Mosquée","lat":48.98721,"lng":1.753807,"addr":"","type":"place_of_worship"},{"id":"xx478928_18360","name":"Mosquée Annour","lat":47.892824,"lng":1.835969,"addr":"Rue de Beauvois","type":"yes"},{"id":"xx490503_20169","name":"Grande Mosquée de Cergy","lat":49.050258,"lng":2.016882,"addr":"Avenue du Hazay","type":"mosque"},{"id":"xx476859_26485","name":"Grande Mosquée de Gien","lat":47.685894,"lng":2.648512,"addr":"","type":"mosque"},{"id":"xx489708_20287","name":"Islamic place","lat":48.970779,"lng":2.028706,"addr":"","type":"yes"},{"id":"xx490036_22064","name":"Grande Mosquée de Montigny-lès-Cormeilles","lat":49.003559,"lng":2.206372,"addr":"","type":"yes"},{"id":"xx486229_23112","name":"Islamic place","lat":48.622908,"lng":2.311176,"addr":"","type":"mosque"},{"id":"xx454714_44033","name":"Mosquée de Montreynaud","lat":45.471447,"lng":4.40332,"addr":"Saint-Étienne","type":"yes"},{"id":"xx496582_33425","name":"Mosquée de Beautor","lat":49.658206,"lng":3.342476,"addr":"Rue de Tergnier","type":"yes"},{"id":"xx483984_29540","name":"Mosquée Turque","lat":48.3984,"lng":2.95404,"addr":"","type":"place_of_worship"},{"id":"xx496582_33424","name":"Mosquée de Beautor","lat":49.658151,"lng":3.342419,"addr":"Rue de Tergnier","type":"yes"},{"id":"xx452535_46704","name":"Mosquée du Zodiaque","lat":45.253452,"lng":4.670357,"addr":"","type":"yes"},{"id":"xx488641_21954","name":"Mosquée de Rueil Malmaison","lat":48.864058,"lng":2.19544,"addr":"Rue des Mazurières","type":"yes"},{"id":"xx489074_23255","name":"Islamic place","lat":48.907377,"lng":2.32552,"addr":"","type":"mosque"},{"id":"xx479100_18807","name":"Mosquée Fathi","lat":47.909975,"lng":1.88073,"addr":"Rue Charles Beauhaire","type":"yes"},{"id":"xx487261_22721","name":"Mosquée de Massy","lat":48.726127,"lng":2.272069,"addr":"","type":"yes"},{"id":"xx477031_15004","name":"Islamic place","lat":47.703092,"lng":1.500448,"addr":"","type":"yes"},{"id":"xx489774_24109","name":"Islamic place","lat":48.977445,"lng":2.41094,"addr":"","type":"yes"},{"id":"xx489725_23933","name":"Islamic place","lat":48.972467,"lng":2.393329,"addr":"","type":"yes"},{"id":"xx489793_23972","name":"Mosquée Hamza","lat":48.979315,"lng":2.397218,"addr":"","type":"yes"},{"id":"xx489704_23947","name":"Islamic place","lat":48.970415,"lng":2.394708,"addr":"","type":"yes"},{"id":"xx489717_23907","name":"Islamic place","lat":48.971726,"lng":2.390702,"addr":"","type":"place_of_worship"},{"id":"xx487661_06398","name":"Islamic place","lat":48.766092,"lng":0.639816,"addr":"","type":"yes"},{"id":"xx489934_22468","name":"Mosquée Arrahma","lat":48.993438,"lng":2.246751,"addr":"Rue du 18 Juin","type":"mosque"},{"id":"xx489799_32831","name":"Mosquée de Charly-sur-Marne","lat":48.979876,"lng":3.28307,"addr":"Rue Louis Martin","type":"yes"},{"id":"xx478293_16912","name":"Mosquée de Meung sur Loire","lat":47.829316,"lng":1.691189,"addr":"Rue de la Gare","type":"house"},{"id":"xx499509_34112","name":"Mosquée Er-Rahma","lat":49.950876,"lng":3.411171,"addr":"Rue Jean-Baptiste Charlet","type":"mosque"},{"id":"xx489660_23903","name":"Mosquée El-Irshad","lat":48.965986,"lng":2.390278,"addr":"Avenue Paul-Vaillant Couturier","type":"mosque"},{"id":"xx490085_23947","name":"AFMV Le Pavillon","lat":49.008521,"lng":2.394714,"addr":"Rue d'Hérivaux","type":"yes"},{"id":"xx489660_23902","name":"Mosquée El-Irshad","lat":48.966001,"lng":2.39025,"addr":"Avenue Paul-Vaillant Couturier","type":"mosque"},{"id":"xx473751_06913","name":"Association Culturelle Turque de Tours","lat":47.375069,"lng":0.691345,"addr":"","type":"yes"},{"id":"xx473768_06728","name":"Grande Mosquée de Tours","lat":47.376825,"lng":0.672753,"addr":"Tours","type":"mosque"},{"id":"xx486326_25970","name":"Mosquée Annour","lat":48.632598,"lng":2.597012,"addr":"","type":"yes"},{"id":"xx488272_30925","name":"Mosquée Arrahma","lat":48.827202,"lng":3.092486,"addr":"","type":"mosque"},{"id":"xx489460_23716","name":"Grande Mosquée Imam Malik","lat":48.946036,"lng":2.371607,"addr":"","type":"yes"},{"id":"xx475872_13149","name":"Islamic place","lat":47.587161,"lng":1.314856,"addr":"Blois","type":"mosque"},{"id":"xx457707_49762","name":"Groupe scolaire Al Kindi","lat":45.770739,"lng":4.976244,"addr":"","type":"school"},{"id":"xx479093_19301","name":"Mosquée Assounah","lat":47.909285,"lng":1.930142,"addr":"Orléans","type":"yes"},{"id":"xx489762_23837","name":"Mosquée","lat":48.976151,"lng":2.383722,"addr":"","type":"yes"},{"id":"xx490017_23714","name":"Islamic place","lat":49.001706,"lng":2.371369,"addr":"","type":"yes"},{"id":"xx475871_13148","name":"Islamic place","lat":47.587141,"lng":1.314822,"addr":"Blois","type":"mosque"},{"id":"xx489761_23837","name":"Mosquée","lat":48.976145,"lng":2.383701,"addr":"","type":"yes"},{"id":"xx490017_23713","name":"Islamic place","lat":49.00169,"lng":2.37134,"addr":"","type":"yes"},{"id":"xx476299_27465","name":"Mosquée de Briare","lat":47.629875,"lng":2.746498,"addr":"","type":"yes"},{"id":"xx488864_22168","name":"Institut Ibn Badis","lat":48.886353,"lng":2.21683,"addr":"Avenue Georges Clemenceau","type":"mosque"},{"id":"xx457987_31095","name":"Mosquée Alwahda","lat":45.798736,"lng":3.109535,"addr":"Rue de la Fontcimagne","type":"place_of_worship"},{"id":"xx479426_19163","name":"Islamic place","lat":47.94262,"lng":1.916268,"addr":"","type":"place_of_worship"},{"id":"xx478376_19285","name":"Mosquée Annour (Orléans Sud)","lat":47.837552,"lng":1.928495,"addr":"Rue Jules Ferry","type":"yes"},{"id":"xx487371_13855","name":"Assounah","lat":48.737101,"lng":1.385464,"addr":"","type":"yes"},{"id":"xx484473_14554","name":"Assalam","lat":48.447286,"lng":1.455408,"addr":"rue Aristide Briand","type":"mosque"},{"id":"xx498777_23355","name":"Mosquée As-Sounnah","lat":49.877737,"lng":2.335541,"addr":"","type":"yes"},{"id":"xx499156_23147","name":"Mosquée Chekkar","lat":49.91559,"lng":2.314665,"addr":"","type":"yes"},{"id":"xx478375_19285","name":"Mosquée Annour (Orléans Sud)","lat":47.837539,"lng":1.928475,"addr":"Rue Jules Ferry","type":"yes"},{"id":"xx499156_23146","name":"Mosquée Chekkar","lat":49.915592,"lng":2.31465,"addr":"","type":"yes"},{"id":"xx492402_40308","name":"Grande Mosquée de Reims","lat":49.240206,"lng":4.030776,"addr":"","type":"mosque"},{"id":"xx488692_24613","name":"Mosquée Masjid al-Oumma","lat":48.869201,"lng":2.461331,"addr":"","type":"yes"},{"id":"xx489033_23950","name":"Ass Culturelle Fraternité De Pantin","lat":48.903251,"lng":2.395024,"addr":"Rue Honoré","type":"yes"},{"id":"xx495196_01172","name":"Mosquée Mesjed Ennour","lat":49.519632,"lng":0.117205,"addr":"Rue Léon Peulevey","type":"yes"},{"id":"xx489860_19104","name":"Mosquée Essalam","lat":48.98596,"lng":1.910394,"addr":"Rue Gabriel Vilain","type":"yes"},{"id":"xx492402_40307","name":"Grande Mosquée de Reims","lat":49.240232,"lng":4.03074,"addr":"","type":"mosque"},{"id":"xx488704_24141","name":"Mosquée de Bagnolet","lat":48.870388,"lng":2.414101,"addr":"","type":"mosque"},{"id":"xx489025_24462","name":"Mosquée de Bobigny","lat":48.902539,"lng":2.44623,"addr":"","type":"yes"},{"id":"xx489003_23938","name":"Mosquée du foyer","lat":48.900286,"lng":2.393836,"addr":"","type":"place_of_worship"},{"id":"xx489518_26224","name":"Mosquée Othman Ibn Affan","lat":48.951843,"lng":2.62245,"addr":"","type":"yes"},{"id":"xx493990_10755","name":"Islamic place","lat":49.399003,"lng":1.075517,"addr":"","type":"mosque"},{"id":"xx488420_23551","name":"Grande Mosquée de Paris","lat":48.841981,"lng":2.355057,"addr":"Place du Puits de l'Ermite","type":"place_of_worship"},{"id":"xx488420_23550","name":"Grande Mosquée de Paris","lat":48.841994,"lng":2.35504,"addr":"Place du Puits de l'Ermite","type":"place_of_worship"},{"id":"xx492846_40251","name":"Mosquée El-Hidaya","lat":49.284611,"lng":4.025058,"addr":"","type":"mosque"},{"id":"xx489201_24254","name":"Islamic place","lat":48.920117,"lng":2.425373,"addr":"","type":"mosque"},{"id":"xx487913_26455","name":"Mosquée de Roissy-en-Brie","lat":48.791341,"lng":2.645492,"addr":"","type":"yes"},{"id":"xx457883_47928","name":"Mosquée Et-Tawba","lat":45.788285,"lng":4.792809,"addr":"","type":"mosque"},{"id":"xx492846_40248","name":"Mosquée El-Hidaya","lat":49.284605,"lng":4.024837,"addr":"","type":"mosque"},{"id":"xx487914_26455","name":"Mosquée de Roissy-en-Brie","lat":48.791356,"lng":2.645476,"addr":"","type":"yes"},{"id":"xx488383_27291","name":"Centre Islamique du Val de Bussy","lat":48.838346,"lng":2.729072,"addr":"","type":"mosque"},{"id":"xx488382_27291","name":"Islamic place","lat":48.838209,"lng":2.729059,"addr":"","type":"mosque"},{"id":"xx488385_27289","name":"Mosquée Tawba","lat":48.838467,"lng":2.728945,"addr":"","type":"mosque"},{"id":"xx486511_23907","name":"Mosquée de Grigny","lat":48.65106,"lng":2.390657,"addr":"Rue Avicenne","type":"place_of_worship"},{"id":"xx457473_49224","name":"Mosquée de Bron","lat":45.74732,"lng":4.92239,"addr":"","type":"yes"},{"id":"xx488384_27290","name":"Centre Islamique du Val de Bussy","lat":48.838362,"lng":2.729038,"addr":"","type":"mosque"},{"id":"xx488382_27290","name":"Islamic place","lat":48.838212,"lng":2.729035,"addr":"","type":"mosque"},{"id":"xx488394_26160","name":"Mosquée de Noisiel","lat":48.839402,"lng":2.616018,"addr":"","type":"mosque"},{"id":"xx478645_39823","name":"Mosquée de Tonnerre","lat":47.864485,"lng":3.982266,"addr":"","type":"mosque"},{"id":"xx456705_48624","name":"Islamic place","lat":45.670543,"lng":4.862442,"addr":"","type":"place_of_worship"},{"id":"xx478645_39822","name":"Mosquée de Tonnerre","lat":47.864468,"lng":3.98225,"addr":"","type":"mosque"},{"id":"xx456706_48624","name":"Islamic place","lat":45.670554,"lng":4.862414,"addr":"","type":"place_of_worship"},{"id":"xx486788_21668","name":"Mosquée El Andalous","lat":48.678823,"lng":2.166844,"addr":"Rue de l'Armagnac","type":"yes"},{"id":"xx455440_37419","name":"Islamic place","lat":45.544027,"lng":3.741867,"addr":"Rue du Docteur Marius Eymard","type":"yes"},{"id":"xx489073_23258","name":"Grande Mosquée de Saint-Ouen Al Hashimi","lat":48.907269,"lng":2.325776,"addr":"Rue des Docks","type":"mosque"},{"id":"xx490037_16818","name":"Mosquée Othmane Ibn Affane","lat":49.003748,"lng":1.681766,"addr":"","type":"mosque"},{"id":"xx493631_10982","name":"MOSQUEE OISSEL","lat":49.363085,"lng":1.098243,"addr":"Rue de Gascogne","type":"mosque"},{"id":"xx488351_26549","name":"Mosquée de Lognes","lat":48.835135,"lng":2.65493,"addr":"Boulevard du Segrais","type":"yes"},{"id":"xx457714_49763","name":"Centre interculturel de Décines","lat":45.77138,"lng":4.976273,"addr":"","type":"place_of_worship"},{"id":"xx457713_49763","name":"Islamic place","lat":45.771313,"lng":4.976261,"addr":"","type":"yes"},{"id":"xx455440_37418","name":"Islamic place","lat":45.544003,"lng":3.741847,"addr":"Rue du Docteur Marius Eymard","type":"yes"},{"id":"xx486318_25547","name":"Mosquée de Lieusaint","lat":48.63179,"lng":2.554655,"addr":"","type":"yes"},{"id":"xx490088_20410","name":"Mosquée de Nour","lat":49.008846,"lng":2.040957,"addr":"","type":"mosque"},{"id":"xx488252_25165","name":"Mosquée des Boullereaux","lat":48.825151,"lng":2.516461,"addr":"","type":"yes"},{"id":"xx486318_25546","name":"Mosquée de Lieusaint","lat":48.631785,"lng":2.554642,"addr":"","type":"yes"},{"id":"xx490089_20409","name":"Mosquée de Nour","lat":49.008859,"lng":2.040937,"addr":"","type":"mosque"},{"id":"xx488251_25164","name":"Mosquée des Boullereaux","lat":48.825144,"lng":2.516443,"addr":"","type":"yes"},{"id":"xx489524_24940","name":"Mosquée Masjid Assalam","lat":48.952386,"lng":2.493967,"addr":"","type":"yes"},{"id":"xx489489_24451","name":"Mosquée Du Blanc-Mesnil","lat":48.94892,"lng":2.445082,"addr":"","type":"mosque"},{"id":"xx487035_23690","name":"Islamic place","lat":48.703522,"lng":2.369043,"addr":"","type":"mosque"},{"id":"xx488165_22924","name":"Islamic place","lat":48.816462,"lng":2.292351,"addr":"","type":"yes"},{"id":"xx457799_49109","name":"Grande mosquée de Vaulx-en-Velin","lat":45.77989,"lng":4.910921,"addr":"","type":"yes"},{"id":"xx487035_23693","name":"Islamic place","lat":48.703501,"lng":2.369302,"addr":"","type":"mosque"},{"id":"xx486995_23738","name":"Islamic place","lat":48.699476,"lng":2.373758,"addr":"","type":"place_of_worship"},{"id":"xx487035_23694","name":"Islamic place","lat":48.703483,"lng":2.369415,"addr":"","type":"mosque"},{"id":"xx489337_22309","name":"Mosquée Assalam","lat":48.933703,"lng":2.230919,"addr":"","type":"mosque"},{"id":"xx484367_14674","name":"Islamic place","lat":48.4367,"lng":1.467424,"addr":"Hameau du Clos Vougeot","type":"yes"},{"id":"xx484367_14672","name":"Mouhsinine","lat":48.436653,"lng":1.467211,"addr":"","type":"mosque"},{"id":"xx484366_14673","name":"Islamic place","lat":48.436611,"lng":1.467307,"addr":"","type":"yes"},{"id":"xx457638_49148","name":"Carré musulman","lat":45.763822,"lng":4.91483,"addr":"","type":"mosque"},{"id":"xx490320_24505","name":"Islamic place","lat":49.032047,"lng":2.450518,"addr":"","type":"mosque"},{"id":"xx490320_24506","name":"Islamic place","lat":49.032021,"lng":2.45064,"addr":"","type":"mosque"},{"id":"xx492446_14097","name":"Islamic place","lat":49.244617,"lng":1.409707,"addr":"","type":"yes"},{"id":"xx490119_11606","name":"Mosquée Al Fath","lat":49.011887,"lng":1.160602,"addr":"","type":"construction"},{"id":"xx490120_11607","name":"Islamic place","lat":49.011998,"lng":1.160719,"addr":"","type":"mosque"},{"id":"xx487381_13959","name":"Mosquée Assounna","lat":48.738103,"lng":1.395925,"addr":"Chemin de Compteville","type":"yes"},{"id":"xx487384_13960","name":"Islamic place","lat":48.73836,"lng":1.395973,"addr":"","type":"mosque"},{"id":"xx487383_13959","name":"Islamic place","lat":48.738291,"lng":1.395903,"addr":"","type":"mosque"},{"id":"xx492882_10108","name":"Islamic place","lat":49.288193,"lng":1.01078,"addr":"","type":"mosque"},{"id":"xx492847_40253","name":"Islamic place","lat":49.284689,"lng":4.025295,"addr":"","type":"mosque"},{"id":"xx489117_24150","name":"Mosquée Islah","lat":48.911733,"lng":2.415025,"addr":"","type":"yes"},{"id":"xx453756_48040","name":"El-Hidaya","lat":45.37561,"lng":4.804048,"addr":"","type":"place_of_worship"},{"id":"xx488804_24815","name":"Mosquée de Rosny","lat":48.880403,"lng":2.481507,"addr":"Rue Conrad Adenauer","type":"yes"},{"id":"xx479236_19697","name":"Mosquée de Saint-Jean de Braye","lat":47.923597,"lng":1.96968,"addr":"","type":"yes"},{"id":"xx477979_35916","name":"Mosquée Noor","lat":47.797949,"lng":3.591618,"addr":"","type":"yes"},{"id":"xx488706_25272","name":"Mosquée Aïcha","lat":48.870633,"lng":2.5272,"addr":"Rue Raymond Bilbor","type":"yes"},{"id":"xx486194_24622","name":"Islamic place","lat":48.619421,"lng":2.462183,"addr":"","type":"mosque"},{"id":"xx489572_24116","name":"Islamic place","lat":48.957185,"lng":2.411641,"addr":"","type":"mosque"},{"id":"xx489234_22367","name":"Mosquée Dignité","lat":48.923371,"lng":2.236682,"addr":"","type":"mosque"},{"id":"xx489196_23034","name":"Grande Mosquée de Gennevilliers","lat":48.919621,"lng":2.303359,"addr":"","type":"mosque"},{"id":"xx489366_25142","name":"El Rahma","lat":48.936633,"lng":2.514193,"addr":"","type":"yes"},{"id":"xx457985_31218","name":"Islamic place","lat":45.798526,"lng":3.12178,"addr":"","type":"yes"},{"id":"xx492513_24850","name":"An-Nour - مسجد","lat":49.251315,"lng":2.485031,"addr":"","type":"yes"},{"id":"xx454704_44995","name":"Grande mosquée de Saint-Chamond","lat":45.470374,"lng":4.499485,"addr":"","type":"mosque"},{"id":"xx488547_24833","name":"Mosquée de l'Association cultuelle musulmane fontenaysienne","lat":48.854652,"lng":2.483255,"addr":"","type":"yes"},{"id":"xx488165_22923","name":"Islamic place","lat":48.816452,"lng":2.29233,"addr":"","type":"yes"},{"id":"xx489337_22308","name":"Mosquée Assalam","lat":48.933699,"lng":2.230801,"addr":"","type":"mosque"},{"id":"xx484366_14672","name":"Mouhsinine","lat":48.436644,"lng":1.467204,"addr":"","type":"mosque"},{"id":"xx490322_24505","name":"Islamic place","lat":49.03224,"lng":2.450513,"addr":"","type":"mosque"},{"id":"xx492446_14096","name":"Islamic place","lat":49.2446,"lng":1.409631,"addr":"","type":"yes"},{"id":"xx487383_13960","name":"Islamic place","lat":48.738346,"lng":1.395966,"addr":"","type":"mosque"},{"id":"xx492881_10108","name":"Islamic place","lat":49.28814,"lng":1.01076,"addr":"","type":"mosque"},{"id":"xx489118_24150","name":"Mosquée Islah","lat":48.911759,"lng":2.414956,"addr":"","type":"yes"},{"id":"xx489571_24116","name":"Islamic place","lat":48.957144,"lng":2.411593,"addr":"","type":"mosque"},{"id":"xx489196_23033","name":"Grande Mosquée de Gennevilliers","lat":48.91961,"lng":2.303342,"addr":"","type":"mosque"},{"id":"xx454703_44994","name":"Grande mosquée de Saint-Chamond","lat":45.470326,"lng":4.499441,"addr":"","type":"mosque"},{"id":"xx476881_26460","name":"Mevlana Cami","lat":47.68811,"lng":2.646003,"addr":"","type":"yes"},{"id":"xx494469_10289","name":"El Mouhcinine","lat":49.446914,"lng":1.028915,"addr":"","type":"place_of_worship"},{"id":"xx490104_23854","name":"Grande Mosquée de Villiers Le Bel","lat":49.010401,"lng":2.385426,"addr":"Rue Julien Boursier","type":"yes"},{"id":"xx489046_22065","name":"Mosquée Émir-Abdelkader","lat":48.904643,"lng":2.206547,"addr":"Avenue de la Commune de Paris","type":"yes"},{"id":"xx492044_11501","name":"Islamic place","lat":49.204448,"lng":1.15006,"addr":"","type":"mosque"},{"id":"xx489011_22352","name":"Association Cultuelle des Musulmans de Courbevoie","lat":48.901135,"lng":2.235154,"addr":"","type":"yes"},{"id":"xx481794_22525","name":"Islamic place","lat":48.179424,"lng":2.252499,"addr":"","type":"mosque"},{"id":"xx486505_25621","name":"Islamic place","lat":48.650492,"lng":2.562054,"addr":"","type":"mosque"},{"id":"xx486504_25615","name":"Islamic place","lat":48.650354,"lng":2.561506,"addr":"","type":"yes"},{"id":"xx457305_48768","name":"Mosquée Ahl Al Hadith","lat":45.73053,"lng":4.876811,"addr":"","type":"place_of_worship"},{"id":"xx460248_40471","name":"Islamic place","lat":46.02476,"lng":4.047121,"addr":"","type":"yes"},{"id":"xx469929_31363","name":"Mosquée El Maghfira","lat":46.992857,"lng":3.136251,"addr":"","type":"yes"},{"id":"xx488394_23819","name":"Mosquée Nour","lat":48.839353,"lng":2.381893,"addr":"Rue Corbineau","type":"place_of_worship"},{"id":"xx475946_13096","name":"Al Ghazali Groupe Scolaire","lat":47.594562,"lng":1.309617,"addr":"","type":"school"},{"id":"xx486194_24624","name":"Mosquée de la Paix","lat":48.619396,"lng":2.462399,"addr":"","type":"yes"},{"id":"xx479431_19283","name":"Centre Culturel AMF","lat":47.943122,"lng":1.928314,"addr":"Rue de Curembourg","type":"yes"},{"id":"xx492668_12226","name":"Mosquée Selahaddin Eyyubi","lat":49.266823,"lng":1.222566,"addr":"Voie Marmaille","type":"mosque"},{"id":"xx488804_24814","name":"Islamic place","lat":48.880358,"lng":2.481434,"addr":"","type":"mosque"},{"id":"xx492519_24650","name":"Islamic place","lat":49.25186,"lng":2.464999,"addr":"","type":"yes"},{"id":"xx486230_23112","name":"Islamic place","lat":48.623017,"lng":2.311247,"addr":"","type":"mosque"},{"id":"xx489522_22346","name":"Islamic place","lat":48.952202,"lng":2.234592,"addr":"","type":"mosque"},{"id":"xx454507_43992","name":"Islamic place","lat":45.450686,"lng":4.399225,"addr":"","type":"mosque"},{"id":"xx481972_33118","name":"Mosquée Assalam","lat":48.19717,"lng":3.31184,"addr":"","type":"mosque"},{"id":"xx488384_27289","name":"Centre Islamique Val de Bussy","lat":48.838396,"lng":2.728934,"addr":"","type":"mosque"},{"id":"xx490792_14859","name":"Islamic place","lat":49.079243,"lng":1.485928,"addr":"","type":"mosque"},{"id":"xx487382_22877","name":"Islamic place","lat":48.7382,"lng":2.287742,"addr":"","type":"mosque"},{"id":"xx489224_24734","name":"Islamic place","lat":48.922362,"lng":2.47344,"addr":"","type":"mosque"},{"id":"xx487587_24966","name":"Mosquée El Nour","lat":48.758716,"lng":2.49665,"addr":"Rue de la Fin de la Guerre d'Algérie","type":"yes"},{"id":"xx488367_25595","name":"Mosquée du Pavé Neuf","lat":48.836731,"lng":2.559534,"addr":"","type":"yes"},{"id":"xx488963_20668","name":"Mosquée de Saint Germain en Laye","lat":48.896261,"lng":2.066769,"addr":"Rue Saint Léger","type":"yes"},{"id":"xx490061_24216","name":"Islamic place","lat":49.0061,"lng":2.42164,"addr":"","type":"yes"},{"id":"xx488623_24540","name":"carré musulman","lat":48.862341,"lng":2.453962,"addr":"","type":"mosque"},{"id":"xx489526_24937","name":"Islamic place","lat":48.95258,"lng":2.493672,"addr":"","type":"mosque"},{"id":"xx487813_24459","name":"Islamic place","lat":48.781282,"lng":2.445946,"addr":"","type":"mosque"},{"id":"xx463415_25709","name":"Islamic place","lat":46.34149,"lng":2.570919,"addr":"","type":"yes"},{"id":"xx489461_19275","name":"Islamic place","lat":48.94609,"lng":1.927461,"addr":"","type":"yes"},{"id":"xx486510_23907","name":"Islamic place","lat":48.65105,"lng":2.390677,"addr":"","type":"mosque"},{"id":"xx489915_19147","name":"Islamic place","lat":48.99147,"lng":1.914676,"addr":"","type":"mosque"},{"id":"xx492496_24633","name":"Mosquée Essalam","lat":49.249598,"lng":2.463296,"addr":"Rue Jean Moulin","type":"mosque"},{"id":"xx494470_10289","name":"El Mouhcinine","lat":49.446969,"lng":1.028913,"addr":"","type":"place_of_worship"},{"id":"xx489011_22351","name":"Association Cultuelle des Musulmans de Courbevoie","lat":48.901109,"lng":2.235136,"addr":"","type":"yes"},{"id":"xx481794_22524","name":"Islamic place","lat":48.179433,"lng":2.252383,"addr":"","type":"mosque"},{"id":"xx486505_25620","name":"Islamic place","lat":48.650477,"lng":2.562014,"addr":"","type":"mosque"},{"id":"xx469928_31362","name":"Mosquée El Maghfira","lat":46.992841,"lng":3.136215,"addr":"","type":"yes"},{"id":"xx488804_24813","name":"Islamic place","lat":48.880352,"lng":2.481265,"addr":"","type":"mosque"},{"id":"xx454506_43992","name":"Islamic place","lat":45.450638,"lng":4.399218,"addr":"","type":"mosque"},{"id":"xx481971_33118","name":"Mosquée Assalam","lat":48.197146,"lng":3.311816,"addr":"","type":"mosque"},{"id":"xx490792_14858","name":"Islamic place","lat":49.07925,"lng":1.485847,"addr":"","type":"mosque"},{"id":"xx488623_24539","name":"carré musulman","lat":48.862258,"lng":2.453925,"addr":"","type":"mosque"},{"id":"xx489526_24935","name":"Islamic place","lat":48.952564,"lng":2.493537,"addr":"","type":"mosque"},{"id":"xx463415_25708","name":"Islamic place","lat":46.341491,"lng":2.570847,"addr":"","type":"yes"},{"id":"xx489460_19274","name":"Islamic place","lat":48.946045,"lng":1.927426,"addr":"","type":"yes"},{"id":"xx486511_23906","name":"Islamic place","lat":48.651094,"lng":2.390619,"addr":"","type":"mosque"}]