[{"id":"xx521970_01500","name":"Jawharah","lat":52.197037,"lng":0.14995,"addr":"Mill Road","type":"mosque"},{"id":"xx514265_03894","name":"Gravesend Shahjalal Masjid","lat":51.426533,"lng":0.389421,"addr":"St Hilda's Way","type":"place_of_worship"},{"id":"xx515394_07006","name":"Faisal al-Madinah","lat":51.539379,"lng":0.700643,"addr":"Milton Road","type":"place_of_worship"},{"id":"xx513784_05357","name":"Chatham Mosque","lat":51.378388,"lng":0.535722,"addr":"","type":"place_of_worship"},{"id":"xx513789_05063","name":"Imam Ali Centre","lat":51.378908,"lng":0.506327,"addr":"","type":"place_of_worship"},{"id":"xx517306_04740","name":"Chelmsford Mosque","lat":51.730648,"lng":0.474042,"addr":"Moulsham Street","type":"place_of_worship"},{"id":"xx515467_06998","name":"The UK Islamic Mission Southend Mosque","lat":51.546657,"lng":0.69983,"addr":"","type":"place_of_worship"},{"id":"xx515339_00245","name":"Islamic Centre Upton Park","lat":51.533865,"lng":0.024523,"addr":"Selwyn Road","type":"place_of_worship"},{"id":"xx512792_10900","name":"Laud Worship Rooms","lat":51.279224,"lng":1.09001,"addr":"","type":"place_of_worship"},{"id":"xx514418_00795","name":"St James Mar Thoma Church","lat":51.441766,"lng":0.079516,"addr":"Avery Hill Road","type":"place_of_worship"},{"id":"xx527442_00654","name":"Sutton St James Baptist Church","lat":52.744236,"lng":0.065449,"addr":"","type":"chapel"},{"id":"xx515291_00029","name":"Masjid Ilyas","lat":51.52907,"lng":0.002937,"addr":"","type":"place_of_worship"},{"id":"xx515395_00001","name":"Ebrahim College","lat":51.539496,"lng":0.000054,"addr":"High Street","type":"college"},{"id":"xx515291_01043","name":"Thames View Muslim Association","lat":51.529089,"lng":0.104283,"addr":"Farr Avenue","type":"mosque"},{"id":"xx515228_00235","name":"Masjid & Imambargah Shuhdae Karbala","lat":51.52279,"lng":0.023464,"addr":"Barking Road","type":"place_of_worship"},{"id":"xx515230_00576","name":"Central Park Community Centre","lat":51.523029,"lng":0.057592,"addr":"High Street South","type":"place_of_worship"},{"id":"xx515327_00513","name":"Masjid Bilal & Islamic Centre","lat":51.532691,"lng":0.051318,"addr":"Barking Road","type":"place_of_worship"},{"id":"xx515311_00438","name":"Jamia Masjid","lat":51.531087,"lng":0.043801,"addr":"Barking Road","type":"place_of_worship"},{"id":"xx515412_00031","name":"Hasanah Centre","lat":51.54119,"lng":0.003082,"addr":"","type":"community_centre"},{"id":"xx523968_02674","name":"Ely Islamic Centre","lat":52.396807,"lng":0.26741,"addr":"Broad Street","type":"place_of_worship"},{"id":"xx515696_01245","name":"Chadwell Heath Muslim Centre","lat":51.569601,"lng":0.124498,"addr":"High Road","type":"place_of_worship"},{"id":"xx515079_00638","name":"Prayer Rooms","lat":51.50789,"lng":0.063844,"addr":"","type":"place_of_worship"},{"id":"xx514460_00786","name":"Multi-faith Prayer Room","lat":51.446036,"lng":0.078645,"addr":"","type":"place_of_worship"},{"id":"xx516051_02541","name":"Gardens of Peace Muslim Cemetery (Maylands)","lat":51.605149,"lng":0.254126,"addr":"Colchester Road","type":"mosque"},{"id":"xx514466_02157","name":"Dartford Masjid","lat":51.446551,"lng":0.215725,"addr":"","type":"place_of_worship"},{"id":"xx531471_03386","name":"Skegness Mosque","lat":53.147062,"lng":0.338624,"addr":"Roman Bank","type":"place_of_worship"},{"id":"xx524144_07492","name":"Islamic place","lat":52.414356,"lng":0.749242,"addr":"","type":"place_of_worship"},{"id":"xx515944_00594","name":"Samr Centre","lat":51.594403,"lng":0.059368,"addr":"Harewood Drive","type":"place_of_worship"},{"id":"xx514883_01624","name":"Frank's Uthman Masjid","lat":51.4883,"lng":0.162429,"addr":"Parkside Road","type":"place_of_worship"},{"id":"xx509658_01000","name":"Islamic place","lat":50.965775,"lng":0.099987,"addr":"","type":"place_of_worship"},{"id":"xx515504_00480","name":"Islamic place","lat":51.550431,"lng":0.048022,"addr":"","type":"place_of_worship"},{"id":"xx518878_09026","name":"Colchester Jamiah Masjid","lat":51.887784,"lng":0.90261,"addr":"Vineyard Street","type":"place_of_worship"},{"id":"xx518764_05512","name":"Al-Falah Braintree Islamic Centre","lat":51.87644,"lng":0.551239,"addr":"Silks Way","type":"place_of_worship"},{"id":"xx517171_04892","name":"Hamptons Centre","lat":51.717077,"lng":0.48921,"addr":"Tydemans","type":"place_of_worship"},{"id":"xx515944_00620","name":"Clayhall Islamic Centre","lat":51.594351,"lng":0.062025,"addr":"Heathcote Avenue","type":"place_of_worship"},{"id":"xx515682_00128","name":"Leytonstone Mosque","lat":51.568231,"lng":0.012836,"addr":"Dacre Road","type":"mosque"},{"id":"xx514254_01332","name":"Parish Church of St James, North Cray","lat":51.425389,"lng":0.133209,"addr":"North Cray Road","type":"church"},{"id":"xx513419_07288","name":"Sittingbourne Islamic Cultural Centre","lat":51.341906,"lng":0.728835,"addr":"","type":"yes"},{"id":"xx517872_11482","name":"St. James' Church","lat":51.787194,"lng":1.148174,"addr":"","type":"church"},{"id":"xx518260_11421","name":"St James","lat":51.826022,"lng":1.142055,"addr":"","type":"yes"},{"id":"xx514224_07781","name":"Sheppey Islamic Cultural Centre","lat":51.422383,"lng":0.778101,"addr":"Minster Road","type":"hall"},{"id":"xx511291_13094","name":"Dover Masjid","lat":51.129052,"lng":1.309362,"addr":"Park Place","type":"yes"},{"id":"xx518067_01214","name":"St James Church","lat":51.806686,"lng":0.121353,"addr":"","type":"church"},{"id":"xx517916_11498","name":"Tendring Deen Education Centre","lat":51.791614,"lng":1.149766,"addr":"Clacton-on-Sea","type":"yes"},{"id":"xx511291_13093","name":"Dover Masjid","lat":51.129062,"lng":1.309315,"addr":"Park Place","type":"yes"},{"id":"xx518067_01213","name":"St James Church","lat":51.806655,"lng":0.121308,"addr":"","type":"church"},{"id":"xx515459_07033","name":"Essex Jamme Masjid Trust","lat":51.54589,"lng":0.703338,"addr":"","type":"mosque"},{"id":"xx515929_00286","name":"Qurani Murkuz","lat":51.592943,"lng":0.028556,"addr":"","type":"yes"},{"id":"xx517288_06859","name":"Maldon District Islamic Cultural Association","lat":51.728845,"lng":0.685897,"addr":"Church Street","type":"yes"},{"id":"xx514586_07172","name":"St James","lat":51.458569,"lng":0.717203,"addr":"","type":"church"},{"id":"xx526354_12669","name":"Norwich and Norfolk Community Centre","lat":52.635396,"lng":1.266863,"addr":"Dereham Road","type":"yes"},{"id":"xx528813_13526","name":"Saint James Church","lat":52.881286,"lng":1.352637,"addr":"","type":"church"},{"id":"xx523270_05966","name":"Saint James","lat":52.327007,"lng":0.596633,"addr":"","type":"church"},{"id":"xx513843_05447","name":"Jamia Mosque","lat":51.384303,"lng":0.544737,"addr":"","type":"yes"},{"id":"xx515929_00285","name":"Qurani Murkuz","lat":51.59289,"lng":0.028544,"addr":"","type":"yes"},{"id":"xx526354_12668","name":"Norwich and Norfolk Community Centre","lat":52.635405,"lng":1.266822,"addr":"Dereham Road","type":"yes"},{"id":"xx518110_10261","name":"St James' Church","lat":51.811046,"lng":1.026068,"addr":"","type":"church"},{"id":"xx525348_09774","name":"Saint James' Church","lat":52.534828,"lng":0.977433,"addr":"","type":"church"},{"id":"xx519714_08748","name":"Saint James","lat":51.971374,"lng":0.874772,"addr":"","type":"church"},{"id":"xx526051_12967","name":"Al-Madinah Muslim Community Centre","lat":52.605126,"lng":1.296745,"addr":"Sandy Lane","type":"commercial"},{"id":"xx514553_05264","name":"St. James's","lat":51.455274,"lng":0.526362,"addr":"","type":"church"},{"id":"xx515458_01651","name":"Madina Foundation Dagenham East Islamic Centre","lat":51.545772,"lng":0.165122,"addr":"Rainham Road South","type":"yes"},{"id":"xx514553_05263","name":"St. James's","lat":51.45527,"lng":0.526325,"addr":"","type":"church"},{"id":"xx522411_02452","name":"St James'","lat":52.241061,"lng":0.245205,"addr":"","type":"church"},{"id":"xx522026_01412","name":"Cambridge Islamic College","lat":52.202601,"lng":0.141151,"addr":"Sturton Street","type":"college"},{"id":"xx521988_01388","name":"Masjid Al Ikhlas & Cambridge Islamic Centre","lat":52.198773,"lng":0.138827,"addr":"Devonshire Road","type":"yes"},{"id":"xx522002_01361","name":"Abubakr Siddiq Islamic Centre","lat":52.200168,"lng":0.136139,"addr":"Mawson Road","type":"yes"},{"id":"xx519048_04697","name":"St James the Great, Great Saling","lat":51.904826,"lng":0.469703,"addr":"","type":"yes"},{"id":"xx515444_00258","name":"Quwwat ul Islam Masjid","lat":51.544439,"lng":0.025786,"addr":"Upton Lane","type":"yes"},{"id":"xx515465_00286","name":"Masjid Yousuf","lat":51.546473,"lng":0.028644,"addr":"","type":"place_of_worship"},{"id":"xx519249_06488","name":"St James the Great, Greenstead Green","lat":51.924902,"lng":0.64876,"addr":"","type":"church"},{"id":"xx518803_07466","name":"St James the Less, Little Tey","lat":51.880255,"lng":0.746626,"addr":"","type":"yes"},{"id":"xx516780_08759","name":"St James, Dengie","lat":51.678017,"lng":0.87592,"addr":"","type":"yes"},{"id":"xx520196_02862","name":"St James, Sewards End","lat":52.019566,"lng":0.286153,"addr":"","type":"yes"},{"id":"xx515531_06096","name":"St James the Less, Hadleigh","lat":51.553078,"lng":0.609618,"addr":"High Street","type":"yes"},{"id":"xx517533_00892","name":"St James with St Luke, Staple Tye, Harlow","lat":51.75326,"lng":0.089213,"addr":"","type":"yes"},{"id":"xx516973_02420","name":"St James, Marden Ash","lat":51.69732,"lng":0.241995,"addr":"","type":"church"},{"id":"xx522026_01411","name":"Cambridge Islamic College","lat":52.202615,"lng":0.141147,"addr":"Sturton Street","type":"college"},{"id":"xx518802_07466","name":"St James the Less, Little Tey","lat":51.880247,"lng":0.746622,"addr":"","type":"yes"},{"id":"xx520196_02861","name":"St James, Sewards End","lat":52.019566,"lng":0.286143,"addr":"","type":"yes"},{"id":"xx522778_16264","name":"Saint James","lat":52.277755,"lng":1.626363,"addr":"","type":"church"},{"id":"xx518897_09073","name":"Saint James the Great, Colchester","lat":51.88974,"lng":0.907312,"addr":"East Hill","type":"church"},{"id":"xx515533_06560","name":"St James the Great, Leigh on Sea","lat":51.553264,"lng":0.655955,"addr":"","type":"yes"},{"id":"xx512963_10649","name":"Canterbury Islamic Centre","lat":51.29634,"lng":1.064853,"addr":"","type":"house"},{"id":"xx511356_02735","name":"St James' Church","lat":51.13563,"lng":0.273454,"addr":"Albany Hill","type":"house"},{"id":"xx524624_05519","name":"Saint James'","lat":52.462444,"lng":0.551878,"addr":"","type":"church"},{"id":"xx521818_01522","name":"St James","lat":52.181757,"lng":0.152236,"addr":"Wulfstan Way","type":"church"},{"id":"xx527024_06862","name":"Saint James","lat":52.702421,"lng":0.686188,"addr":"","type":"church"},{"id":"xx526428_12868","name":"Norwich Central Mosque & Islamic Community Centre","lat":52.642839,"lng":1.286773,"addr":"Aylsham Road","type":"pub"},{"id":"xx521931_01479","name":"Cambridge Quranic Centre","lat":52.193128,"lng":0.147892,"addr":"Radegund Road","type":"yes"},{"id":"xx521822_01500","name":"Baitul Mu'eed","lat":52.182206,"lng":0.149988,"addr":"Mowbray Road","type":"house"},{"id":"xx515532_06559","name":"St James the Great, Leigh on Sea","lat":51.553236,"lng":0.655929,"addr":"","type":"yes"},{"id":"xx511356_02734","name":"St James' Church","lat":51.13557,"lng":0.27344,"addr":"Albany Hill","type":"house"},{"id":"xx527024_06861","name":"Saint James","lat":52.70241,"lng":0.686144,"addr":"","type":"church"},{"id":"xx526429_12868","name":"Norwich Central Mosque & Islamic Community Centre","lat":52.642852,"lng":1.286755,"addr":"Aylsham Road","type":"pub"},{"id":"xx517608_04178","name":"St James, Chignal St James (private dwelling)","lat":51.760755,"lng":0.417773,"addr":"Chelmsford","type":"church"},{"id":"xx512754_08822","name":"St. James' Church","lat":51.275398,"lng":0.882215,"addr":"","type":"church"},{"id":"xx526272_12890","name":"The Ihsan Mosque and Islamic Centre","lat":52.627187,"lng":1.288994,"addr":"Chapelfield East","type":"mosque"},{"id":"xx515097_00185","name":"Mia Centre & Masjid","lat":51.509734,"lng":0.018499,"addr":"","type":"church"},{"id":"xx515098_00185","name":"Mia Centre & Masjid","lat":51.509754,"lng":0.018493,"addr":"","type":"church"},{"id":"xx520559_11602","name":"Ipswich Mosque","lat":52.055947,"lng":1.16016,"addr":"Bond Street","type":"yes"},{"id":"xx526590_03897","name":"Saint James","lat":52.659015,"lng":0.389691,"addr":"","type":"church"},{"id":"xx522320_01358","name":"Omar Faruque Mosque and Cultural Centre","lat":52.232028,"lng":0.135767,"addr":"Kirkwood Road","type":"mosque"},{"id":"xx523797_14113","name":"St James","lat":52.379699,"lng":1.411261,"addr":"","type":"church"},{"id":"xx526134_17265","name":"Masjid-at-Tauwheed Mosque","lat":52.613361,"lng":1.726498,"addr":"Great Yarmouth","type":"yes"},{"id":"xx529736_00495","name":"St. James","lat":52.973598,"lng":0.049503,"addr":"","type":"church"},{"id":"xx526287_13025","name":"Rose Lane Masjid","lat":52.628711,"lng":1.302517,"addr":"Rose Lane","type":"yes"},{"id":"xx513759_05393","name":"Muslim Community Centre","lat":51.375862,"lng":0.539348,"addr":"Thorold Road","type":"yes"},{"id":"xx515425_00366","name":"Al-Karam Mosque","lat":51.542486,"lng":0.036613,"addr":"Katherine Road","type":"yes"},{"id":"xx515492_00016","name":"Masjid Stratford","lat":51.549206,"lng":0.001617,"addr":"Brydges Road","type":"mosque"},{"id":"xx516066_01159","name":"Gardens of Peace Muslim Cemetery (Elmbridge)","lat":51.606624,"lng":0.11593,"addr":"Elmbridge Road","type":"mosque"},{"id":"xx513801_13513","name":"St James","lat":51.380117,"lng":1.351252,"addr":"Canterbury Road","type":"church"},{"id":"xx513801_13512","name":"St James","lat":51.380102,"lng":1.35125,"addr":"Canterbury Road","type":"church"},{"id":"xx513947_05512","name":"Nasir Mosque","lat":51.394742,"lng":0.551164,"addr":"Richmond Road","type":"mosque"},{"id":"xx531736_00936","name":"St. James","lat":53.173571,"lng":0.093565,"addr":"Church Street","type":"church"},{"id":"xx531736_00935","name":"St. James","lat":53.173569,"lng":0.093508,"addr":"Church Street","type":"church"},{"id":"xx513881_00672","name":"St James The Great","lat":51.388087,"lng":0.067249,"addr":"","type":"church"},{"id":"xx523487_02183","name":"St James","lat":52.348715,"lng":0.218295,"addr":"","type":"church"},{"id":"xx527118_01306","name":"St James (Newton Parish Church)","lat":52.711831,"lng":0.130641,"addr":"","type":"church"},{"id":"xx511954_07295","name":"St James' Church","lat":51.195353,"lng":0.729545,"addr":"","type":"church"},{"id":"xx527451_00672","name":"St James","lat":52.745144,"lng":0.0672,"addr":"","type":"church"},{"id":"xx511953_07295","name":"St James' Church","lat":51.195344,"lng":0.729533,"addr":"","type":"church"},{"id":"xx513778_13548","name":"St James Hall","lat":51.377834,"lng":1.354813,"addr":"High Street","type":"yes"},{"id":"xx526023_11780","name":"Hethersett Masjid","lat":52.602288,"lng":1.178019,"addr":"Henstead Road","type":"house"},{"id":"xx508414_04742","name":"Bexhill Masjid & Islamic Centre","lat":50.841398,"lng":0.474187,"addr":"Clifford Road","type":"mosque"},{"id":"xx515633_01164","name":"Al-Noor Voluntary Aided Muslim Primary School","lat":51.563283,"lng":0.116435,"addr":"Green Ln","type":"school"},{"id":"xx526636_02504","name":"St James' Methodist Church","lat":52.663629,"lng":0.250371,"addr":"","type":"yes"},{"id":"xx515441_00775","name":"Al Madina Mosque Barking","lat":51.544149,"lng":0.077547,"addr":"Victoria Road","type":"yes"},{"id":"xx517807_00276","name":"St James Stanstead Abbots","lat":51.780712,"lng":0.027564,"addr":"","type":"church"},{"id":"xx515308_00814","name":"Masjid Alnoor","lat":51.530752,"lng":0.081409,"addr":"Gascoigne Road","type":"yes"},{"id":"xx522200_01169","name":"Islamic place","lat":52.219961,"lng":0.116863,"addr":"Darwin Drive","type":"house"},{"id":"xx516499_00016","name":"Gilwell Mosque","lat":51.649879,"lng":0.001556,"addr":"","type":"mosque"},{"id":"xx515421_00412","name":"Madaniyah Foundation","lat":51.542052,"lng":0.041248,"addr":"Stafford Road","type":"school"},{"id":"xx508486_04085","name":"Islamic place","lat":50.848643,"lng":0.40855,"addr":"","type":"mosque"},{"id":"xx516499_00015","name":"Gilwell Mosque","lat":51.649868,"lng":0.001545,"addr":"","type":"mosque"},{"id":"xx514699_00237","name":"St. James' Church","lat":51.469905,"lng":0.023749,"addr":"Kidbrooke Park Road","type":"church"},{"id":"xx523901_04504","name":"St James's Church","lat":52.390138,"lng":0.45039,"addr":"","type":"yes"},{"id":"xx514779_03248","name":"Taleem Mosque & Community Centre","lat":51.47792,"lng":0.324834,"addr":"Clarence Road","type":"mosque"},{"id":"xx521117_06906","name":"St James","lat":52.111669,"lng":0.690606,"addr":"","type":"church"},{"id":"xx510323_00549","name":"St James the Less","lat":51.032269,"lng":0.054936,"addr":"","type":"church"},{"id":"xx520370_11884","name":"St James Roman Catholic Church","lat":52.037039,"lng":1.188436,"addr":"","type":"church"},{"id":"xx520646_11442","name":"The Cedars' Spiritualist Church","lat":52.064583,"lng":1.14424,"addr":"","type":"yes"},{"id":"xx515689_00125","name":"Leytonstone Muslim Community Centre","lat":51.568908,"lng":0.012522,"addr":"Carlton Road","type":"yes"},{"id":"xx512637_12514","name":"St. James","lat":51.263715,"lng":1.251445,"addr":"","type":"church"},{"id":"xx515563_00748","name":"Ilford Central Mosque","lat":51.556321,"lng":0.074839,"addr":"Albert Road","type":"mosque"},{"id":"xx512765_00189","name":"Saint James's Church","lat":51.276497,"lng":0.01889,"addr":"","type":"church"},{"id":"xx516042_01376","name":"Gardens of Peace Muslim Cemetery (Five Oaks)","lat":51.604174,"lng":0.137554,"addr":"Five Oaks Lane","type":"mosque"},{"id":"xx513878_13832","name":"Al-Birr Community Centre and Mosque","lat":51.387819,"lng":1.383234,"addr":"Union Crescent","type":"church"},{"id":"xx515408_00107","name":"Khidmah Academy","lat":51.540844,"lng":0.010733,"addr":"Vicarage Lane","type":"place_of_worship"},{"id":"xx515375_00097","name":"Faizan-e-Madina Masjid","lat":51.53751,"lng":0.009698,"addr":"Vicarage Lane","type":"commercial"},{"id":"xx515604_04872","name":"South Essex Islamic Community Centre","lat":51.560408,"lng":0.48724,"addr":"High Road","type":"yes"},{"id":"xx515564_00748","name":"Ilford Central Mosque","lat":51.556357,"lng":0.074823,"addr":"Albert Road","type":"mosque"},{"id":"xx512981_06674","name":"St. James Church, Bicknor","lat":51.298088,"lng":0.667393,"addr":"Bicknor","type":"yes"},{"id":"xx514529_01772","name":"Masjid Abu Bakar","lat":51.452931,"lng":0.177247,"addr":"","type":"mosque"},{"id":"xx521973_01524","name":"Cambridge Central Mosque","lat":52.197316,"lng":0.1524,"addr":"Mill Road","type":"yes"},{"id":"xx515631_00021","name":"Masjid-e-Usman","lat":51.563058,"lng":0.002085,"addr":"Ashville Road","type":"yes"},{"id":"xx515551_00113","name":"Cann Hall Masjid","lat":51.555111,"lng":0.011293,"addr":"Cann Hall Road","type":"pub"},{"id":"xx514438_01200","name":"St James the Great","lat":51.443804,"lng":0.119956,"addr":"Bladindon Drive","type":"yes"},{"id":"xx518487_01415","name":"St James The Great","lat":51.848716,"lng":0.141495,"addr":"","type":"church"},{"id":"xx511644_10259","name":"St James the Great","lat":51.164445,"lng":1.025886,"addr":"","type":"church"},{"id":"xx516025_01738","name":"St James","lat":51.602466,"lng":0.173805,"addr":"","type":"church"},{"id":"xx515238_00212","name":"St Philip & St James","lat":51.523848,"lng":0.021209,"addr":"Webb Gardens","type":"church"},{"id":"xx509925_05573","name":"St James the Great","lat":50.9925,"lng":0.557272,"addr":"","type":"church"},{"id":"xx515483_00031","name":"Hafs Academy","lat":51.548255,"lng":0.003126,"addr":"Maryland Road","type":"school"},{"id":"xx515447_00253","name":"Quwwat Ul Islam Girls' School","lat":51.544654,"lng":0.025267,"addr":"Chaucer Road","type":"school"},{"id":"xx520642_12222","name":"The Cedars Spiritualist Church","lat":52.064208,"lng":1.222224,"addr":"Main Road","type":"yes"},{"id":"xx515365_00186","name":"Masjid Abdul Aziz bin Baz","lat":51.53647,"lng":0.018633,"addr":"East Road","type":"mosque"},{"id":"xx515674_01437","name":"Dagenham Aishah Islamic Centre","lat":51.567356,"lng":0.143674,"addr":"","type":"yes"},{"id":"xx515475_00163","name":"Imambargah Qasr-e-Abbas (QAS)","lat":51.547511,"lng":0.016313,"addr":"Earlham Grove","type":"house"},{"id":"xx532562_01435","name":"Saint James","lat":53.256206,"lng":0.143543,"addr":"","type":"church"},{"id":"xx515462_00248","name":"Minhaj Ul Quran Centre","lat":51.54616,"lng":0.024817,"addr":"Romford Road","type":"place_of_worship"},{"id":"xx515444_00257","name":"Islamic place","lat":51.544428,"lng":0.025718,"addr":"","type":"mosque"},{"id":"xx513507_05220","name":"St Philip & St James' Church","lat":51.350706,"lng":0.521993,"addr":"King George Road","type":"church"},{"id":"xx512874_04407","name":"St James the Great","lat":51.2874,"lng":0.440728,"addr":"","type":"church"},{"id":"xx514106_05250","name":"St Philip & St James","lat":51.410649,"lng":0.525047,"addr":"","type":"church"},{"id":"xx515547_00223","name":"Masjid Isa Ibn Maryam","lat":51.554743,"lng":0.022267,"addr":"Dames Road","type":"chapel"},{"id":"xx515324_00152","name":"Darul Jannah Trust and Stratford Muslim Centre","lat":51.532359,"lng":0.0152,"addr":"Plaistow Road","type":"community_centre"},{"id":"xx517381_04767","name":"Ali Reza Islamic Centre","lat":51.738147,"lng":0.476717,"addr":"Regina Road","type":"yes"},{"id":"xx511592_08763","name":"Islamic place","lat":51.159203,"lng":0.876301,"addr":"","type":"mosque"},{"id":"xx516277_00352","name":"St. James' United Reformed Church","lat":51.627728,"lng":0.035249,"addr":"Russell Road","type":"yes"},{"id":"xx515523_00529","name":"Shah Jalal Mosque","lat":51.552288,"lng":0.052858,"addr":"Romford Road","type":"yes"},{"id":"xx514339_00099","name":"Tahir Mosque","lat":51.433886,"lng":0.009893,"addr":"Verdant Lane","type":"yes"},{"id":"xx515442_00319","name":"The Muslim community Centre & Mosque","lat":51.544232,"lng":0.031911,"addr":"Green Street","type":"mosque"},{"id":"xx515421_00301","name":"Islamic place","lat":51.542111,"lng":0.030129,"addr":"St. George's Road","type":"terrace"},{"id":"xx515374_00260","name":"Islamic place","lat":51.537407,"lng":0.025997,"addr":"Plashet Road","type":"commercial"},{"id":"xx515380_00332","name":"Islamic place","lat":51.537995,"lng":0.033185,"addr":"Plashet Road","type":"mosque"},{"id":"xx515373_00294","name":"East End Islamic Centre","lat":51.537278,"lng":0.029422,"addr":"Plashet Road","type":"house"},{"id":"xx515373_00297","name":"East End Islamic Centre (Maktab Building)","lat":51.537346,"lng":0.029723,"addr":"Lucas Avenue","type":"house"},{"id":"xx515813_00914","name":"Newbury Park Masjid","lat":51.581313,"lng":0.091392,"addr":"","type":"mosque"},{"id":"xx515813_00915","name":"Islamic place","lat":51.581341,"lng":0.091458,"addr":"","type":"mosque"},{"id":"xx515782_00880","name":"Islamic place","lat":51.578177,"lng":0.087986,"addr":"","type":"mosque"},{"id":"xx507727_02869","name":"Eastbourne Mosque","lat":50.772668,"lng":0.286893,"addr":"","type":"yes"},{"id":"xx522011_01102","name":"Muslim Prayer Room","lat":52.201076,"lng":0.110245,"addr":"Cambridge","type":"place_of_worship"},{"id":"xx514904_00827","name":"Greenwich Islamic Centre","lat":51.490389,"lng":0.082699,"addr":"Plumstead Road","type":"mosque"},{"id":"xx515281_00238","name":"Plaistow Jamia Islamia","lat":51.52812,"lng":0.023777,"addr":"Balaam Street","type":"yes"},{"id":"xx514107_05250","name":"St Philip & St James","lat":51.410656,"lng":0.524968,"addr":"","type":"church"},{"id":"xx517381_04766","name":"Ali Reza Islamic Centre","lat":51.738149,"lng":0.476632,"addr":"Regina Road","type":"yes"},{"id":"xx515523_00528","name":"Shah Jalal Mosque","lat":51.552273,"lng":0.052812,"addr":"Romford Road","type":"yes"},{"id":"xx515339_00391","name":"Baitul Ahad Mosque","lat":51.533914,"lng":0.039065,"addr":"Tudor Road","type":"yes"},{"id":"xx515203_00178","name":"Masjid Al Habib","lat":51.520324,"lng":0.017846,"addr":"Barking Road","type":"yes"},{"id":"xx515251_00284","name":"Masjid-al-Falah","lat":51.525127,"lng":0.028387,"addr":"Barking Road","type":"mosque"},{"id":"xx515237_00217","name":"London Iqra Academy","lat":51.523659,"lng":0.021687,"addr":"Whitwell Road","type":"pub"},{"id":"xx515303_00361","name":"Masjid Ibrahim","lat":51.530254,"lng":0.036126,"addr":"Barking Road","type":"mosque"},{"id":"xx515239_00505","name":"Prayer Hall","lat":51.523864,"lng":0.050485,"addr":"","type":"synagogue"},{"id":"xx515653_00561","name":"Masjid-e-Owais-e-Qarni","lat":51.565291,"lng":0.056104,"addr":"Belgrave Road","type":"yes"},{"id":"xx515343_01135","name":"Darul Ummah Goresbrook","lat":51.534263,"lng":0.113489,"addr":"Maplestead Road","type":"house"},{"id":"xx516042_02544","name":"Gardens of Peace Muslim Cemetery (Maylands)","lat":51.604181,"lng":0.254404,"addr":"Colchester Road","type":"mosque"},{"id":"xx520823_04316","name":"Haverhill Mosque","lat":52.082291,"lng":0.431594,"addr":"","type":"yes"},{"id":"xx515417_00509","name":"Jamia Masjid Newham","lat":51.541656,"lng":0.050881,"addr":"High Street North","type":"mosque"},{"id":"xx515477_00525","name":"Islamic place","lat":51.547684,"lng":0.052528,"addr":"Church Road","type":"mosque"},{"id":"xx515630_00666","name":"Tanzeel Islamic School","lat":51.562967,"lng":0.066602,"addr":"Mansfield Road","type":"mosque"},{"id":"xx515663_01073","name":"Madrasatun Noor","lat":51.566313,"lng":0.107291,"addr":"","type":"yes"},{"id":"xx516575_00032","name":"Sewardstone Park Cemetery (Garden of Firdaus)","lat":51.657502,"lng":0.003156,"addr":"","type":"mosque"},{"id":"xx518893_09087","name":"St. James the Less and St. Helen","lat":51.889267,"lng":0.908663,"addr":"Priory Street","type":"yes"},{"id":"xx515733_01795","name":"Islamic place","lat":51.573286,"lng":0.179471,"addr":"","type":"yes"},{"id":"xx514783_03291","name":"Grays Park Masjid","lat":51.478292,"lng":0.329123,"addr":"Park Road","type":"mosque"},{"id":"xx515419_00011","name":"Maysoon London","lat":51.541916,"lng":0.001087,"addr":"The Mall","type":"mosque"},{"id":"xx513675_00380","name":"Al-Emaan Centre","lat":51.367499,"lng":0.038017,"addr":"Croydon Road","type":"church"},{"id":"xx523969_02672","name":"Islamic place","lat":52.396858,"lng":0.267249,"addr":"","type":"mosque"},{"id":"xx515632_00652","name":"Apex Primary School","lat":51.563154,"lng":0.065222,"addr":"","type":"school"},{"id":"xx508522_05575","name":"Hastings Mosque","lat":50.852198,"lng":0.55749,"addr":"Mercatoria","type":"yes"},{"id":"xx516583_00027","name":"Islamic place","lat":51.658328,"lng":0.002738,"addr":"","type":"musalla"},{"id":"xx516126_02993","name":"Brentwood Mosque","lat":51.612571,"lng":0.299291,"addr":"Warley Hill","type":"place_of_worship"},{"id":"xx515473_00421","name":"Muslim Patel Burial Trust","lat":51.54728,"lng":0.04207,"addr":"","type":"mosque"},{"id":"xx515480_00452","name":"Tottenham Park Islamic Cemetery Association","lat":51.547972,"lng":0.045231,"addr":"","type":"mosque"},{"id":"xx522406_07109","name":"Islamic place","lat":52.240573,"lng":0.710942,"addr":"Out Westgate","type":"yes"},{"id":"xx515211_00226","name":"Darul Arqam Muslim Community Centre","lat":51.52114,"lng":0.022559,"addr":"Jutland Road","type":"yes"},{"id":"xx512823_01937","name":"Sevenoaks Muslim Centre","lat":51.282278,"lng":0.193669,"addr":"St John’s Road","type":"yes"},{"id":"xx516043_02543","name":"Gardens of Peace Muslim Cemetery (Maylands)","lat":51.604267,"lng":0.254338,"addr":"Colchester Road","type":"mosque"},{"id":"xx516574_00031","name":"Sewardstone Park Cemetery (Garden of Firdaus)","lat":51.657418,"lng":0.003134,"addr":"","type":"mosque"},{"id":"xx515733_01794","name":"Islamic place","lat":51.57328,"lng":0.179444,"addr":"","type":"yes"},{"id":"xx516126_02992","name":"Brentwood Mosque","lat":51.612578,"lng":0.299246,"addr":"Warley Hill","type":"place_of_worship"},{"id":"xx515472_00420","name":"Muslim Patel Burial Trust","lat":51.547247,"lng":0.042002,"addr":"","type":"mosque"},{"id":"xx515480_00451","name":"Tottenham Park Islamic Cemetery Association","lat":51.547993,"lng":0.045142,"addr":"","type":"mosque"},{"id":"xx512823_01936","name":"Sevenoaks Muslim Centre","lat":51.282296,"lng":0.193623,"addr":"St John’s Road","type":"yes"},{"id":"xx524716_14598","name":"Siddiqa Nawaz Mosque & Community Centre","lat":52.471632,"lng":1.459752,"addr":"Sun Road","type":"mosque"},{"id":"xx518877_09050","name":"Colchester Jamia Masjid","lat":51.88771,"lng":0.904988,"addr":"Priory Street","type":"yes"},{"id":"xx527497_04015","name":"West Norfolk Islamic Centre","lat":52.749699,"lng":0.401546,"addr":"","type":"yes"},{"id":"xx524716_14597","name":"Siddiqa Nawaz Mosque & Community Centre","lat":52.471639,"lng":1.459744,"addr":"Sun Road","type":"mosque"},{"id":"xx520573_11631","name":"Shahjalal Islamic Centre and Masjid","lat":52.057344,"lng":1.163087,"addr":"Argyle Street","type":"yes"},{"id":"xx514411_03811","name":"Gravesend Central Mosque","lat":51.441088,"lng":0.381084,"addr":"Albion Terrace","type":"yes"},{"id":"xx510130_22932","name":"Mosquée Salam","lat":51.012983,"lng":2.293197,"addr":"","type":"place_of_worship"},{"id":"xx506985_32126","name":"Mosquée Omar Ibn al-Kattab","lat":50.698461,"lng":3.21256,"addr":"Rue de Stalingrad","type":"place_of_worship"},{"id":"xx506662_30845","name":"Mosquée de Marcq-en-Barœul","lat":50.666249,"lng":3.084496,"addr":"Rue Georges Bizet","type":"place_of_worship"},{"id":"xx502464_39067","name":"Mosquée Sunna","lat":50.246439,"lng":3.906662,"addr":"Rue Jules Campagne","type":"place_of_worship"},{"id":"xx507011_31786","name":"Mosquée Eyüp Sultan","lat":50.701115,"lng":3.178615,"addr":"Rue Daubenton","type":"place_of_worship"},{"id":"xx504954_28472","name":"Mosquée de Wingles","lat":50.495395,"lng":2.847219,"addr":"Zal du Pronet","type":"place_of_worship"},{"id":"xx507850_31189","name":"École élémentaire privée hors contrat Al Fitra","lat":50.784959,"lng":3.11893,"addr":"Rue de la Lys","type":"school"},{"id":"xx506133_30610","name":"Dar Al Imane","lat":50.613274,"lng":3.060995,"addr":"","type":"mosque"},{"id":"xx507107_25484","name":"Mosquée Rahma","lat":50.710745,"lng":2.548356,"addr":"Rue de Merville","type":"place_of_worship"},{"id":"xx505889_30518","name":"Mosquée Al Amal","lat":50.588948,"lng":3.051764,"addr":"Rue Clemenceau","type":"place_of_worship"},{"id":"xx507221_31611","name":"Librairie Bacha","lat":50.72214,"lng":3.161083,"addr":"","type":"mosque"},{"id":"xx507368_31475","name":"Ibn-abd-al-barr","lat":50.73682,"lng":3.147464,"addr":"Rue de l'Europe","type":"place_of_worship"},{"id":"xx506923_31728","name":"Librairie Al Boukhari","lat":50.692328,"lng":3.17284,"addr":"Rue du Vieil Abreuvoir","type":"mosque"},{"id":"xx506880_31836","name":"Librairie Bacha","lat":50.687968,"lng":3.183633,"addr":"Rue de Lannoy","type":"mosque"},{"id":"xx503264_33882","name":"Sounna","lat":50.32642,"lng":3.388211,"addr":"","type":"mosque"},{"id":"xx503815_31011","name":"Association Culturelle Musulmane Marocaine","lat":50.381543,"lng":3.101081,"addr":"Rue Lucien Moreau","type":"place_of_worship"},{"id":"xx501361_48335","name":"Mosquée de Givet","lat":50.136064,"lng":4.833477,"addr":"","type":"place_of_worship"},{"id":"xx502949_39176","name":"Mosquée Lumière de l'aube","lat":50.294903,"lng":3.917554,"addr":"","type":"place_of_worship"},{"id":"xx506399_30565","name":"Mosquée El Moustafa","lat":50.639885,"lng":3.056493,"addr":"","type":"mosque"},{"id":"xx506256_31347","name":"Mosquée","lat":50.625614,"lng":3.134661,"addr":"","type":"mosque"},{"id":"xx506337_31020","name":"Akoudad","lat":50.633741,"lng":3.102024,"addr":"","type":"mosque"},{"id":"xx506290_30256","name":"Mosquée Omar ibn Al Khattab","lat":50.629012,"lng":3.025619,"addr":"","type":"yes"},{"id":"xx502703_39524","name":"Librairie Al Abrar","lat":50.270258,"lng":3.952436,"addr":"Rue d'Hautmont","type":"yes"},{"id":"xx502961_41072","name":"Mosquée Al-Wahda","lat":50.296092,"lng":4.107241,"addr":"Rue Faidherbe","type":"mosque"},{"id":"xx506669_31951","name":"Mosquée al-Fateh","lat":50.666898,"lng":3.195058,"addr":"Avenue Laennec","type":"mosque"},{"id":"xx506669_31950","name":"Mosquée al-Fateh","lat":50.666907,"lng":3.195004,"addr":"Avenue Laennec","type":"mosque"},{"id":"xx501962_38396","name":"Mosquée As-Salam","lat":50.196162,"lng":3.839619,"addr":"Rue Turgot","type":"mosque"},{"id":"xx506348_31076","name":"Mosquée Al Wifaq","lat":50.634819,"lng":3.107587,"addr":"","type":"mosque"},{"id":"xx510285_23699","name":"Mosquée Fath","lat":51.02848,"lng":2.369892,"addr":"","type":"mosque"},{"id":"xx510315_23808","name":"Mosquée Omar Farouq","lat":51.03153,"lng":2.380833,"addr":"","type":"mosque"},{"id":"xx510211_23205","name":"Mosquée Sounnah","lat":51.02107,"lng":2.320541,"addr":"Rue du Kruysbellaert","type":"mosque"},{"id":"xx510191_23253","name":"Mosquée Eyup Sultan","lat":51.019073,"lng":2.325348,"addr":"Avenue de Petite-Synthe","type":"mosque"},{"id":"xx510294_23808","name":"Mosquée Abou Dhar Al Ghifari","lat":51.029358,"lng":2.380795,"addr":"Rue de l'Industrie","type":"mosque"},{"id":"xx506257_31364","name":"Centre Islamique de Villeneuve d'Ascq","lat":50.625656,"lng":3.136434,"addr":"Rue Baudouin IX","type":"mosque"},{"id":"xx506259_31369","name":"Islamic place","lat":50.625855,"lng":3.136907,"addr":"","type":"mosque"},{"id":"xx506206_30744","name":"Mosquée Es-Salam","lat":50.620582,"lng":3.074429,"addr":"","type":"mosque"},{"id":"xx507272_31607","name":"Mosquée Salman Al Farissi","lat":50.727196,"lng":3.160685,"addr":"Rue du Bus","type":"mosque"},{"id":"xx506348_31075","name":"Mosquée Al Wifaq","lat":50.634808,"lng":3.107533,"addr":"","type":"mosque"},{"id":"xx510285_23698","name":"Mosquée Fath","lat":51.028514,"lng":2.369847,"addr":"","type":"mosque"},{"id":"xx510316_23808","name":"Mosquée Omar Farouq","lat":51.031565,"lng":2.380776,"addr":"","type":"mosque"},{"id":"xx506256_31364","name":"Centre Islamique de Villeneuve d'Ascq","lat":50.625591,"lng":3.136383,"addr":"Rue Baudouin IX","type":"mosque"},{"id":"xx507386_31808","name":"Islamic place","lat":50.73855,"lng":3.180841,"addr":"","type":"yes"},{"id":"xx507362_31838","name":"Mosquée Othman Ibn 'Afane","lat":50.736237,"lng":3.183784,"addr":"Rue Colbert","type":"mosque"},{"id":"xx507231_31417","name":"Mosquée Ibn Taymiyya","lat":50.723065,"lng":3.141652,"addr":"Rue du Clinquet","type":"mosque"},{"id":"xx506900_31900","name":"Mosquée Abou Bakr Essedik","lat":50.689979,"lng":3.189963,"addr":"Rue Franklin","type":"mosque"},{"id":"xx506866_31588","name":"Mosquée Bilal","lat":50.686612,"lng":3.158841,"addr":"Rue de l'Épeule","type":"mosque"},{"id":"xx506828_31865","name":"Association cultuelle musulmane de la Potennerie","lat":50.682844,"lng":3.18653,"addr":"","type":"yes"},{"id":"xx506891_32029","name":"Mosquée Arrahma","lat":50.68907,"lng":3.202902,"addr":"Rue d'Anzin","type":"mosque"},{"id":"xx507385_31808","name":"Islamic place","lat":50.738543,"lng":3.180824,"addr":"","type":"yes"},{"id":"xx507231_31416","name":"Mosquée Ibn Taymiyya","lat":50.723062,"lng":3.141621,"addr":"Rue du Clinquet","type":"mosque"},{"id":"xx506900_31899","name":"Mosquée Abou Bakr Essedik","lat":50.68997,"lng":3.189944,"addr":"Rue Franklin","type":"mosque"},{"id":"xx506094_30181","name":"Mosquée de Loos","lat":50.609441,"lng":3.018116,"addr":"Rue Wastin","type":"mosque"},{"id":"xx506241_30500","name":"Librairie Adam","lat":50.624117,"lng":3.050015,"addr":"","type":"retail"},{"id":"xx506230_30575","name":"Islamic place","lat":50.623045,"lng":3.057483,"addr":"","type":"yes"},{"id":"xx506199_30511","name":"Librairie El Azhar","lat":50.619945,"lng":3.05114,"addr":"","type":"yes"},{"id":"xx506200_30489","name":"Mosquée Assounna","lat":50.620001,"lng":3.048946,"addr":"","type":"mosque"},{"id":"xx506205_30516","name":"El Ouadjib","lat":50.620488,"lng":3.051571,"addr":"","type":"yes"},{"id":"xx506419_30915","name":"Mosquée de Lille el Forkane","lat":50.641882,"lng":3.091503,"addr":"Rue du Faubourg de Roubaix","type":"mosque"},{"id":"xx507620_30088","name":"Mosquée Er-Rahma","lat":50.762025,"lng":3.008765,"addr":"Rue Gambetta","type":"mosque"},{"id":"xx506311_30992","name":"Association Culturelle Des Travailleurs Turcs","lat":50.63107,"lng":3.099244,"addr":"","type":"mosque"},{"id":"xx506317_30932","name":"Mosquée Fraternité","lat":50.63167,"lng":3.093158,"addr":"Rue Malsence","type":"yes"},{"id":"xx506231_30575","name":"Islamic place","lat":50.623057,"lng":3.057461,"addr":"","type":"yes"},{"id":"xx506317_30931","name":"Mosquée Fraternité","lat":50.631669,"lng":3.093145,"addr":"Rue Malsence","type":"yes"},{"id":"xx507398_16263","name":"Mosquée","lat":50.73984,"lng":1.626284,"addr":"Route de Calais","type":"mosque"},{"id":"xx501379_48241","name":"Islamic place","lat":50.137911,"lng":4.824124,"addr":"Rue du Point du Jour","type":"yes"},{"id":"xx503699_30690","name":"Mosquée de Douai","lat":50.36994,"lng":3.069032,"addr":"Rue d'Albergotti","type":"mosque"},{"id":"xx503815_31013","name":"Mosquée Bilal","lat":50.381496,"lng":3.101299,"addr":"Waziers","type":"mosque"},{"id":"xx504001_30876","name":"Mosquée At-Tawba","lat":50.400062,"lng":3.087641,"addr":"Rue Marceau Martin","type":"mosque"},{"id":"xx504162_28840","name":"Mosquée Errahma","lat":50.41618,"lng":2.883952,"addr":"Rue du Chemin de Fer","type":"mosque"},{"id":"xx504214_27669","name":"Mosquée Omar","lat":50.421413,"lng":2.766887,"addr":"Rue Henri Martin","type":"mosque"},{"id":"xx504348_27819","name":"Mosquée","lat":50.434788,"lng":2.781903,"addr":"Rue Jules Guesde","type":"mosque"},{"id":"xx504056_31001","name":"Mosquée En-Nour","lat":50.40564,"lng":3.100096,"addr":"Rue de Ceton","type":"mosque"},{"id":"xx504165_30653","name":"Mosquée d'Auby","lat":50.416482,"lng":3.065344,"addr":"Auby","type":"yes"},{"id":"xx509472_18851","name":"Mosquée Ettouba","lat":50.947206,"lng":1.885072,"addr":"Rue Murillo","type":"mosque"},{"id":"xx509464_19097","name":"Mosquée Badr","lat":50.946427,"lng":1.90972,"addr":"Avenue Antoine de Saint-Exupéry","type":"mosque"},{"id":"xx504222_28385","name":"Mosquée Al Fath","lat":50.422159,"lng":2.838502,"addr":"Rue Victor Hugo","type":"mosque"},{"id":"xx503977_28368","name":"Mosquée Badr","lat":50.39767,"lng":2.836827,"addr":"Rue Paul Éluard","type":"mosque"},{"id":"xx504342_28174","name":"Mosquée Abou Bakr","lat":50.43423,"lng":2.817388,"addr":"Lens","type":"mosque"},{"id":"xx503700_30690","name":"Mosquée de Douai","lat":50.369978,"lng":3.069023,"addr":"Rue d'Albergotti","type":"mosque"},{"id":"xx504222_28384","name":"Mosquée Al Fath","lat":50.422202,"lng":2.838414,"addr":"Rue Victor Hugo","type":"mosque"},{"id":"xx504343_28173","name":"Mosquée Abou Bakr","lat":50.434258,"lng":2.817332,"addr":"Lens","type":"mosque"},{"id":"xx504267_30078","name":"Mosquée Essalam","lat":50.426658,"lng":3.007807,"addr":"Rue de Malfidano","type":"mosque"},{"id":"xx506475_30025","name":"Mosquée Ennour","lat":50.647486,"lng":3.002478,"addr":"","type":"mosque"},{"id":"xx504309_35782","name":"Mosquée Abou Bakr","lat":50.430886,"lng":3.578151,"addr":"Square du 19 Mars 1962","type":"mosque"},{"id":"xx506135_30613","name":"Mosquée Al Imane","lat":50.613506,"lng":3.061337,"addr":"","type":"mosque"},{"id":"xx503379_31886","name":"Mosquée Masny","lat":50.337928,"lng":3.188641,"addr":"Avenue du 8 Mai 1945","type":"mosque"},{"id":"xx506911_28720","name":"Mosquée El-Ansar","lat":50.691134,"lng":2.872004,"addr":"Rue des Résistants","type":"mosque"},{"id":"xx504309_35781","name":"Mosquée Abou Bakr","lat":50.430908,"lng":3.578127,"addr":"Square du 19 Mars 1962","type":"mosque"},{"id":"xx504274_29402","name":"Mosquée Ennasr","lat":50.427408,"lng":2.940164,"addr":"Rue d'Harnes","type":"mosque"},{"id":"xx506911_28719","name":"Mosquée El-Ansar","lat":50.691127,"lng":2.871938,"addr":"Rue des Résistants","type":"mosque"},{"id":"xx510332_23473","name":"Mosquée Nour","lat":51.033223,"lng":2.347326,"addr":"Rue Raspail","type":"mosque"},{"id":"xx505485_30249","name":"Salle Mossa","lat":50.548501,"lng":3.024905,"addr":"Seclin","type":"mosque"},{"id":"xx505196_26389","name":"Mosquée","lat":50.519607,"lng":2.638937,"addr":"","type":"yes"},{"id":"xx504276_29092","name":"Mosquée Errahma","lat":50.427637,"lng":2.909227,"addr":"Fouquières-lès-Lens","type":"mosque"},{"id":"xx502978_27405","name":"Mosquée Annour","lat":50.297783,"lng":2.74047,"addr":"Rue Matisse","type":"mosque"},{"id":"xx502966_27490","name":"Salle de prière","lat":50.296552,"lng":2.749005,"addr":"","type":"yes"},{"id":"xx502976_27391","name":"Mosquée El-Feth","lat":50.297597,"lng":2.739064,"addr":"Rue Ampère","type":"mosque"},{"id":"xx502664_39368","name":"Mosquée El-Imane","lat":50.266391,"lng":3.936806,"addr":"Rue d'Hautmont","type":"yes"},{"id":"xx507509_22625","name":"Mosquée","lat":50.750892,"lng":2.262478,"addr":"","type":"mosque"},{"id":"xx507543_22589","name":"Mosquée","lat":50.754291,"lng":2.258894,"addr":"Rue Edouard Devaux","type":"yes"},{"id":"xx503275_33872","name":"Mosquée AlQuds","lat":50.327494,"lng":3.387198,"addr":"Rue Jules Mousseron","type":"mosque"},{"id":"xx503353_33508","name":"Mosquée Al Mohssinine","lat":50.335278,"lng":3.350762,"addr":"Rue Camille Desmoulins","type":"mosque"},{"id":"xx503824_34191","name":"Mosquée de Wallers","lat":50.382357,"lng":3.419098,"addr":"Chemin du Bois Montois","type":"yes"},{"id":"xx503774_35013","name":"Salle de prière","lat":50.377436,"lng":3.501318,"addr":"Rue de Roubaix","type":"yes"},{"id":"xx504483_34319","name":"Mosquée de Saint-Amand-les-Eaux","lat":50.44832,"lng":3.431916,"addr":"Rue du 18 Juin","type":"yes"},{"id":"xx503555_34068","name":"Mosquée d'Haveluy","lat":50.355482,"lng":3.406801,"addr":"Rue Ferdinand Decarpentry","type":"mosque"},{"id":"xx507849_31186","name":"Mosquée Tawhid","lat":50.784935,"lng":3.118595,"addr":"Rue de la Lys","type":"mosque"},{"id":"xx504046_35137","name":"Mosquée Assalam","lat":50.40458,"lng":3.513677,"addr":"Rue Thiers","type":"mosque"},{"id":"xx507849_31185","name":"Mosquée Tawhid","lat":50.784942,"lng":3.118505,"addr":"Rue de la Lys","type":"mosque"},{"id":"xx501787_32323","name":"Mosquée An Nour","lat":50.178663,"lng":3.232277,"addr":"","type":"mosque"},{"id":"xx504707_36123","name":"Mosquée Rahma","lat":50.470674,"lng":3.612327,"addr":"Route de Bernissart","type":"mosque"},{"id":"xx504696_36097","name":"Mosquée Souna","lat":50.469554,"lng":3.60967,"addr":"Rue du Gras Bœuf","type":"mosque"},{"id":"xx504104_35577","name":"Mosquée d'Escautpont","lat":50.410387,"lng":3.557685,"addr":"Rue Jean Jaurès","type":"mosque"},{"id":"xx501759_32475","name":"Mosquée de Ar Rahma","lat":50.175897,"lng":3.247504,"addr":"","type":"yes"},{"id":"xx501787_32322","name":"Mosquée An Nour","lat":50.17866,"lng":3.232243,"addr":"","type":"mosque"},{"id":"xx504104_35576","name":"Mosquée d'Escautpont","lat":50.410404,"lng":3.557625,"addr":"Rue Jean Jaurès","type":"mosque"},{"id":"xx501759_32474","name":"Mosquée de Ar Rahma","lat":50.175888,"lng":3.247431,"addr":"","type":"yes"},{"id":"xx503896_35072","name":"Mosquée Nour","lat":50.389568,"lng":3.507199,"addr":"Rue de la Gare","type":"yes"},{"id":"xx503931_36695","name":"Mosquée de Quièvrechain An'Nour","lat":50.39305,"lng":3.669495,"addr":"Rue Valeriani","type":"mosque"},{"id":"xx503932_36715","name":"Mosquée El Fath","lat":50.393164,"lng":3.671472,"addr":"Rue des Groseillers","type":"mosque"},{"id":"xx503895_35072","name":"Mosquée Nour","lat":50.389543,"lng":3.507191,"addr":"Rue de la Gare","type":"yes"},{"id":"xx504633_30089","name":"Mosquée de Oignies","lat":50.463262,"lng":3.008894,"addr":"Rue de Madagascar","type":"mosque"},{"id":"xx504242_28501","name":"Mosquée Bilal","lat":50.424231,"lng":2.85009,"addr":"Rue d'Yvetot","type":"mosque"},{"id":"xx504761_29031","name":"Mosquée Er-Rahma","lat":50.476111,"lng":2.903085,"addr":"Rue Blanche Dupont","type":"mosque"},{"id":"xx504002_27144","name":"Le carré musulman","lat":50.400247,"lng":2.714376,"addr":"","type":"mosque"},{"id":"xx504632_30089","name":"Mosquée de Oignies","lat":50.463238,"lng":3.008872,"addr":"Rue de Madagascar","type":"mosque"},{"id":"xx507002_31726","name":"Mosquée Es-Sunna","lat":50.700195,"lng":3.172632,"addr":"Rue Saint-Maurice","type":"mosque"},{"id":"xx503285_33889","name":"Mosquée Arrahma","lat":50.328462,"lng":3.388936,"addr":"Rue Lazare Bernard","type":"mosque"},{"id":"xx503513_35141","name":"Mosquée de Valenciennes","lat":50.351272,"lng":3.514057,"addr":"Rue François Colliez","type":"mosque"},{"id":"xx507272_31726","name":"Mosquée Es-Salam","lat":50.727227,"lng":3.172647,"addr":"Rue de la Croix Rouge","type":"mosque"},{"id":"xx504594_30357","name":"Mosquée Khalid Ibn Walid","lat":50.459395,"lng":3.035743,"addr":"Rue Florent Evrard","type":"mosque"},{"id":"xx504592_30355","name":"Islamic place","lat":50.459215,"lng":3.035462,"addr":"","type":"mosque"},{"id":"xx502697_39545","name":"Mosquée El Feth","lat":50.269668,"lng":3.95451,"addr":"Louvroil","type":"yes"},{"id":"xx504592_30353","name":"Islamic place","lat":50.45918,"lng":3.035339,"addr":"","type":"mosque"},{"id":"xx503902_35095","name":"Mosquée Assalam","lat":50.390233,"lng":3.509505,"addr":"Rue Robert Fuge","type":"mosque"},{"id":"xx503750_31746","name":"Mosquée Nour","lat":50.374956,"lng":3.1746,"addr":"Rue Maurice Ravel","type":"mosque"},{"id":"xx504469_28870","name":"Mosquée En-Nour","lat":50.446884,"lng":2.886986,"addr":"Rue de Stalingrad","type":"mosque"},{"id":"xx506017_30513","name":"Mosquée El-Houda","lat":50.601696,"lng":3.051264,"addr":"","type":"yes"},{"id":"xx506982_31711","name":"Mosquée Da'wa","lat":50.698201,"lng":3.17112,"addr":"Rue Archimède","type":"yes"},{"id":"xx510174_23070","name":"Mosquée Errahma","lat":51.01744,"lng":2.306966,"addr":"","type":"yes"},{"id":"xx504223_28382","name":"Islamic place","lat":50.422271,"lng":2.838239,"addr":"","type":"mosque"},{"id":"xx507069_31903","name":"Mosquée Eyüp Sultan Roubaix","lat":50.70689,"lng":3.190319,"addr":"","type":"yes"},{"id":"xx502840_39499","name":"Mosquée El-Mominine","lat":50.284024,"lng":3.949873,"addr":"Rue des Acacias","type":"mosque"},{"id":"xx503558_31101","name":"Mosquée de l'Union","lat":50.355815,"lng":3.110052,"addr":"Sin-le-Noble","type":"yes"},{"id":"xx504312_27551","name":"Grande Mosquée de Liévin","lat":50.431209,"lng":2.755081,"addr":"","type":"mosque"},{"id":"xx506139_30541","name":"Lycée privé Averroès","lat":50.613888,"lng":3.054059,"addr":"","type":"school"},{"id":"xx503166_34883","name":"Mosquée El Nour","lat":50.316594,"lng":3.488288,"addr":"Maing","type":"mosque"},{"id":"xx510174_23069","name":"Mosquée Errahma","lat":51.017433,"lng":2.306941,"addr":"","type":"yes"},{"id":"xx506193_30641","name":"Mosquée Badr","lat":50.619269,"lng":3.064143,"addr":"","type":"mosque"},{"id":"xx502840_39498","name":"Mosquée El-Mominine","lat":50.284025,"lng":3.949809,"addr":"Rue des Acacias","type":"mosque"},{"id":"xx503558_31100","name":"Mosquée de l'Union","lat":50.355798,"lng":3.11004,"addr":"Sin-le-Noble","type":"yes"},{"id":"xx506138_30540","name":"Lycée privé Averroès","lat":50.613829,"lng":3.054012,"addr":"","type":"school"},{"id":"xx503166_34882","name":"Mosquée El Nour","lat":50.316573,"lng":3.488225,"addr":"Maing","type":"mosque"},{"id":"xx504689_36049","name":"Islamic place","lat":50.468949,"lng":3.604925,"addr":"","type":"mosque"},{"id":"xx503702_35392","name":"Division des Musulmans","lat":50.370198,"lng":3.539209,"addr":"","type":"mosque"},{"id":"xx503522_35041","name":"Islamic place","lat":50.352237,"lng":3.504118,"addr":"","type":"mosque"},{"id":"xx501631_32505","name":"Islamic place","lat":50.163064,"lng":3.250542,"addr":"","type":"mosque"},{"id":"xx504837_26674","name":"Islamic place","lat":50.483665,"lng":2.667423,"addr":"","type":"mosque"},{"id":"xx501632_32509","name":"Mosquée An'Nour","lat":50.163187,"lng":3.250933,"addr":"","type":"construction"},{"id":"xx503562_31333","name":"Mosquée Es-Sounna","lat":50.356219,"lng":3.133284,"addr":"","type":"mosque"},{"id":"xx503702_35391","name":"Division des Musulmans","lat":50.370179,"lng":3.539144,"addr":"","type":"mosque"},{"id":"xx503522_35040","name":"Islamic place","lat":50.352211,"lng":3.504016,"addr":"","type":"mosque"},{"id":"xx501631_32509","name":"Mosquée An'Nour","lat":50.163147,"lng":3.250901,"addr":"","type":"construction"},{"id":"xx520802_48761","name":"Islamitisch Cultureel Centrum Woerden","lat":52.080241,"lng":4.876109,"addr":"Essenlaan","type":"place_of_worship"},{"id":"xx516205_48628","name":"Moskee Almohsnin","lat":51.620525,"lng":4.862822,"addr":"","type":"place_of_worship"},{"id":"xx520084_47079","name":"Moskee Nour","lat":52.008365,"lng":4.707925,"addr":"","type":"place_of_worship"},{"id":"xx519181_44454","name":"Anasr","lat":51.918121,"lng":4.445422,"addr":"","type":"place_of_worship"},{"id":"xx519193_42517","name":"Moskee Arrahman","lat":51.919262,"lng":4.2517,"addr":"","type":"place_of_worship"},{"id":"xx523834_46339","name":"Arrahman","lat":52.383361,"lng":4.633889,"addr":"Ursulastraat","type":"place_of_worship"},{"id":"xx523535_49173","name":"Eyub Sultan","lat":52.353468,"lng":4.917306,"addr":"","type":"place_of_worship"},{"id":"xx523534_49172","name":"Moskee Al Fath Al Moebien","lat":52.353365,"lng":4.917205,"addr":"","type":"place_of_worship"},{"id":"xx519137_44448","name":"Aya Sofia","lat":51.91373,"lng":4.444763,"addr":"","type":"place_of_worship"},{"id":"xx520556_46538","name":"Anadolu","lat":52.055619,"lng":4.653804,"addr":"","type":"place_of_worship"},{"id":"xx520669_42994","name":"Moskee el Islam","lat":52.066935,"lng":4.29936,"addr":"","type":"place_of_worship"},{"id":"xx520742_42813","name":"Moslim Informatie Centrum","lat":52.074217,"lng":4.28131,"addr":"Beeklaan","type":"place_of_worship"},{"id":"xx519010_42506","name":"Suleymaniye","lat":51.901026,"lng":4.250589,"addr":"","type":"place_of_worship"},{"id":"xx523731_48785","name":"Fatih","lat":52.373054,"lng":4.878479,"addr":"","type":"place_of_worship"},{"id":"xx519158_43812","name":"Islamitisch Centrum Schiedam","lat":51.915795,"lng":4.381246,"addr":"Dr Schaepmansingel","type":"place_of_worship"},{"id":"xx523604_49332","name":"Nasr","lat":52.360444,"lng":4.933239,"addr":"","type":"place_of_worship"},{"id":"xx520632_43869","name":"ISN Shop","lat":52.063183,"lng":4.386902,"addr":"Oder","type":"mosque"},{"id":"xx520559_46497","name":"Al Hijra","lat":52.055857,"lng":4.649651,"addr":"Busken Huetlaan","type":"place_of_worship"},{"id":"xx520624_43367","name":"ISN Molenwijk Moskee","lat":52.062395,"lng":4.336701,"addr":"Stuwstraat","type":"place_of_worship"},{"id":"xx520670_43322","name":"Aida","lat":52.066997,"lng":4.332231,"addr":"Elboogstraat","type":"school"},{"id":"xx520766_43098","name":"Hadiethshop","lat":52.07657,"lng":4.309766,"addr":"Vlamingstraat","type":"mosque"},{"id":"xx520703_43076","name":"Minhaj-ul-Quran","lat":52.070346,"lng":4.307585,"addr":"Hobbemastraat","type":"place_of_worship"},{"id":"xx520619_42936","name":"Rukun Islam Den Haag","lat":52.061893,"lng":4.293603,"addr":"Schalk Burgerstraat","type":"place_of_worship"},{"id":"xx516112_47792","name":"Yeni Camii Breda","lat":51.611153,"lng":4.77916,"addr":"Vlaanderenstraat","type":"place_of_worship"},{"id":"xx520706_42856","name":"Al Qiblatain","lat":52.070585,"lng":4.285612,"addr":"Paul Krugerlaan","type":"place_of_worship"},{"id":"xx520706_42857","name":"Ahmadiyya Anjuman Isha 'at Islam Nederland","lat":52.070571,"lng":4.285652,"addr":"Paul Krugerlaan","type":"place_of_worship"},{"id":"xx520687_42896","name":"Jamiat Ahl Al Hadith","lat":52.068651,"lng":4.289597,"addr":"Paul Krugerlaan","type":"place_of_worship"},{"id":"xx520696_42873","name":"Ayasofya Moskee","lat":52.069604,"lng":4.287325,"addr":"Paul Krugerlaan","type":"place_of_worship"},{"id":"xx518714_45919","name":"Stichting Islamitisch Centrum Ridderkerk","lat":51.871398,"lng":4.591938,"addr":"Jhr. Van Karnebeekweg","type":"social_centre"},{"id":"xx520722_42792","name":"Moskee At-Tahweed","lat":52.072191,"lng":4.279193,"addr":"Newtonplein","type":"place_of_worship"},{"id":"xx520632_43071","name":"Moskee El Fath","lat":52.063223,"lng":4.307058,"addr":"","type":"place_of_worship"},{"id":"xx520636_43054","name":"On Dort Masumlar Cami","lat":52.063632,"lng":4.305362,"addr":"","type":"place_of_worship"},{"id":"xx518624_45220","name":"Islamitisch Centrum Barendrecht","lat":51.862401,"lng":4.521979,"addr":"Bijdorpplein","type":"place_of_worship"},{"id":"xx517894_46826","name":"Fazilet","lat":51.789362,"lng":4.682649,"addr":"Eddingtonweg","type":"place_of_worship"},{"id":"xx520709_43092","name":"Jamaat Al-Imaan moskee","lat":52.07091,"lng":4.309248,"addr":"","type":"place_of_worship"},{"id":"xx520688_43039","name":"Seyh Said Camii","lat":52.068768,"lng":4.303922,"addr":"","type":"place_of_worship"},{"id":"xx520723_42876","name":"Djaam-e-Masdjied Qadri","lat":52.072276,"lng":4.287596,"addr":"","type":"place_of_worship"},{"id":"xx520695_42982","name":"Islamitisch Centrum","lat":52.069545,"lng":4.298166,"addr":"","type":"place_of_worship"},{"id":"xx520726_42931","name":"Moskee Al Ichlaas","lat":52.07262,"lng":4.293118,"addr":"","type":"place_of_worship"},{"id":"xx519905_42215","name":"Yunus Emre","lat":51.990467,"lng":4.221462,"addr":"Tiendweg","type":"mosque"},{"id":"xx520657_42911","name":"Medressye Nuriye","lat":52.065746,"lng":4.291129,"addr":"","type":"place_of_worship"},{"id":"xx520633_42888","name":"Moskee Ehl-i-beyt","lat":52.063337,"lng":4.288832,"addr":"","type":"place_of_worship"},{"id":"xx520716_42841","name":"Dar Ul Islam","lat":52.071569,"lng":4.284135,"addr":"","type":"place_of_worship"},{"id":"xx520726_42730","name":"Jamia Madinatul-Islam","lat":52.072602,"lng":4.272973,"addr":"","type":"place_of_worship"},{"id":"xx520733_42778","name":"Moskee Anware Mustafa","lat":52.073273,"lng":4.277794,"addr":"Herschelstraat","type":"place_of_worship"},{"id":"xx520718_42836","name":"Moskee Quba","lat":52.071849,"lng":4.283565,"addr":"","type":"place_of_worship"},{"id":"xx518195_46927","name":"Ayasofya Moskee","lat":51.819476,"lng":4.692704,"addr":"Merwedestraat","type":"place_of_worship"},{"id":"xx518104_46807","name":"Stichting Seda","lat":51.810374,"lng":4.680702,"addr":"Oranjelaan","type":"place_of_worship"},{"id":"xx520318_47034","name":"Chador","lat":52.031835,"lng":4.703398,"addr":"Gildenburg","type":"mosque"},{"id":"xx519639_45705","name":"Moskee & Multicultureel centrum Zevenkamp","lat":51.963927,"lng":4.570527,"addr":"Imkerstraat","type":"place_of_worship"},{"id":"xx519304_43715","name":"Basisschool El Furkan","lat":51.930372,"lng":4.371489,"addr":"Eduard van Beinumlaan","type":"school"},{"id":"xx520081_47139","name":"Elfath Moskee","lat":52.008109,"lng":4.71389,"addr":"Spieringstraat","type":"place_of_worship"},{"id":"xx523577_47946","name":"Masjid Al Mohiuddin","lat":52.357694,"lng":4.794628,"addr":"Borrendammehof","type":"place_of_worship"},{"id":"xx523839_48467","name":"Moskee Badr","lat":52.383904,"lng":4.846718,"addr":"Willem Leevendstraat","type":"place_of_worship"},{"id":"xx519316_44831","name":"Chador","lat":51.931587,"lng":4.483071,"addr":"Noordmolenstraat","type":"mosque"},{"id":"xx519336_44769","name":"Berkane","lat":51.933627,"lng":4.476917,"addr":"Zwart Janstraat","type":"mosque"},{"id":"xx519325_44801","name":"Hadiethshop","lat":51.932476,"lng":4.480108,"addr":"Zwart Janstraat","type":"mosque"},{"id":"xx519315_44833","name":"Mastour","lat":51.931503,"lng":4.483297,"addr":"Noordmolenstraat","type":"mosque"},{"id":"xx519330_44795","name":"Ousraty","lat":51.932959,"lng":4.479487,"addr":"Zwart Janstraat","type":"mosque"},{"id":"xx519321_44815","name":"Sunnah Center","lat":51.932149,"lng":4.481547,"addr":"Noordmolenstraat","type":"mosque"},{"id":"xx519336_44771","name":"Tesnim","lat":51.933592,"lng":4.477053,"addr":"Zwart Janstraat","type":"mosque"},{"id":"xx523663_49390","name":"Ulu Camii Moskee","lat":52.366316,"lng":4.938955,"addr":"Zeeburgerdijk","type":"place_of_worship"},{"id":"xx522157_48603","name":"Omar Ibn Al Khattab","lat":52.215708,"lng":4.860303,"addr":"Diamant","type":"place_of_worship"},{"id":"xx525148_49660","name":"Taâluf","lat":52.514781,"lng":4.966036,"addr":"Sportlaan","type":"place_of_worship"},{"id":"xx525126_49646","name":"Multi Cultureel Centrum Waterland","lat":52.512556,"lng":4.964613,"addr":"Jonkheer van Cittersplein","type":"place_of_worship"},{"id":"xx526265_47191","name":"Al-Islaam","lat":52.62649,"lng":4.719085,"addr":"Mesdaglaan","type":"place_of_worship"},{"id":"xx524697_48015","name":"Moskee Sounnat Zaanstad","lat":52.469741,"lng":4.801472,"addr":"Wezelstraat","type":"place_of_worship"},{"id":"xx516314_49239","name":"Isra Moskee","lat":51.631416,"lng":4.923863,"addr":"Anjerstraat","type":"place_of_worship"},{"id":"xx521460_46733","name":"Vereniging Itihad","lat":52.146005,"lng":4.673326,"addr":"Troubadourweg","type":"mosque"},{"id":"xx524610_48248","name":"Islamic place","lat":52.460993,"lng":4.824806,"addr":"Paardebloemweg","type":"place_of_worship"},{"id":"xx524461_48342","name":"Cemhuis Zaandam","lat":52.446126,"lng":4.834159,"addr":"Ds. Martin Luther Kingweg","type":"place_of_worship"},{"id":"xx524855_46652","name":"Aksemseddin Moskee","lat":52.485482,"lng":4.665157,"addr":"Zweedselaan","type":"place_of_worship"},{"id":"xx517990_46722","name":"Aksa Moskee","lat":51.798974,"lng":4.672183,"addr":"Willem de Zwijgerlaan","type":"place_of_worship"},{"id":"xx520858_47599","name":"El Fath","lat":52.085752,"lng":4.759938,"addr":"Burgemeester Kremerweg","type":"place_of_worship"},{"id":"xx523771_48747","name":"Assoena Moskee","lat":52.377142,"lng":4.874747,"addr":"","type":"place_of_worship"},{"id":"xx523567_47969","name":"Faried-ul-Islam Moskee","lat":52.35674,"lng":4.796903,"addr":"","type":"mosque"},{"id":"xx523570_47968","name":"Masjid Euromoslim Amsterdam","lat":52.356967,"lng":4.796805,"addr":"","type":"mosque"},{"id":"xx518990_45023","name":"Kocatepe Cami","lat":51.898997,"lng":4.50227,"addr":"Afrikaanderplein","type":"place_of_worship"},{"id":"xx519186_43870","name":"Ababil","lat":51.918628,"lng":4.387022,"addr":"Dr Kuyperlaan","type":"school"},{"id":"xx519329_44796","name":"Losyana","lat":51.93292,"lng":4.479585,"addr":"Zwart Janstraat","type":"mosque"},{"id":"xx513566_43408","name":"Islamitisch Sociaal en Cultureel Centrum","lat":51.356627,"lng":4.340802,"addr":"Steenovenstraat","type":"community_centre"},{"id":"xx523794_48069","name":"Erdem Moskee","lat":52.379371,"lng":4.80692,"addr":"Dr. H. Colijnstraat","type":"place_of_worship"},{"id":"xx523893_49103","name":"S.I.C.A.N. Islam Merkezi Vakfı","lat":52.389271,"lng":4.91031,"addr":"","type":"mosque"},{"id":"xx519189_43965","name":"Muradiye","lat":51.918862,"lng":4.396545,"addr":"Raamsteeg","type":"place_of_worship"},{"id":"xx520708_42919","name":"Al-Kawthar Cultural Foundation","lat":52.070841,"lng":4.29194,"addr":"","type":"place_of_worship"},{"id":"xx524853_47664","name":"Ar-Rahma Moskee (in aanbouw)","lat":52.485275,"lng":4.76645,"addr":"Omweg","type":"place_of_worship"},{"id":"xx524977_46777","name":"Milli Görüs","lat":52.497725,"lng":4.677712,"addr":"Duitslandlaan","type":"place_of_worship"},{"id":"xx518860_45270","name":"Scoutinggroep Ibn Battuta","lat":51.885953,"lng":4.527013,"addr":"Olympiaweg","type":"mosque"},{"id":"xx523535_49103","name":"Moskee Al Kabir","lat":52.353487,"lng":4.910305,"addr":"","type":"place_of_worship"},{"id":"xx519963_42170","name":"Yunus Emre Westland","lat":51.996277,"lng":4.216961,"addr":"de Savornin Lohmanstraat","type":"school"},{"id":"xx526219_47468","name":"Haci Bayram","lat":52.621907,"lng":4.746781,"addr":"","type":"place_of_worship"},{"id":"xx523965_49557","name":"Moskee Arrayan","lat":52.396482,"lng":4.955749,"addr":"Ganzenveldstraat","type":"place_of_worship"},{"id":"xx523968_49562","name":"IBS al Yaqoet","lat":52.396764,"lng":4.956179,"addr":"Wildrijkstraat","type":"school"},{"id":"xx519320_44815","name":"Marokko Shop XL","lat":51.931976,"lng":4.481495,"addr":"Noordmolenstraat","type":"mosque"},{"id":"xx523767_48059","name":"Stichting Kümbet Moskee","lat":52.376725,"lng":4.805871,"addr":"Nicolaas Ruychaverstraat","type":"place_of_worship"},{"id":"xx523769_48191","name":"El Amal","lat":52.376855,"lng":4.81908,"addr":"Slotermeerlaan","type":"mosque"},{"id":"xx519584_45467","name":"Islamitisch Cultureel Centrum Alexander","lat":51.95836,"lng":4.546697,"addr":"Dwerggras","type":"community_centre"},{"id":"xx515931_48224","name":"SIPO","lat":51.593106,"lng":4.822384,"addr":"Heerbaan","type":"mosque"},{"id":"xx518364_49592","name":"El Enbiya","lat":51.83638,"lng":4.959161,"addr":"Schepenenstraat","type":"mosque"},{"id":"xx514535_35682","name":"Iqra","lat":51.453469,"lng":3.568229,"addr":"Pablo Picassoplein","type":"school"},{"id":"xx522957_46888","name":"Ar-Rahman","lat":52.295733,"lng":4.688774,"addr":"","type":"mosque"},{"id":"xx523599_46643","name":"Islamic place","lat":52.35989,"lng":4.664317,"addr":"","type":"yes"},{"id":"xx523587_46496","name":"Islamic place","lat":52.358671,"lng":4.649572,"addr":"","type":"yes"},{"id":"xx520674_46401","name":"Moskee Arrahman","lat":52.067378,"lng":4.640113,"addr":"","type":"mosque"},{"id":"xx519213_44417","name":"Mevlana moskee","lat":51.921261,"lng":4.441707,"addr":"","type":"mosque"},{"id":"xx518826_45220","name":"Stichting Islamitisch Centrum Rotterdam-IJsselmonde","lat":51.882632,"lng":4.522034,"addr":"Aristotelesstraat","type":"yes"},{"id":"xx523761_48285","name":"Moskee El-Hijra","lat":52.376059,"lng":4.828491,"addr":"","type":"mosque"},{"id":"xx520750_43133","name":"HDV Mescid-I Aksa Camii","lat":52.074987,"lng":4.313273,"addr":"","type":"yes"},{"id":"xx520953_43131","name":"Mobarak Moskee","lat":52.095269,"lng":4.313114,"addr":"Oostduinlaan","type":"yes"},{"id":"xx514863_43050","name":"ULU","lat":51.486271,"lng":4.305002,"addr":"","type":"mosque"},{"id":"xx514913_43042","name":"El Feth","lat":51.491346,"lng":4.304171,"addr":"Meidoornlaan","type":"school"},{"id":"xx514991_43279","name":"Zoomstede","lat":51.4991,"lng":4.327931,"addr":"","type":"mosque"},{"id":"xx523158_49798","name":"Djame Masdjied Taibah","lat":52.315809,"lng":4.979804,"addr":"","type":"mosque"},{"id":"xx520699_42796","name":"Al Madinah Moskee","lat":52.069888,"lng":4.279611,"addr":"","type":"yes"},{"id":"xx523636_48392","name":"El Ouma","lat":52.363637,"lng":4.839243,"addr":"","type":"mosque"},{"id":"xx519962_43610","name":"Al Ansaar-moskee","lat":51.996173,"lng":4.360995,"addr":"","type":"yes"},{"id":"xx523651_48001","name":"Moskee Suleymaniye","lat":52.365084,"lng":4.800134,"addr":"","type":"yes"},{"id":"xx523948_48529","name":"Moskee Taqwa","lat":52.39478,"lng":4.852948,"addr":"Generatorstraat","type":"mosque"},{"id":"xx522289_45261","name":"El Imman Moskee","lat":52.228858,"lng":4.526082,"addr":"","type":"church"},{"id":"xx523662_48608","name":"Westermoskee","lat":52.366231,"lng":4.860774,"addr":"","type":"mosque"},{"id":"xx519966_43479","name":"Sultan Ahmet Moskee","lat":51.996606,"lng":4.347903,"addr":"","type":"mosque"},{"id":"xx520568_44731","name":"El Kibla","lat":52.05684,"lng":4.473099,"addr":"","type":"yes"},{"id":"xx523736_46588","name":"Haarlem Diyanet Camii","lat":52.37361,"lng":4.658791,"addr":"","type":"yes"},{"id":"xx520558_46497","name":"Islamic place","lat":52.055832,"lng":4.649687,"addr":"","type":"mosque"},{"id":"xx520639_43296","name":"El Mouahidin","lat":52.063883,"lng":4.32961,"addr":"","type":"church"},{"id":"xx520535_43170","name":"ISN Mescid-i Kuba Moskee","lat":52.053539,"lng":4.316987,"addr":"","type":"mosque"},{"id":"xx520536_43168","name":"Moskee el Oemma","lat":52.053648,"lng":4.316836,"addr":"","type":"mosque"},{"id":"xx520518_43043","name":"Masjid Al-Hikmah","lat":52.051826,"lng":4.304254,"addr":"","type":"mosque"},{"id":"xx520950_43880","name":"Stichting Eenheid","lat":52.094984,"lng":4.387984,"addr":"","type":"school"},{"id":"xx523488_46534","name":"Islamic place","lat":52.348839,"lng":4.65344,"addr":"","type":"mosque"},{"id":"xx520723_43192","name":"Moskee El Mouhsinin","lat":52.072349,"lng":4.31921,"addr":"Stationsweg","type":"yes"},{"id":"xx520688_43051","name":"Mimar Sinan Camii Moskee","lat":52.068836,"lng":4.305091,"addr":"","type":"yes"},{"id":"xx520658_42959","name":"Moskee El Ferdous","lat":52.065803,"lng":4.29591,"addr":"","type":"yes"},{"id":"xx520603_43075","name":"As-Soennah moskee","lat":52.060344,"lng":4.307461,"addr":"Fruitweg","type":"yes"},{"id":"xx518857_46042","name":"Bait Al-Rahmaan","lat":51.885694,"lng":4.604167,"addr":"","type":"yes"},{"id":"xx520671_42881","name":"Noeroel Islam","lat":52.067113,"lng":4.288095,"addr":"Scheepersstraat","type":"mosque"},{"id":"xx520695_42873","name":"Islamic place","lat":52.069503,"lng":4.287289,"addr":"","type":"mosque"},{"id":"xx515994_47834","name":"Rahman","lat":51.599447,"lng":4.783427,"addr":"","type":"yes"},{"id":"xx520271_42713","name":"Essounnah Moskee","lat":52.027051,"lng":4.271305,"addr":"","type":"mosque"},{"id":"xx520719_42836","name":"Islamic place","lat":52.07189,"lng":4.283637,"addr":"","type":"mosque"},{"id":"xx515908_47819","name":"Breda Yeni Camii","lat":51.590772,"lng":4.781889,"addr":"","type":"yes"},{"id":"xx520707_42672","name":"Mehfil-e-Ali","lat":52.070652,"lng":4.267222,"addr":"","type":"yes"},{"id":"xx520384_42704","name":"Moskee Annour","lat":52.038415,"lng":4.270391,"addr":"","type":"mosque"},{"id":"xx519010_42505","name":"Islamic place","lat":51.901014,"lng":4.250548,"addr":"","type":"mosque"},{"id":"xx520750_43132","name":"HDV Mescid-I Aksa Camii","lat":52.074979,"lng":4.313213,"addr":"","type":"yes"},{"id":"xx520518_43042","name":"Masjid Al-Hikmah","lat":52.051821,"lng":4.304229,"addr":"","type":"mosque"},{"id":"xx520950_43879","name":"Stichting Eenheid","lat":52.094976,"lng":4.387949,"addr":"","type":"school"},{"id":"xx520603_43074","name":"As-Soennah moskee","lat":52.060338,"lng":4.307425,"addr":"Fruitweg","type":"yes"},{"id":"xx520706_42672","name":"Mehfil-e-Ali","lat":52.070644,"lng":4.267188,"addr":"","type":"yes"},{"id":"xx518215_46374","name":"Yavuz Sultan Selim","lat":51.821468,"lng":4.637449,"addr":"","type":"mosque"},{"id":"xx522881_45792","name":"Islamic place","lat":52.288094,"lng":4.579189,"addr":"","type":"yes"},{"id":"xx519963_42058","name":"Almouwahidin Naaldwijk","lat":51.996306,"lng":4.205786,"addr":"","type":"yes"},{"id":"xx512659_39118","name":"Ulu Moskee","lat":51.265864,"lng":3.911827,"addr":"","type":"yes"},{"id":"xx513332_38356","name":"Bilâl-i Habeşi Moskee","lat":51.333167,"lng":3.835615,"addr":"","type":"mosque"},{"id":"xx515892_45348","name":"Barbaros Moskee","lat":51.589197,"lng":4.534825,"addr":"","type":"mosque"},{"id":"xx519371_42313","name":"Moskee Ibrahim","lat":51.937132,"lng":4.231304,"addr":"","type":"mosque"},{"id":"xx519265_42465","name":"Yeni Cami","lat":51.92649,"lng":4.246492,"addr":"","type":"yes"},{"id":"xx524563_46048","name":"Kuba","lat":52.456344,"lng":4.604815,"addr":"Planetenweg","type":"mosque"},{"id":"xx517837_46519","name":"Al-Fath Moskee","lat":51.783709,"lng":4.651902,"addr":"","type":"mosque"},{"id":"xx524565_46016","name":"Assalaam","lat":52.456482,"lng":4.601626,"addr":"","type":"yes"},{"id":"xx519137_43403","name":"Moskee Vereniging \"Alhijhra\"","lat":51.913718,"lng":4.340284,"addr":"dr. Abraham Kuyperstraat","type":"yes"},{"id":"xx519068_43469","name":"Eyüp Sultan Moskee","lat":51.906797,"lng":4.346854,"addr":"","type":"yes"},{"id":"xx520205_46896","name":"Assalam Moskee","lat":52.020525,"lng":4.689556,"addr":"","type":"mosque"},{"id":"xx518118_46729","name":"Arrahman Moskee","lat":51.811794,"lng":4.672857,"addr":"","type":"mosque"},{"id":"xx518477_49696","name":"Suleyman Celebi Moskee","lat":51.847731,"lng":4.969602,"addr":"","type":"yes"},{"id":"xx518987_45137","name":"Essalam","lat":51.898672,"lng":4.513716,"addr":"","type":"mosque"},{"id":"xx519065_45088","name":"Anadolu","lat":51.906511,"lng":4.508756,"addr":"","type":"mosque"},{"id":"xx519157_43812","name":"Islamitisch Centrum Schiedam","lat":51.915725,"lng":4.381212,"addr":"Dr Schaepmansingel","type":"mosque"},{"id":"xx519188_43966","name":"Muradiye","lat":51.918763,"lng":4.39656,"addr":"Raamsteeg","type":"mosque"},{"id":"xx519333_44629","name":"Centrum de Middenweg","lat":51.933271,"lng":4.462862,"addr":"","type":"yes"},{"id":"xx523805_48335","name":"Mescid-I-Aksa Moskee","lat":52.380527,"lng":4.833512,"addr":"Johannes Poststraat","type":"yes"},{"id":"xx518455_49649","name":"Moskee Anassr","lat":51.845454,"lng":4.964944,"addr":"","type":"yes"},{"id":"xx523633_48002","name":"Moskee Stichting Faried-Ul-Islam","lat":52.363261,"lng":4.800178,"addr":"Vrijburg","type":"commercial"},{"id":"xx523613_48057","name":"Cafer-i Sadik Moskee","lat":52.361299,"lng":4.805746,"addr":"","type":"yes"},{"id":"xx523580_47868","name":"Rabitha Al Islamia","lat":52.358019,"lng":4.786839,"addr":"","type":"mosque"},{"id":"xx523585_47895","name":"Haci Bayram Camii Osdorp","lat":52.358519,"lng":4.789506,"addr":"","type":"mosque"},{"id":"xx519297_45050","name":"ULU Moskee Rotterdam","lat":51.929695,"lng":4.504979,"addr":"","type":"mosque"},{"id":"xx519304_44982","name":"Moskee Othman","lat":51.930408,"lng":4.498167,"addr":"Boezemdwarsstraat","type":"mosque"},{"id":"xx520118_47268","name":"MIV Moskee Assalam","lat":52.011846,"lng":4.726812,"addr":"","type":"mosque"},{"id":"xx523770_48407","name":"IGMG Mevlana Moskee","lat":52.376962,"lng":4.840732,"addr":"Ernest Staesplein","type":"yes"},{"id":"xx523678_48639","name":"El Tawheed","lat":52.367778,"lng":4.863928,"addr":"","type":"mosque"},{"id":"xx519328_44853","name":"Islamic place","lat":51.932829,"lng":4.485319,"addr":"","type":"yes"},{"id":"xx519311_44825","name":"Gültepe Moskee","lat":51.931141,"lng":4.482526,"addr":"","type":"yes"},{"id":"xx523686_48593","name":"Moskee an-Nour","lat":52.368558,"lng":4.859304,"addr":"","type":"church"},{"id":"xx519327_44696","name":"Iskender Paşa","lat":51.932662,"lng":4.46962,"addr":"","type":"yes"},{"id":"xx515383_44850","name":"Groene Moskee Roosendaal","lat":51.538322,"lng":4.484973,"addr":"","type":"mosque"},{"id":"xx523549_49043","name":"Arrahman","lat":52.354904,"lng":4.904284,"addr":"","type":"yes"},{"id":"xx523544_49027","name":"Masjid Al-Karam","lat":52.354394,"lng":4.902653,"addr":"","type":"mosque"},{"id":"xx515254_44824","name":"Marokkaans Islamitisch Centrum Roosendaal","lat":51.525355,"lng":4.482364,"addr":"Burgemeester Schneiderlaan","type":"mosque"},{"id":"xx514571_35678","name":"Touba Moskee","lat":51.457076,"lng":3.567819,"addr":"","type":"mosque"},{"id":"xx515001_42995","name":"El Feth","lat":51.500106,"lng":4.299549,"addr":"","type":"yes"},{"id":"xx520856_47602","name":"Islamic place","lat":52.085646,"lng":4.760223,"addr":"","type":"mosque"},{"id":"xx523534_49101","name":"Islamic place","lat":52.353426,"lng":4.910137,"addr":"","type":"mosque"},{"id":"xx519065_45087","name":"Anadolu","lat":51.906503,"lng":4.508736,"addr":"","type":"mosque"},{"id":"xx519333_44628","name":"Centrum de Middenweg","lat":51.933266,"lng":4.462844,"addr":"","type":"yes"},{"id":"xx523805_48334","name":"Mescid-I-Aksa Moskee","lat":52.380524,"lng":4.83343,"addr":"Johannes Poststraat","type":"yes"},{"id":"xx523633_48001","name":"Moskee Stichting Faried-Ul-Islam","lat":52.363266,"lng":4.800139,"addr":"Vrijburg","type":"commercial"},{"id":"xx523585_47894","name":"Haci Bayram Camii Osdorp","lat":52.358521,"lng":4.789444,"addr":"","type":"mosque"},{"id":"xx523544_49026","name":"Masjid Al-Karam","lat":52.354395,"lng":4.902621,"addr":"","type":"mosque"},{"id":"xx520857_47602","name":"Islamic place","lat":52.085657,"lng":4.760176,"addr":"","type":"mosque"},{"id":"xx523941_49130","name":"Kuba Camii Moskee","lat":52.394088,"lng":4.913036,"addr":"","type":"mosque"},{"id":"xx524005_49440","name":"Emir Sultan Moskee","lat":52.400502,"lng":4.944037,"addr":"","type":"mosque"},{"id":"xx524015_49441","name":"Al Houda Moskee","lat":52.401519,"lng":4.94406,"addr":"","type":"mosque"},{"id":"xx523833_49131","name":"El-Mouhssinine","lat":52.383309,"lng":4.913134,"addr":"","type":"yes"},{"id":"xx523855_49230","name":"Islamitisch Centrum Quba","lat":52.385524,"lng":4.923038,"addr":"","type":"mosque"},{"id":"xx524160_49478","name":"Baitul Mahmood","lat":52.415986,"lng":4.947846,"addr":"Termieterweg","type":"house"},{"id":"xx519514_48440","name":"El Hoeda","lat":51.951351,"lng":4.844029,"addr":"","type":"mosque"},{"id":"xx521764_44128","name":"Moskee Abu Hurairah","lat":52.1764,"lng":4.412822,"addr":"","type":"mosque"},{"id":"xx516431_48637","name":"Ahmet Yesevi Moskee","lat":51.643083,"lng":4.863688,"addr":"","type":"mosque"},{"id":"xx516433_48636","name":"Ahmet Yesevi Moskee","lat":51.64328,"lng":4.863649,"addr":"","type":"mosque"},{"id":"xx515913_49218","name":"Imam-ı Azam Moskee","lat":51.591348,"lng":4.921792,"addr":"Burgemeester Sweensplein","type":"house"},{"id":"xx514154_41799","name":"Moskee Suleymaniye","lat":51.415359,"lng":4.17989,"addr":"","type":"mosque"},{"id":"xx529502_47553","name":"Nida ul Islam","lat":52.950175,"lng":4.75532,"addr":"","type":"mosque"},{"id":"xx529383_47499","name":"Ayasofia Camii","lat":52.938338,"lng":4.749905,"addr":"","type":"mosque"},{"id":"xx522029_48560","name":"Hak Yol","lat":52.202939,"lng":4.855978,"addr":"","type":"mosque"},{"id":"xx525148_49658","name":"Islamic place","lat":52.514806,"lng":4.965849,"addr":"","type":"mosque"},{"id":"xx526265_47190","name":"Islamic place","lat":52.626499,"lng":4.719023,"addr":"","type":"mosque"},{"id":"xx524698_48015","name":"Islamic place","lat":52.469789,"lng":4.801453,"addr":"","type":"mosque"},{"id":"xx524015_49440","name":"Al Houda Moskee","lat":52.401517,"lng":4.944046,"addr":"","type":"mosque"},{"id":"xx522156_48603","name":"Islamic place","lat":52.215647,"lng":4.860294,"addr":"","type":"mosque"},{"id":"xx521431_46653","name":"Haci Bayram Moskee","lat":52.143145,"lng":4.665349,"addr":"","type":"mosque"},{"id":"xx524395_48540","name":"Sultan Ahmet Moskee","lat":52.439467,"lng":4.854009,"addr":"","type":"mosque"},{"id":"xx524298_48392","name":"Essalam Moskee","lat":52.429813,"lng":4.839191,"addr":"","type":"mosque"},{"id":"xx524402_48290","name":"IGMG Osmanlı Moskee","lat":52.440196,"lng":4.82901,"addr":"Steve Bikoplein","type":"commercial"},{"id":"xx521366_46726","name":"El-Fath Moskee","lat":52.136571,"lng":4.672584,"addr":"","type":"mosque"},{"id":"xx521686_44982","name":"Islamitisch Centrum Imam Malik","lat":52.168639,"lng":4.498178,"addr":"","type":"mosque"},{"id":"xx521668_45076","name":"Mimar Sinanmoskee","lat":52.166787,"lng":4.507637,"addr":"","type":"yes"},{"id":"xx514998_38800","name":"Moskee Arrahman","lat":51.499765,"lng":3.879998,"addr":"","type":"mosque"},{"id":"xx526999_48202","name":"Al-Mohsinien Moskee","lat":52.699874,"lng":4.820164,"addr":"","type":"mosque"},{"id":"xx524889_46731","name":"Islamic place","lat":52.488928,"lng":4.673092,"addr":"","type":"yes"},{"id":"xx514807_36003","name":"Yıldırım Beyazıt Moskee","lat":51.480743,"lng":3.600336,"addr":"","type":"yes"},{"id":"xx522354_44446","name":"Arrahman","lat":52.235448,"lng":4.444553,"addr":"","type":"mosque"},{"id":"xx521564_44735","name":"Moskee Al Hijra","lat":52.156395,"lng":4.473505,"addr":"","type":"mosque"},{"id":"xx520783_43003","name":"Paisii Hilendarski","lat":52.078279,"lng":4.300342,"addr":"","type":"place_of_worship"},{"id":"xx519851_44788","name":"Moskee el-Fath","lat":51.985116,"lng":4.478848,"addr":"","type":"mosque"},{"id":"xx520654_43005","name":"Basisschool Al Qoeba","lat":52.065417,"lng":4.300527,"addr":"Terwestenstraat","type":"school"},{"id":"xx520711_42943","name":"Yunus Emre Van Damstraat","lat":52.071075,"lng":4.294251,"addr":"Van Damstraat","type":"school"},{"id":"xx520800_48747","name":"Islamitische Basisschool Sirat","lat":52.079988,"lng":4.874651,"addr":"","type":"school"},{"id":"xx520361_42618","name":"Yunus Emre Beresteinlaan","lat":52.036131,"lng":4.261804,"addr":"Beresteinlaan","type":"school"},{"id":"xx520385_42702","name":"Islamic place","lat":52.038474,"lng":4.270246,"addr":"","type":"mosque"},{"id":"xx520573_42720","name":"Ahmadiyya Anjuman Isha'at Islam Lahore","lat":52.057282,"lng":4.27195,"addr":"","type":"mosque"},{"id":"xx523485_48314","name":"Blauwe Moskee","lat":52.348496,"lng":4.831447,"addr":"","type":"mosque"},{"id":"xx521686_44981","name":"Islamitisch Centrum Imam Malik","lat":52.168637,"lng":4.498148,"addr":"","type":"mosque"},{"id":"xx526999_48201","name":"Al-Mohsinien Moskee","lat":52.699864,"lng":4.820113,"addr":"","type":"mosque"},{"id":"xx524890_46730","name":"Islamic place","lat":52.488967,"lng":4.67302,"addr":"","type":"yes"},{"id":"xx522355_44445","name":"Arrahman","lat":52.235456,"lng":4.44454,"addr":"","type":"mosque"},{"id":"xx520711_42941","name":"Yunus Emre Van Damstraat","lat":52.071082,"lng":4.294141,"addr":"Van Damstraat","type":"school"},{"id":"xx520573_42719","name":"Ahmadiyya Anjuman Isha'at Islam Lahore","lat":52.057281,"lng":4.271938,"addr":"","type":"mosque"},{"id":"xx523789_48101","name":"De Dadelpalm","lat":52.378948,"lng":4.810117,"addr":"","type":"school"},{"id":"xx523757_48242","name":"Al Wafa","lat":52.37566,"lng":4.824212,"addr":"Louis Couperusstraat","type":"school"},{"id":"xx520446_42554","name":"Isn Ahi Evran Camii Moskee","lat":52.044597,"lng":4.255396,"addr":"","type":"mosque"},{"id":"xx521505_44880","name":"Basisschool Er Risèlèh","lat":52.150465,"lng":4.487978,"addr":"","type":"school"},{"id":"xx524382_48435","name":"Stichting moskee Al-Himmah","lat":52.438197,"lng":4.843529,"addr":"","type":"commercial"},{"id":"xx519578_44689","name":"Isra","lat":51.957794,"lng":4.468949,"addr":"","type":"school"},{"id":"xx521418_46733","name":"Islamitische Basisschool An Noer","lat":52.141776,"lng":4.673305,"addr":"","type":"school"},{"id":"xx524321_48482","name":"IBS De Horizon","lat":52.432122,"lng":4.848179,"addr":"Zuidervaart","type":"school"},{"id":"xx520857_47600","name":"Islamic place","lat":52.085657,"lng":4.759985,"addr":"","type":"mosque"},{"id":"xx520643_44790","name":"De Vijf Pilaren","lat":52.064269,"lng":4.479003,"addr":"Carry van Bruggenhove","type":"school"},{"id":"xx529524_47385","name":"Islamitische begraafplaats","lat":52.952424,"lng":4.738518,"addr":"","type":"grave_yard"},{"id":"xx514891_36150","name":"Al Rahman Moskee","lat":51.489069,"lng":3.614986,"addr":"","type":"yes"},{"id":"xx523767_47988","name":"Moskee Al-Ihsane","lat":52.376675,"lng":4.798809,"addr":"Mendes da Costahof","type":"yes"},{"id":"xx519357_44946","name":"IBS Noen","lat":51.935717,"lng":4.494631,"addr":"","type":"school"},{"id":"xx523119_46484","name":"IBS De Olijfboom","lat":52.311941,"lng":4.648426,"addr":"","type":"school"},{"id":"xx526272_47250","name":"An Nasr","lat":52.627243,"lng":4.724971,"addr":"Tooroplaan","type":"school"},{"id":"xx523596_46626","name":"Al Ikhlaas","lat":52.359648,"lng":4.662551,"addr":"Spijkerboorpad","type":"school"},{"id":"xx523806_48366","name":"Al Wafa","lat":52.380632,"lng":4.836586,"addr":"Harry Koningsbergerstraat","type":"school"},{"id":"xx523174_46576","name":"De Olijfboom","lat":52.31741,"lng":4.657602,"addr":"","type":"school"},{"id":"xx523543_49180","name":"De Vijgenboom","lat":52.35435,"lng":4.918049,"addr":"President Brandstraat","type":"school"},{"id":"xx523438_49041","name":"IBS Elif Amsterdam Zuid","lat":52.343794,"lng":4.904061,"addr":"","type":"school"},{"id":"xx518872_44673","name":"Ibn-i Sina","lat":51.887185,"lng":4.467288,"addr":"","type":"school"},{"id":"xx518930_45130","name":"IBS Risala","lat":51.892959,"lng":4.513041,"addr":"","type":"school"},{"id":"xx517919_46710","name":"IBS Ikra","lat":51.791869,"lng":4.671018,"addr":"","type":"school"},{"id":"xx519180_44312","name":"IBS Al-Ghazali","lat":51.918027,"lng":4.431203,"addr":"","type":"school"},{"id":"xx519895_43534","name":"De Nieuwe Maan","lat":51.989471,"lng":4.353425,"addr":"J.J. Slauerhofflaan","type":"school"},{"id":"xx520640_42959","name":"Yunus Emre Mandelaplein","lat":52.064046,"lng":4.29594,"addr":"Mandelaplein","type":"school"},{"id":"xx520619_42927","name":"Yunus Emre Schalk Burgerstraat","lat":52.06191,"lng":4.292701,"addr":"Schalk Burgerstraat","type":"school"},{"id":"xx520274_47119","name":"Al Qalam","lat":52.027372,"lng":4.711928,"addr":"Calslaan","type":"school"},{"id":"xx518852_44944","name":"Avicenna College","lat":51.88518,"lng":4.494419,"addr":"","type":"school"},{"id":"xx526139_47478","name":"Islamic place","lat":52.613889,"lng":4.747846,"addr":"","type":"mosque"},{"id":"xx520536_43169","name":"Islamic place","lat":52.053609,"lng":4.316875,"addr":"","type":"mosque"},{"id":"xx523669_48370","name":"El Kadisia","lat":52.36686,"lng":4.837002,"addr":"Piet Mondriaanplein","type":"school"},{"id":"xx523739_48464","name":"El Kadisia","lat":52.373903,"lng":4.84637,"addr":"Robert Scottstraat","type":"school"},{"id":"xx516014_47925","name":"Okba ibnoe Nafi","lat":51.601423,"lng":4.792457,"addr":"Hooilaan","type":"school"},{"id":"xx515144_44393","name":"Aïsha","lat":51.514366,"lng":4.439345,"addr":"Heulberg","type":"school"},{"id":"xx516380_48628","name":"Aboe Ayoeb al Ansari","lat":51.637997,"lng":4.862814,"addr":"Slotjesveld","type":"school"},{"id":"xx519352_44693","name":"Islamic University of Applied Sciences Rotterdam","lat":51.935197,"lng":4.469301,"addr":"Bergsingel","type":"university"},{"id":"xx523755_48242","name":"Al Wafa","lat":52.375526,"lng":4.824157,"addr":"Louis Couperusstraat","type":"school"},{"id":"xx520855_47599","name":"Islamic place","lat":52.085533,"lng":4.759906,"addr":"","type":"mosque"},{"id":"xx529525_47385","name":"Islamitische begraafplaats","lat":52.952471,"lng":4.738482,"addr":"","type":"grave_yard"},{"id":"xx526272_47249","name":"An Nasr","lat":52.627177,"lng":4.724911,"addr":"Tooroplaan","type":"school"},{"id":"xx523597_46626","name":"Al Ikhlaas","lat":52.359725,"lng":4.662551,"addr":"Spijkerboorpad","type":"school"},{"id":"xx518872_44672","name":"Ibn-i Sina","lat":51.887205,"lng":4.467242,"addr":"","type":"school"},{"id":"xx518929_45129","name":"IBS Risala","lat":51.892924,"lng":4.512915,"addr":"","type":"school"},{"id":"xx517918_46709","name":"IBS Ikra","lat":51.791795,"lng":4.670857,"addr":"","type":"school"},{"id":"xx519181_44310","name":"IBS Al-Ghazali","lat":51.918054,"lng":4.431038,"addr":"","type":"school"},{"id":"xx520641_42959","name":"Yunus Emre Mandelaplein","lat":52.064072,"lng":4.295916,"addr":"Mandelaplein","type":"school"},{"id":"xx520275_47118","name":"Al Qalam","lat":52.027539,"lng":4.711755,"addr":"Calslaan","type":"school"},{"id":"xx518851_44942","name":"Avicenna College","lat":51.88507,"lng":4.494159,"addr":"","type":"school"},{"id":"xx523740_48463","name":"El Kadisia","lat":52.374024,"lng":4.846329,"addr":"Robert Scottstraat","type":"school"},{"id":"xx508556_43456","name":"Mosquée Omar Ben Khatab","lat":50.855554,"lng":4.345601,"addr":"","type":"place_of_worship"},{"id":"xx508546_43277","name":"Masjid An-Najah","lat":50.854644,"lng":4.327665,"addr":"","type":"place_of_worship"},{"id":"xx508562_43413","name":"Masjid Al Moustakbal","lat":50.856168,"lng":4.341304,"addr":"","type":"place_of_worship"},{"id":"xx508576_43428","name":"Dar Ulum Camia Causia","lat":50.857594,"lng":4.342799,"addr":"","type":"place_of_worship"},{"id":"xx508688_43753","name":"Xhamia e Besimit","lat":50.868779,"lng":4.375283,"addr":"","type":"place_of_worship"},{"id":"xx508462_43422","name":"Masjid Al Abidin","lat":50.846161,"lng":4.342206,"addr":"","type":"place_of_worship"},{"id":"xx508425_43335","name":"Masjid Assounnah","lat":50.842525,"lng":4.333498,"addr":"","type":"place_of_worship"},{"id":"xx508538_43424","name":"Mosquée Hamza","lat":50.853753,"lng":4.342393,"addr":"","type":"place_of_worship"},{"id":"xx508366_43317","name":"Minhaj-ul-Quran International Belgium (Brussels)","lat":50.836631,"lng":4.331738,"addr":"","type":"place_of_worship"},{"id":"xx508379_43290","name":"ASBL Maison des Jeunes BIF Anderlecht Gençilik Subesi","lat":50.837923,"lng":4.328972,"addr":"","type":"community_centre"},{"id":"xx508430_43127","name":"Mosquée El Ghofrane","lat":50.843016,"lng":4.312744,"addr":"","type":"place_of_worship"},{"id":"xx508719_43544","name":"Zaouiya Si Lahcen","lat":50.871919,"lng":4.354418,"addr":"","type":"monastery"},{"id":"xx508762_43986","name":"Mosquée Attawba","lat":50.876213,"lng":4.398582,"addr":"","type":"place_of_worship"},{"id":"xx508455_43333","name":"Mosquée Al Fath","lat":50.84552,"lng":4.33331,"addr":"","type":"place_of_worship"},{"id":"xx508375_43279","name":"Brâhmân","lat":50.837504,"lng":4.327909,"addr":"","type":"community_centre"},{"id":"xx508311_43735","name":"Mosquée El Mouhagirine","lat":50.831059,"lng":4.373518,"addr":"","type":"place_of_worship"},{"id":"xx508579_43393","name":"Mevlana Cami","lat":50.857892,"lng":4.339266,"addr":"","type":"place_of_worship"},{"id":"xx508358_43783","name":"Bangladesh Islamic Cultural Centre","lat":50.835822,"lng":4.378308,"addr":"","type":"place_of_worship"},{"id":"xx504264_45535","name":"Islamic place","lat":50.426396,"lng":4.553484,"addr":"","type":"place_of_worship"},{"id":"xx510081_38837","name":"Moskee Wetteren","lat":51.008128,"lng":3.883655,"addr":"Kattestraat","type":"place_of_worship"},{"id":"xx508847_46950","name":"Moskee Al Fath","lat":50.884711,"lng":4.695023,"addr":"Penitentienenstraat","type":"place_of_worship"},{"id":"xx508725_43536","name":"El Mouahhidine","lat":50.872525,"lng":4.35357,"addr":"","type":"place_of_worship"},{"id":"xx504525_39459","name":"Centre Culturel Ennour","lat":50.452452,"lng":3.945942,"addr":"Rue des Cinq Visages","type":"community_centre"},{"id":"xx512061_43985","name":"Islamic place","lat":51.206052,"lng":4.398543,"addr":"","type":"place_of_worship"},{"id":"xx512231_44312","name":"El Mouslimine","lat":51.223129,"lng":4.431208,"addr":"","type":"place_of_worship"},{"id":"xx504705_48613","name":"Mosquée Turque","lat":50.470521,"lng":4.861345,"addr":"Rue Denis-Georges Bayar","type":"place_of_worship"},{"id":"xx510614_37024","name":"Moskee Al Fath","lat":51.061382,"lng":3.702388,"addr":"","type":"place_of_worship"},{"id":"xx508635_46794","name":"Interconfessional Prayer Room","lat":50.86347,"lng":4.679436,"addr":"Celestijnenlaan","type":"place_of_worship"},{"id":"xx512089_43907","name":"Moskee Taoubat","lat":51.208862,"lng":4.390672,"addr":"","type":"mosque"},{"id":"xx511847_43761","name":"Moskee Al Fath","lat":51.184653,"lng":4.376126,"addr":"","type":"mosque"},{"id":"xx512107_44331","name":"Moskee Masjid Assalam","lat":51.210701,"lng":4.433053,"addr":"","type":"mosque"},{"id":"xx511739_43518","name":"Moskee El Ouahda","lat":51.173933,"lng":4.351763,"addr":"","type":"mosque"},{"id":"xx512132_44234","name":"Moskee Al Iman","lat":51.213226,"lng":4.42343,"addr":"","type":"mosque"},{"id":"xx512104_44285","name":"Moskee Hamza","lat":51.210353,"lng":4.428468,"addr":"","type":"mosque"},{"id":"xx512141_44296","name":"Moskee En Nassr","lat":51.214142,"lng":4.42963,"addr":"","type":"mosque"},{"id":"xx512114_44252","name":"El Nour","lat":51.211352,"lng":4.42521,"addr":"","type":"mosque"},{"id":"xx511714_43377","name":"Moskee van Hoboken","lat":51.171357,"lng":4.337701,"addr":"","type":"mosque"},{"id":"xx512266_44246","name":"Islamitisch Cultuur Centrum van Republiek Bosnië Herzegovina","lat":51.226582,"lng":4.42462,"addr":"","type":"place_of_worship"},{"id":"xx512145_44444","name":"De-Koepel moskee","lat":51.214482,"lng":4.444446,"addr":"Stenenbrug","type":"mosque"},{"id":"xx512274_44228","name":"Khatim-Ul-Anbia","lat":51.227352,"lng":4.422842,"addr":"","type":"place_of_worship"},{"id":"xx512269_44267","name":"Omar Masjid","lat":51.226938,"lng":4.426661,"addr":"","type":"place_of_worship"},{"id":"xx512252_44254","name":"El Gazali","lat":51.225185,"lng":4.425439,"addr":"","type":"place_of_worship"},{"id":"xx510635_37065","name":"Fatih Camii","lat":51.063514,"lng":3.706501,"addr":"","type":"place_of_worship"},{"id":"xx510557_42052","name":"Osmangazi Diyanet Camii","lat":51.055731,"lng":4.205192,"addr":"Kerkhofdries","type":"place_of_worship"},{"id":"xx510685_43588","name":"Al-Khair Moskee","lat":51.068475,"lng":4.358828,"addr":"Appeldonkstraat","type":"place_of_worship"},{"id":"xx508816_47037","name":"IMSAL","lat":50.881575,"lng":4.703688,"addr":"","type":"place_of_worship"},{"id":"xx511951_31947","name":"Islamitisch Cultureel Centrum","lat":51.195072,"lng":3.194724,"addr":"Diksmuidse Heerweg","type":"place_of_worship"},{"id":"xx508617_43780","name":"Belçika İslâm Federasyonu","lat":50.861654,"lng":4.377964,"addr":"","type":"mosque"},{"id":"xx508604_43753","name":"Xhamia e Xhumasë","lat":50.860356,"lng":4.375272,"addr":"","type":"place_of_worship"},{"id":"xx508714_43772","name":"I Romani Dzamija Ebu Hurejra","lat":50.871429,"lng":4.377159,"addr":"","type":"place_of_worship"},{"id":"xx508563_43152","name":"Bošnjački džemat Da'wa","lat":50.856348,"lng":4.315206,"addr":"","type":"place_of_worship"},{"id":"xx508637_43344","name":"Xhamia Shqiptare Al Albani","lat":50.863734,"lng":4.334409,"addr":"","type":"place_of_worship"},{"id":"xx508374_43290","name":"Dinayet Anderlecht Merkez Camii","lat":50.83744,"lng":4.328954,"addr":"","type":"place_of_worship"},{"id":"xx510673_40381","name":"Eyyub El-Ensari Moskee","lat":51.067279,"lng":4.03809,"addr":"Zwaanstraat","type":"place_of_worship"},{"id":"xx510580_37368","name":"Moskéé Okba Ibn Nafi","lat":51.057988,"lng":3.736777,"addr":"","type":"place_of_worship"},{"id":"xx512185_41134","name":"Muradiye Camii","lat":51.218536,"lng":4.113402,"addr":"","type":"place_of_worship"},{"id":"xx510300_44704","name":"Mechelse Moskee","lat":51.029955,"lng":4.470396,"addr":"","type":"place_of_worship"},{"id":"xx508557_43336","name":"Masjid Al-Oukhouwa","lat":50.855719,"lng":4.333569,"addr":"","type":"place_of_worship"},{"id":"xx508268_43302","name":"Masjid Al Hikma","lat":50.826843,"lng":4.330205,"addr":"","type":"place_of_worship"},{"id":"xx508564_44033","name":"Mosquée Al Firdaws","lat":50.856422,"lng":4.403299,"addr":"","type":"place_of_worship"},{"id":"xx508891_43851","name":"Masjid Ar Rayane","lat":50.889149,"lng":4.385088,"addr":"","type":"place_of_worship"},{"id":"xx508952_44348","name":"Masjid Youssef","lat":50.895201,"lng":4.434827,"addr":"","type":"place_of_worship"},{"id":"xx508627_43702","name":"Communauté Afar de Belgique","lat":50.862687,"lng":4.370193,"addr":"","type":"place_of_worship"},{"id":"xx508704_42903","name":"Mosquée Al-Inâba","lat":50.870383,"lng":4.29033,"addr":"","type":"place_of_worship"},{"id":"xx508535_43353","name":"Mosquée Abou Bakr","lat":50.853531,"lng":4.33533,"addr":"","type":"place_of_worship"},{"id":"xx508760_43538","name":"Masjid Ibadou Rahman","lat":50.875976,"lng":4.35384,"addr":"","type":"place_of_worship"},{"id":"xx508557_43721","name":"Al-Hadith","lat":50.855722,"lng":4.372139,"addr":"","type":"mosque"},{"id":"xx508212_42943","name":"Mosquée Al Ahibba","lat":50.82124,"lng":4.294337,"addr":"","type":"place_of_worship"},{"id":"xx508324_43390","name":"Mosquée de la Ligue des Musulmans de Belgique (LMB)","lat":50.832377,"lng":4.338966,"addr":"","type":"place_of_worship"},{"id":"xx508807_43304","name":"Masjid Ibn Rushd","lat":50.880715,"lng":4.330383,"addr":"","type":"place_of_worship"},{"id":"xx508767_43410","name":"Masjid El Chatibi","lat":50.876653,"lng":4.340955,"addr":"","type":"place_of_worship"},{"id":"xx508632_43651","name":"Mosquée Bilal","lat":50.863199,"lng":4.365115,"addr":"","type":"place_of_worship"},{"id":"xx508669_43415","name":"Mosquée Al Aziz","lat":50.866854,"lng":4.341524,"addr":"","type":"place_of_worship"},{"id":"xx507966_43209","name":"Masjid As-Sabirin","lat":50.796608,"lng":4.3209,"addr":"","type":"place_of_worship"},{"id":"xx504748_41835","name":"L'Excellence","lat":50.474769,"lng":4.183482,"addr":"","type":"place_of_worship"},{"id":"xx504703_41886","name":"Mosquée Éden","lat":50.470332,"lng":4.188586,"addr":"","type":"place_of_worship"},{"id":"xx505020_42338","name":"Sultan Eyüp","lat":50.501994,"lng":4.233788,"addr":"","type":"place_of_worship"},{"id":"xx504936_42270","name":"Mosquée Ennasr","lat":50.493618,"lng":4.227,"addr":"","type":"place_of_worship"},{"id":"xx508695_36211","name":"Ensar","lat":50.86946,"lng":3.621072,"addr":"","type":"place_of_worship"},{"id":"xx509357_44263","name":"Rahman Camii","lat":50.935674,"lng":4.426298,"addr":"Cyriel Buyssestraat","type":"place_of_worship"},{"id":"xx509342_44264","name":"Annasr","lat":50.93421,"lng":4.426398,"addr":"Mechelsesteenweg","type":"place_of_worship"},{"id":"xx508361_43874","name":"École Al Ghazali","lat":50.836143,"lng":4.387405,"addr":"","type":"school"},{"id":"xx504208_44528","name":"Al-Hidaya","lat":50.42084,"lng":4.452784,"addr":"","type":"place_of_worship"},{"id":"xx510549_37379","name":"Islamic place","lat":51.054874,"lng":3.737873,"addr":"","type":"place_of_worship"},{"id":"xx510688_37294","name":"Moskee Etihad-ul-Muslimeen","lat":51.068762,"lng":3.729391,"addr":"Voormuide","type":"place_of_worship"},{"id":"xx510748_37125","name":"Hazrat Abubakar Sediq","lat":51.074815,"lng":3.712506,"addr":"","type":"place_of_worship"},{"id":"xx508424_43358","name":"Ar-Riddatou","lat":50.842399,"lng":4.335777,"addr":"","type":"community_centre"},{"id":"xx512190_44406","name":"Masjid El-Fath","lat":51.219027,"lng":4.440594,"addr":"","type":"place_of_worship"},{"id":"xx506016_43276","name":"Masjid As Selam","lat":50.601638,"lng":4.327649,"addr":"","type":"place_of_worship"},{"id":"xx506026_33970","name":"Mosquée Abou Bakr","lat":50.602605,"lng":3.396978,"addr":"Rue des Récollets","type":"place_of_worship"},{"id":"xx508691_43688","name":"Mosquée Kouba","lat":50.869091,"lng":4.368804,"addr":"","type":"place_of_worship"},{"id":"xx510657_43580","name":"Moskee Yunus Emre","lat":51.065691,"lng":4.358016,"addr":"","type":"place_of_worship"},{"id":"xx508435_43878","name":"Grande mosquée de Bruxelles - Grote Moskee van Brussel","lat":50.843498,"lng":4.38783,"addr":"","type":"place_of_worship"},{"id":"xx508936_47045","name":"Al Ihsaan Moskee","lat":50.893555,"lng":4.704529,"addr":"Kolonel Begaultlaan","type":"yes"},{"id":"xx510021_41366","name":"Moskee Al Hoedah","lat":51.002094,"lng":4.136591,"addr":"Konkelgoedstraat","type":"house"},{"id":"xx508759_42394","name":"Bait-Us-Salam","lat":50.875868,"lng":4.23939,"addr":"Brusselstraat","type":"mosque"},{"id":"xx508758_42393","name":"Bait-Us-Salam","lat":50.875847,"lng":4.23935,"addr":"Brusselstraat","type":"mosque"},{"id":"xx511711_49719","name":"Moskee Al Mohsinine","lat":51.17114,"lng":4.971907,"addr":"Zwanenstraat","type":"yes"},{"id":"xx504122_43978","name":"Al Aadin Cami","lat":50.412215,"lng":4.39781,"addr":"Rue de la Providence","type":"mosque"},{"id":"xx504079_44009","name":"Mosquée Arrahama","lat":50.407929,"lng":4.400854,"addr":"","type":"mosque"},{"id":"xx504079_44008","name":"Mosquée Arrahama","lat":50.407936,"lng":4.400835,"addr":"","type":"mosque"},{"id":"xx508565_44033","name":"Islamic place","lat":50.856485,"lng":4.403258,"addr":"Chaussée de Louvain - Leuvensesteenweg","type":"mosque"},{"id":"xx508570_43738","name":"Islamic place","lat":50.856954,"lng":4.373767,"addr":"Rue Massaux - Massauxstraat","type":"yes"},{"id":"xx508586_43709","name":"Islamic place","lat":50.858573,"lng":4.37094,"addr":"","type":"mosque"},{"id":"xx510714_37076","name":"Mosque Tevhid Camii","lat":51.071394,"lng":3.707592,"addr":"Francisco Ferrerlaan","type":"mosque"},{"id":"xx508817_43468","name":"Mosquée Raja","lat":50.881669,"lng":4.346798,"addr":"Rue de Ter Plast - Terplaststraat","type":"yes"},{"id":"xx508387_43136","name":"Mosquée Al Amal - Al Amal Moskee","lat":50.838679,"lng":4.313571,"addr":"Rue du Libre Examen - Vrij-Onderzoekstraat","type":"yes"},{"id":"xx508846_46948","name":"Islamic place","lat":50.884606,"lng":4.694808,"addr":"","type":"mosque"},{"id":"xx510595_43536","name":"Moskee Al-Islami","lat":51.059526,"lng":4.353624,"addr":"Dendermondsesteenweg","type":"yes"},{"id":"xx506426_45585","name":"Grande Mosquée de Court-St-Etienne","lat":50.642634,"lng":4.558487,"addr":"","type":"mosque"},{"id":"xx510351_44820","name":"Al Buraq","lat":51.035124,"lng":4.481999,"addr":"Generaal De Ceuninckstraat","type":"mosque"},{"id":"xx513222_49539","name":"Centrum Arrahmaan","lat":51.322198,"lng":4.953912,"addr":"Klinkstraat","type":"yes"},{"id":"xx512392_44451","name":"Moskee Essalam","lat":51.239223,"lng":4.445138,"addr":"Borrewaterstraat","type":"mosque"},{"id":"xx512087_44675","name":"Inaba","lat":51.208721,"lng":4.46751,"addr":"Boterlaarbaan","type":"mosque"},{"id":"xx512274_44478","name":"Ikc Gazi Husrev-beg Antwerpen","lat":51.22741,"lng":4.447838,"addr":"Ten Eekhovelei","type":"mosque"},{"id":"xx512316_44452","name":"Moskee Attaqwa","lat":51.231598,"lng":4.445187,"addr":"Van Duyststraat","type":"mosque"},{"id":"xx512260_44644","name":"Al-Ridaa","lat":51.226013,"lng":4.464397,"addr":"Mattheus Corvensstraat","type":"mosque"},{"id":"xx510998_39940","name":"Imam Malik Moskee","lat":51.099785,"lng":3.994016,"addr":"Hoedhaarstraat","type":"house"},{"id":"xx512031_43904","name":"Huzur","lat":51.203127,"lng":4.390439,"addr":"Ieperstraat","type":"mosque"},{"id":"xx512264_44264","name":"Noor-Ul-Haram moskee","lat":51.22641,"lng":4.426364,"addr":"Van Kerckhovenstraat","type":"mosque"},{"id":"xx512141_44409","name":"Bangladesh Moskee","lat":51.214136,"lng":4.440938,"addr":"Turnhoutsebaan","type":"mosque"},{"id":"xx512143_44393","name":"Moskee Alkafaalah","lat":51.214267,"lng":4.439303,"addr":"Turnhoutsebaan","type":"mosque"},{"id":"xx506702_46195","name":"Centre Culturel Islamique d’Ottignies Louvain-la-Neuve","lat":50.670221,"lng":4.619548,"addr":"Avenue Georges Lemaître","type":"mosque"},{"id":"xx508880_44665","name":"BIF Zaventem Camii","lat":50.888036,"lng":4.466483,"addr":"Diegemstraat","type":"yes"},{"id":"xx510999_41436","name":"Yunus Emre moskee Hamme","lat":51.099891,"lng":4.143572,"addr":"Drapstraat","type":"yes"},{"id":"xx512169_29028","name":"Aïsja Moskee","lat":51.21685,"lng":2.902798,"addr":"Hendrik Conscienceplein","type":"yes"},{"id":"xx504705_48582","name":"Mosquée de Namur - Centre culturel Marocain de Namur","lat":50.470508,"lng":4.858232,"addr":"Rue Marie Henriette","type":"house"},{"id":"xx504704_48584","name":"Islamic place","lat":50.470434,"lng":4.858398,"addr":"Rue Marie Henriette","type":"mosque"},{"id":"xx508899_34197","name":"Islamitische Geloofsgemeenschap El Azhar","lat":50.889908,"lng":3.419674,"addr":"Roger Vansteenbruggestraat","type":"yes"},{"id":"xx510337_37421","name":"Yavuz Sultan Selim Moskee","lat":51.03368,"lng":3.742096,"addr":"Langestraat","type":"yes"},{"id":"xx506839_42029","name":"Mosquée de Tubize","lat":50.683936,"lng":4.202933,"addr":"Rue des Frères Lefort","type":"yes"},{"id":"xx507129_46006","name":"Mosquée de Wavre","lat":50.712896,"lng":4.600579,"addr":"Rue Provinciale","type":"yes"},{"id":"xx507222_42498","name":"Masjid Arrahman moskee","lat":50.722229,"lng":4.249838,"addr":"Nijvelsesteenweg","type":"mosque"},{"id":"xx507658_42741","name":"Cultureel Islamitisch Centrum van Beersel","lat":50.76577,"lng":4.274085,"addr":"Stationsstraat","type":"mosque"},{"id":"xx504367_45279","name":"Mosquée Assakina","lat":50.436687,"lng":4.527931,"addr":"Rue du Wainage","type":"mosque"},{"id":"xx508578_44947","name":"Islamic place","lat":50.857839,"lng":4.4947,"addr":"","type":"mosque"},{"id":"xx508688_44281","name":"Islamic place","lat":50.868824,"lng":4.428069,"addr":"","type":"mosque"},{"id":"xx504745_36528","name":"Islamic place","lat":50.474493,"lng":3.652787,"addr":"","type":"mosque"},{"id":"xx504735_48329","name":"Islamic place","lat":50.473508,"lng":4.832889,"addr":"","type":"mosque"},{"id":"xx507854_43291","name":"Bait-ul-Mujeeb","lat":50.785428,"lng":4.32912,"addr":"","type":"temple"},{"id":"xx507437_36089","name":"Grote Moskee van Ronse","lat":50.743659,"lng":3.608943,"addr":"","type":"yes"},{"id":"xx504296_36887","name":"Mosquée Al Mouhagirine","lat":50.429567,"lng":3.688717,"addr":"Rue de Villers","type":"house"},{"id":"xx504333_36840","name":"Mosquée Ömer","lat":50.43334,"lng":3.684018,"addr":"Rue Haute","type":"house"},{"id":"xx511389_45522","name":"Islamic place","lat":51.138879,"lng":4.552153,"addr":"","type":"yes"},{"id":"xx511391_45524","name":"Islamic place","lat":51.139129,"lng":4.552441,"addr":"","type":"yes"},