[{"id":"xx500682_199310","name":"I Centrum Muzułmańskie","lat":50.068199,"lng":19.931039,"addr":"Jana Sobieskiego","type":"place_of_worship"},{"id":"xx502581_190335","name":"Centrum Kultury Islamu","lat":50.258144,"lng":19.033549,"addr":"Warszawska","type":"place_of_worship"},{"id":"xx517780_194929","name":"Gmina Muzułmańska w Łodzi","lat":51.777955,"lng":19.492866,"addr":"","type":"place_of_worship"},{"id":"xx511366_170404","name":"Muzułmańskie Centrum Kulturalno-Oświatowe","lat":51.136557,"lng":17.040405,"addr":"aleja Jana Kasprowicza","type":"yes"},{"id":"xx500889_198837","name":"II Centrum Muzułmańskie","lat":50.088942,"lng":19.883733,"addr":"Groszkowa","type":"detached"},{"id":"xx523896_168862","name":"Muzułmańskie Centrum Kulturalno-Oświatowe","lat":52.389566,"lng":16.886221,"addr":"","type":"yes"},{"id":"xx543908_185724","name":"Meczet imienia Dżamala ad-Dina Al-afganiego","lat":54.390841,"lng":18.572399,"addr":"Antoniego Abrahama","type":"mosque"},{"id":"xx508766_157502","name":"Islamic place","lat":50.876641,"lng":15.750181,"addr":"","type":"mosque"},{"id":"xx530336_184935","name":"Islamic place","lat":53.033568,"lng":18.493507,"addr":"","type":"mosque"},{"id":"xx530335_184933","name":"Islamic place","lat":53.033538,"lng":18.493304,"addr":"","type":"mosque"},{"id":"xx531215_181027","name":"Islamic place","lat":53.121523,"lng":18.102739,"addr":"","type":"mosque"}]