[{"id":"xx526427_396327","name":"Местная религиозная организация мусульман Липецкой области","lat":52.642658,"lng":39.632689,"addr":"улица Римского-Корсакова","type":"mosque"},{"id":"xx540002_393461","name":"Islamic place","lat":54.000223,"lng":39.346063,"addr":"","type":"place_of_worship"},{"id":"xx517117_361627","name":"Татарское старое мусульманское кладбище","lat":51.711669,"lng":36.162735,"addr":"","type":"mosque"},{"id":"xx545337_361647","name":"мечеть Сунна","lat":54.53373,"lng":36.164741,"addr":"улица Анненки","type":"yes"},{"id":"xx516755_393353","name":"Islamic place","lat":51.675514,"lng":39.335269,"addr":"Покровская улица","type":"mosque"},{"id":"xx516755_393352","name":"Islamic place","lat":51.675519,"lng":39.335174,"addr":"Покровская улица","type":"mosque"},{"id":"xx521474_396490","name":"Islamic place","lat":52.147403,"lng":39.648953,"addr":"","type":"mosque"},{"id":"xx521497_396599","name":"Islamic place","lat":52.149701,"lng":39.6599,"addr":"улица Гагарина","type":"mosque"},{"id":"xx521473_396489","name":"Islamic place","lat":52.147337,"lng":39.648933,"addr":"","type":"mosque"},{"id":"xx549268_373935","name":"Мечеть Нур","lat":54.926789,"lng":37.393518,"addr":"Пушечная улица","type":"mosque"},{"id":"xx501383_389135","name":"Islamic place","lat":50.138309,"lng":38.913487,"addr":"","type":"mosque"},{"id":"xx500226_363192","name":"Ісламський центр «Сунна»","lat":50.022612,"lng":36.319234,"addr":"Академіка Барабашова вулиця","type":"yes"}]