[{"id":"xx501348_86242","name":"Abu-Bakr-Moschee - Islamische Gemeinde Frankfurt e.V.","lat":50.134834,"lng":8.624198,"addr":"Praunheimer Landstraße","type":"place_of_worship"},{"id":"xx520875_70271","name":"Aksa Moschee","lat":52.0875,"lng":7.027059,"addr":"","type":"place_of_worship"},{"id":"xx508967_61284","name":"Emir-Sultan-Moschee","lat":50.896668,"lng":6.128352,"addr":"","type":"place_of_worship"},{"id":"xx526433_92079","name":"Türkisch-Islamische Gemeinde zu Nienburg e.V.","lat":52.643313,"lng":9.207909,"addr":"Verdener Straße","type":"place_of_worship"},{"id":"xx522746_80535","name":"Ibrahim Al-Khalil","lat":52.274554,"lng":8.053489,"addr":"","type":"place_of_worship"},{"id":"xx501439_86543","name":"Falah Moschee","lat":50.143887,"lng":8.654256,"addr":"Raimundstraße","type":"place_of_worship"},{"id":"xx521972_90906","name":"Moschee","lat":52.197178,"lng":9.090576,"addr":"Im Emerten","type":"place_of_worship"},{"id":"xx512057_73523","name":"Islamic place","lat":51.205749,"lng":7.352333,"addr":"","type":"place_of_worship"},{"id":"xx515964_77482","name":"DITIB Moschee Bönen","lat":51.596436,"lng":7.74822,"addr":"","type":"place_of_worship"},{"id":"xx515994_77770","name":"Mevlana Moschee Bönen","lat":51.599362,"lng":7.77699,"addr":"Bahnhofstraße","type":"place_of_worship"},{"id":"xx536827_96750","name":"Türkisch Islamische Union Grüne Moschee e.V.","lat":53.68266,"lng":9.675003,"addr":"","type":"place_of_worship"},{"id":"xx522472_84021","name":"Rahmann Moschee Buer","lat":52.247169,"lng":8.402135,"addr":"Osnabrücker Straße","type":"place_of_worship"},{"id":"xx513993_71767","name":"Fatih Moschee","lat":51.399289,"lng":7.176689,"addr":"","type":"place_of_worship"},{"id":"xx535155_85205","name":"Islamische Gemeinschaft Milli Görüş","lat":53.515477,"lng":8.520541,"addr":"Niedersachsenstraße","type":"place_of_worship"},{"id":"xx522079_83440","name":"Mimar-Sinan-Moschee","lat":52.207888,"lng":8.34401,"addr":"","type":"place_of_worship"},{"id":"xx531104_94141","name":"Küçük-Ayasofya-Moschee","lat":53.110415,"lng":9.414094,"addr":"Fuhrenstraße","type":"place_of_worship"},{"id":"xx531885_85563","name":"Selimiye Moschee","lat":53.188462,"lng":8.556305,"addr":"Kreinsloger","type":"place_of_worship"},{"id":"xx530947_88003","name":"Camii Girisi","lat":53.09473,"lng":8.800349,"addr":"","type":"place_of_worship"},{"id":"xx500772_82362","name":"Islamische Gemeinschaft der Bosniaken, Wiesbaden e.V.","lat":50.077215,"lng":8.236161,"addr":"Rheinstraße","type":"place_of_worship"},{"id":"xx522643_80545","name":"Merkez Camii","lat":52.264294,"lng":8.054522,"addr":"","type":"place_of_worship"},{"id":"xx530797_88158","name":"Rahma Moschee","lat":53.079748,"lng":8.815831,"addr":"","type":"place_of_worship"},{"id":"xx509246_61996","name":"Hos Geldiniz","lat":50.924579,"lng":6.199551,"addr":"Wolfsgasse","type":"place_of_worship"},{"id":"xx514611_69677","name":"Ankara e.V.","lat":51.461061,"lng":6.967661,"addr":"Altendorfer Straße","type":"place_of_worship"},{"id":"xx509443_65418","name":"Islamic place","lat":50.944299,"lng":6.541837,"addr":"","type":"place_of_worship"},{"id":"xx509636_70192","name":"Islamische Akademie Villa Hahnenburg","lat":50.963588,"lng":7.019197,"addr":"Ackerstraße","type":"place_of_worship"},{"id":"xx503658_75958","name":"Islamic place","lat":50.365802,"lng":7.595806,"addr":"","type":"place_of_worship"},{"id":"xx512159_64236","name":"Islamic place","lat":51.215857,"lng":6.423556,"addr":"","type":"grave_yard"},{"id":"xx512296_70668","name":"Mimar Sinan Moschee","lat":51.229634,"lng":7.066814,"addr":"Spitzwegstraße","type":"place_of_worship"},{"id":"xx512292_70639","name":"Annur Moschee","lat":51.229201,"lng":7.063867,"addr":"Vohwinkeler Straße","type":"place_of_worship"},{"id":"xx523760_97289","name":"Familien Information Moschee","lat":52.375973,"lng":9.728903,"addr":"","type":"place_of_worship"},{"id":"xx501064_87666","name":"Mevlana Moschee","lat":50.106433,"lng":8.766629,"addr":"Sandgasse","type":"place_of_worship"},{"id":"xx501061_87690","name":"Masjid Tauhid","lat":50.10609,"lng":8.768973,"addr":"Karlstraße","type":"place_of_worship"},{"id":"xx501037_87692","name":"Ditib - Yavuz Sultan Selim Camii","lat":50.103667,"lng":8.76918,"addr":"Bleichstraße","type":"place_of_worship"},{"id":"xx515495_74692","name":"Eving Selimiye Camii","lat":51.549511,"lng":7.469241,"addr":"","type":"place_of_worship"},{"id":"xx512188_68403","name":"Union der Roma - I.K.U.R. Düsseldorf. e.V","lat":51.21879,"lng":6.840302,"addr":"Posener Straße","type":"place_of_worship"},{"id":"xx507725_61260","name":"Islamische Gemeinschaft","lat":50.772522,"lng":6.125996,"addr":"","type":"place_of_worship"},{"id":"xx507396_71008","name":"Medina Moschee","lat":50.739623,"lng":7.100807,"addr":"Theaterstraße","type":"place_of_worship"},{"id":"xx515271_74047","name":"Osman Gazi Moschee","lat":51.527099,"lng":7.404747,"addr":"","type":"place_of_worship"},{"id":"xx513228_65606","name":"Merkez Camii","lat":51.322842,"lng":6.560642,"addr":"","type":"place_of_worship"},{"id":"xx523912_97337","name":"Mohammad Al-Amien Moschee","lat":52.391236,"lng":9.733688,"addr":"","type":"place_of_worship"},{"id":"xx547985_94215","name":"DİTİB Fatih Moschee","lat":54.798528,"lng":9.421546,"addr":"Meiereistraße","type":"place_of_worship"},{"id":"xx543132_96567","name":"Centrum-Moschee","lat":54.313179,"lng":9.656745,"addr":"","type":"place_of_worship"},{"id":"xx530581_88852","name":"Kûba Camii","lat":53.058116,"lng":8.885235,"addr":"","type":"place_of_worship"},{"id":"xx531782_87239","name":"Bremen Yunus Emre Camii","lat":53.17822,"lng":8.723932,"addr":"","type":"place_of_worship"},{"id":"xx514375_73263","name":"Islamisches Kulturzentrum Witten","lat":51.437504,"lng":7.32626,"addr":"","type":"place_of_worship"},{"id":"xx504321_76743","name":"Islamic place","lat":50.432054,"lng":7.674346,"addr":"","type":"place_of_worship"},{"id":"xx506893_71496","name":"Al Ansar Moschee","lat":50.68934,"lng":7.149553,"addr":"Bonner Straße","type":"place_of_worship"},{"id":"xx517278_87601","name":"Begegnungsstätte Arrahma","lat":51.727834,"lng":8.760097,"addr":"Salierstraße","type":"place_of_worship"},{"id":"xx524231_70705","name":"Islamic place","lat":52.423111,"lng":7.070521,"addr":"","type":"place_of_worship"},{"id":"xx517095_87435","name":"Diyanet Türkisch-Islamischer Kulturverein e.V.","lat":51.709484,"lng":8.743483,"addr":"Abtsbrede","type":"place_of_worship"},{"id":"xx516229_76406","name":"Bildungszentrum Bergkamen","lat":51.62294,"lng":7.640614,"addr":"Präsidentenstraße","type":"place_of_worship"},{"id":"xx507800_62244","name":"Millî Görüş","lat":50.77997,"lng":6.224395,"addr":"","type":"place_of_worship"},{"id":"xx522896_89271","name":"Barboros Merkez Camii","lat":52.289582,"lng":8.927059,"addr":"Kaiserstraße","type":"place_of_worship"},{"id":"xx516236_75129","name":"Islamic place","lat":51.623585,"lng":7.51294,"addr":"Alstedder Straße","type":"place_of_worship"},{"id":"xx507366_70867","name":"DITIB-Moschee","lat":50.73664,"lng":7.086708,"addr":"","type":"place_of_worship"},{"id":"xx519525_76376","name":"Sultan Ahmet Camii","lat":51.952516,"lng":7.637607,"addr":"","type":"place_of_worship"},{"id":"xx505785_72334","name":"Ditib Türkisch-Islamische Moschee","lat":50.578475,"lng":7.233449,"addr":"","type":"place_of_worship"},{"id":"xx523816_97328","name":"Bildung und Gemässigkeit e.V.","lat":52.381607,"lng":9.732848,"addr":"","type":"place_of_worship"},{"id":"xx506721_71759","name":"Ar Rahma Moschee","lat":50.672112,"lng":7.175912,"addr":"","type":"place_of_worship"},{"id":"xx509187_69629","name":"Veysel-Karani-Moschee","lat":50.918691,"lng":6.962863,"addr":"","type":"place_of_worship"},{"id":"xx513219_94921","name":"Islamic place","lat":51.321862,"lng":9.492068,"addr":"","type":"place_of_worship"},{"id":"xx512126_68151","name":"Masjid Ar-Rahman","lat":51.212618,"lng":6.815139,"addr":"Ronsdorfer Straße","type":"place_of_worship"},{"id":"xx515202_69454","name":"DITIP Türkisch-Islamische Union","lat":51.520223,"lng":6.945442,"addr":"","type":"place_of_worship"},{"id":"xx515349_71004","name":"Arrahman Moschee","lat":51.534862,"lng":7.100449,"addr":"","type":"place_of_worship"},{"id":"xx515126_71140","name":"Tugra Kultur Zentrum","lat":51.512572,"lng":7.113959,"addr":"","type":"place_of_worship"},{"id":"xx508632_69271","name":"Ayasofya-Moschee","lat":50.863178,"lng":6.927111,"addr":"An der Fuhr","type":"place_of_worship"},{"id":"xx509398_69999","name":"Kuba-Moschee","lat":50.939779,"lng":6.999895,"addr":"","type":"place_of_worship"},{"id":"xx509405_70232","name":"Mevlana-Moschee","lat":50.940464,"lng":7.023202,"addr":"","type":"place_of_worship"},{"id":"xx509386_70002","name":"Tauhid Moschee","lat":50.938626,"lng":7.000234,"addr":"","type":"place_of_worship"},{"id":"xx501038_86154","name":"Tarik ben Ziad","lat":50.103846,"lng":8.615411,"addr":"Mönchhofstraße","type":"place_of_worship"},{"id":"xx509322_69963","name":"Taqiyyu'd-Din al-Hilali Moschee","lat":50.932241,"lng":6.996298,"addr":"","type":"place_of_worship"},{"id":"xx509781_69333","name":"Weidenpesch Mescidi (Moschee)","lat":50.978093,"lng":6.933343,"addr":"Etzelstraße","type":"place_of_worship"},{"id":"xx509406_70197","name":"Islamisches Kulturzentrum Köln - Schiitische Gemeinde","lat":50.940551,"lng":7.019726,"addr":"Olpener Straße","type":"place_of_worship"},{"id":"xx508073_64996","name":"Dürener Moschee","lat":50.807302,"lng":6.499609,"addr":"Kölner Landstraße","type":"place_of_worship"},{"id":"xx512974_76719","name":"Moschee","lat":51.29742,"lng":7.671852,"addr":"Lüdenscheider Straße","type":"place_of_worship"},{"id":"xx500946_86026","name":"Markaz Islamisches Zentrum Frankfurt","lat":50.094634,"lng":8.602632,"addr":"","type":"place_of_worship"},{"id":"xx500986_85950","name":"Bilal-Moschee","lat":50.098649,"lng":8.594996,"addr":"","type":"place_of_worship"},{"id":"xx500922_86009","name":"Hazrat Fatima Moschee","lat":50.092168,"lng":8.600852,"addr":"","type":"place_of_worship"},{"id":"xx522672_80610","name":"Diyanet Isleri Türk-Islam Birligi-Yeni Camii","lat":52.267181,"lng":8.061011,"addr":"Frankenstraße","type":"place_of_worship"},{"id":"xx522675_80601","name":"Islamska Zajednica Bosnjaka","lat":52.267519,"lng":8.060054,"addr":"Wasastraße","type":"place_of_worship"},{"id":"xx516627_77501","name":"Ulu Camii","lat":51.66271,"lng":7.750141,"addr":"","type":"place_of_worship"},{"id":"xx501414_87459","name":"Imam Abu Hanifa - Afghanischer Kulturverein","lat":50.14143,"lng":8.745917,"addr":"Edisonstraße","type":"place_of_worship"},{"id":"xx507748_60982","name":"Al-Imam Malik Moschee","lat":50.774845,"lng":6.098151,"addr":"","type":"place_of_worship"},{"id":"xx514186_96528","name":"Türkisch-Islamische Gemeinde zu Hann.Münden","lat":51.418616,"lng":9.652809,"addr":"Sydekumstraße","type":"place_of_worship"},{"id":"xx512635_71480","name":"Merkez Camii Moschee","lat":51.263458,"lng":7.147984,"addr":"Gathe","type":"place_of_worship"},{"id":"xx514694_70811","name":"Yavuz-Sultan-Selil-cami-i","lat":51.469366,"lng":7.081146,"addr":"","type":"place_of_worship"},{"id":"xx529160_92305","name":"türkisch-islamische Gemeinde","lat":52.915978,"lng":9.230467,"addr":"Grüne Straße","type":"place_of_worship"},{"id":"xx534724_98555","name":"Yildiz Camii","lat":53.472399,"lng":9.855509,"addr":"","type":"place_of_worship"},{"id":"xx547941_94312","name":"Eyyüß Sultan Camii","lat":54.794134,"lng":9.431232,"addr":"Norderstraße","type":"place_of_worship"},{"id":"xx515681_72114","name":"Fathi Merkez Camii","lat":51.568121,"lng":7.211386,"addr":"","type":"place_of_worship"},{"id":"xx530550_87381","name":"Ayasofya Camii","lat":53.055041,"lng":8.738075,"addr":"","type":"place_of_worship"},{"id":"xx514894_70843","name":"Barbaros Yeni Camii","lat":51.489394,"lng":7.084333,"addr":"","type":"place_of_worship"},{"id":"xx522721_74433","name":"Ulu Camii","lat":52.272063,"lng":7.443332,"addr":"Münsterstraße","type":"place_of_worship"},{"id":"xx522771_74519","name":"Valide-i Sultan Moschee","lat":52.277067,"lng":7.451865,"addr":"","type":"place_of_worship"},{"id":"xx514637_72335","name":"Islamischer Kulturverein Bochum e.V.","lat":51.46371,"lng":7.233519,"addr":"Querenburger Straße","type":"place_of_worship"},{"id":"xx501030_85577","name":"Aelivi Kültür Merkezi Cemevi","lat":50.103035,"lng":8.55772,"addr":"","type":"place_of_worship"},{"id":"xx511151_73962","name":"Fatih Camii","lat":51.115096,"lng":7.396161,"addr":"Klosterstraße","type":"place_of_worship"},{"id":"xx514874_67391","name":"Masjid Al Nour e.V","lat":51.487382,"lng":6.739076,"addr":"Bayreuther Straße","type":"place_of_worship"},{"id":"xx514884_67419","name":"Yildirim","lat":51.488425,"lng":6.741864,"addr":"","type":"place_of_worship"},{"id":"xx501031_86390","name":"Valide Sultan Cami","lat":50.103068,"lng":8.638966,"addr":"Kriegkstraße","type":"place_of_worship"},{"id":"xx523736_97495","name":"Abu Bakr al-Siddiq Moschee","lat":52.373578,"lng":9.749469,"addr":"","type":"place_of_worship"},{"id":"xx524017_97630","name":"Al-Ummah-Moschee","lat":52.401666,"lng":9.763038,"addr":"","type":"place_of_worship"},{"id":"xx530370_86382","name":"Mevlana Moschee","lat":53.036986,"lng":8.638185,"addr":"Breslauer Straße","type":"place_of_worship"},{"id":"xx501014_86543","name":"TAQWA Moschee - Marokkanischer Verein","lat":50.101437,"lng":8.65434,"addr":"Heilbronner Straße","type":"place_of_worship"},{"id":"xx517043_87379","name":"Islamisches Zentrum Paderborn","lat":51.704265,"lng":8.737892,"addr":"Benediktinerstraße","type":"place_of_worship"},{"id":"xx516904_77672","name":"Selimiye Camii","lat":51.690384,"lng":7.767226,"addr":"Hammer Straße","type":"place_of_worship"},{"id":"xx515417_99298","name":"Al Taqwa Moschee","lat":51.54166,"lng":9.929794,"addr":"Güterbahnhofstraße","type":"place_of_worship"},{"id":"xx531144_87567","name":"Mevlana-Moschee","lat":53.114441,"lng":8.756708,"addr":"Lindenhofstraße","type":"place_of_worship"},{"id":"xx530600_89299","name":"Osterholz Camii","lat":53.060039,"lng":8.929927,"addr":"Soltend","type":"place_of_worship"},{"id":"xx513209_95157","name":"Al-Huda Moschee","lat":51.320919,"lng":9.515669,"addr":"Josephstraße","type":"place_of_worship"},{"id":"xx513197_94995","name":"Ayasofya Moschee","lat":51.319655,"lng":9.49951,"addr":"","type":"place_of_worship"},{"id":"xx519987_85002","name":"Türkisch-Aserbaidschanischer-Kulturverein e.V.","lat":51.998655,"lng":8.500215,"addr":"Eisenbahnstraße","type":"place_of_worship"},{"id":"xx503960_80610","name":"Islamic place","lat":50.396026,"lng":8.061037,"addr":"","type":"place_of_worship"},{"id":"xx501436_85593","name":"Eschborn Camii","lat":50.143606,"lng":8.55931,"addr":"Schwalbacher Straße","type":"place_of_worship"},{"id":"xx509343_69728","name":"Moschee Deutz","lat":50.934348,"lng":6.972828,"addr":"","type":"place_of_worship"},{"id":"xx500990_87103","name":"Pak Muhammadi Moschee","lat":50.098967,"lng":8.710333,"addr":"Offenbacher Landstraße","type":"place_of_worship"},{"id":"xx535248_86003","name":"Selimiye Camii Bremerhaven","lat":53.524784,"lng":8.600333,"addr":"Lübecker Straße","type":"place_of_worship"},{"id":"xx534957_84844","name":"Selimiye Camii Nordenham","lat":53.495718,"lng":8.484416,"addr":"","type":"place_of_worship"},{"id":"xx500070_87928","name":"Tawhid Moschee","lat":50.006995,"lng":8.792795,"addr":"","type":"place_of_worship"},{"id":"xx510338_68864","name":"Islamisches Bildungszentrum","lat":51.033831,"lng":6.886415,"addr":"Langenbergstraße","type":"social_facility"},{"id":"xx501919_87436","name":"DITIB Türkisch Islamische Gemeinde e.V.","lat":50.191938,"lng":8.743564,"addr":"Büdinger Straße","type":"place_of_worship"},{"id":"xx501035_85455","name":"Islamic place","lat":50.103545,"lng":8.545517,"addr":"","type":"place_of_worship"},{"id":"xx501095_85395","name":"IGMG Ehl-i Beyt Camii","lat":50.109542,"lng":8.539486,"addr":"Königsteiner Straße","type":"place_of_worship"},{"id":"xx501019_85524","name":"ATiB Höchst Mevlana Camii","lat":50.101898,"lng":8.552447,"addr":"","type":"place_of_worship"},{"id":"xx500950_86015","name":"Islamisches Zentrum Frankfurt e.V.","lat":50.095,"lng":8.601497,"addr":"","type":"place_of_worship"},{"id":"xx501013_86380","name":"IKZ - Islamski Kulturni Centar","lat":50.101279,"lng":8.637968,"addr":"Lahnstraße","type":"place_of_worship"},{"id":"xx501077_86700","name":"Merkez Moschee","lat":50.107678,"lng":8.669981,"addr":"","type":"place_of_worship"},{"id":"xx501080_86573","name":"Bosniakisches Kultur Center Frankfurt am Main","lat":50.107957,"lng":8.657332,"addr":"Mainzer Landstraße","type":"place_of_worship"},{"id":"xx500085_87916","name":"DITIB Dietzenbach Fatih Moschee","lat":50.008504,"lng":8.791634,"addr":"","type":"place_of_worship"},{"id":"xx508613_61893","name":"Mevlana Camii Moschee","lat":50.861298,"lng":6.189306,"addr":"Blumenrather Straße","type":"place_of_worship"},{"id":"xx523692_97099","name":"Jama'at un-Nur","lat":52.36918,"lng":9.709935,"addr":"Dieckbornstraße","type":"place_of_worship"},{"id":"xx500583_85366","name":"Fevzi Cakmak Camii","lat":50.05829,"lng":8.536619,"addr":"Mörfelder Straße","type":"place_of_worship"},{"id":"xx501004_85480","name":"Höchst Camii","lat":50.100384,"lng":8.548032,"addr":"","type":"place_of_worship"},{"id":"xx501203_88210","name":"Bildungs- und Kulturverein Mühlheim e.V.","lat":50.120288,"lng":8.820991,"addr":"","type":"place_of_worship"},{"id":"xx500867_87630","name":"Bosnische Moschee","lat":50.0867,"lng":8.76299,"addr":"Jacques-Offenbach-Straße","type":"place_of_worship"},{"id":"xx508144_71544","name":"Al-Huda Moschee","lat":50.814356,"lng":7.154436,"addr":"","type":"place_of_worship"},{"id":"xx535261_98005","name":"Küçük İstanbul Camii","lat":53.526109,"lng":9.800469,"addr":"Neuenfelder Fährdeich","type":"place_of_worship"},{"id":"xx500149_84519","name":"Moschee Assadaka","lat":50.014911,"lng":8.451907,"addr":"","type":"place_of_worship"},{"id":"xx530718_88365","name":"Süleymaniye Camii","lat":53.071775,"lng":8.836478,"addr":"","type":"mosque"},{"id":"xx530973_87896","name":"Camiye giriş","lat":53.097292,"lng":8.789631,"addr":"Waller Heerstraße","type":"place_of_worship"},{"id":"xx500782_82334","name":"Süleymaniye-Moschee","lat":50.078191,"lng":8.233444,"addr":"Dotzheimer Straße","type":"place_of_worship"},{"id":"xx522111_70301","name":"Türkisch Islamische Gemeinde","lat":52.211076,"lng":7.030089,"addr":"Burgstraße","type":"place_of_worship"},{"id":"xx501026_87599","name":"BKZS - Dzemat Offenbach am Main","lat":50.102618,"lng":8.759943,"addr":"","type":"place_of_worship"},{"id":"xx501343_88407","name":"Maintal Camii","lat":50.134267,"lng":8.840723,"addr":"","type":"place_of_worship"},{"id":"xx513538_83428","name":"IGMG OG Meschede","lat":51.353763,"lng":8.342773,"addr":"","type":"place_of_worship"},{"id":"xx511760_72121","name":"Fatih Camii","lat":51.176003,"lng":7.212103,"addr":"","type":"place_of_worship"},{"id":"xx509307_69382","name":"Mevlana","lat":50.930748,"lng":6.938206,"addr":"Roonstraße","type":"community_centre"},{"id":"xx501038_87588","name":"Baitul Gafur Moschee","lat":50.103791,"lng":8.75884,"addr":"","type":"place_of_worship"},{"id":"xx501022_87558","name":"Sadik Ahmet Camii","lat":50.102221,"lng":8.755791,"addr":"","type":"place_of_worship"},{"id":"xx510864_70993","name":"DiTiB","lat":51.086407,"lng":7.099303,"addr":"","type":"place_of_worship"},{"id":"xx511889_72515","name":"Islamic place","lat":51.188927,"lng":7.251488,"addr":"Karlstraße","type":"place_of_worship"},{"id":"xx521689_75408","name":"Moschee Emsdetten","lat":52.168874,"lng":7.540765,"addr":"","type":"place_of_worship"},{"id":"xx534572_99820","name":"DITIB Türkisch Islamische Kultur Verein e.V.","lat":53.457226,"lng":9.981971,"addr":"","type":"place_of_worship"},{"id":"xx543034_96643","name":"Diyanet Türkisch Islamischer Kultur Verein e.V. Ulu Camii","lat":54.303446,"lng":9.664329,"addr":"Wallstraße","type":"mosque"},{"id":"xx512256_67975","name":"IKBS Düsseldorf Camii","lat":51.225625,"lng":6.797548,"addr":"Ackerstraße","type":"place_of_worship"},{"id":"xx539254_95101","name":"Ulu Camii","lat":53.925394,"lng":9.510138,"addr":"","type":"place_of_worship"},{"id":"xx514631_69564","name":"Integrations- und Bildungszentrum Essen e.V.","lat":51.463096,"lng":6.956396,"addr":"Altendorfer Straße","type":"place_of_worship"},{"id":"xx515262_74695","name":"Islamisches Kulturzentrum \"Bedr\" e.V. Dortmund","lat":51.526208,"lng":7.469492,"addr":"Schüchtermannstraße","type":"place_of_worship"},{"id":"xx540810_99841","name":"DITIB Ulu Camii Neumünster","lat":54.080955,"lng":9.984132,"addr":"Kieler Straße","type":"mosque"},{"id":"xx538332_99510","name":"Veysel Karani Camii","lat":53.833152,"lng":9.950964,"addr":"Funkenberg","type":"place_of_worship"},{"id":"xx530858_88035","name":"Islamisches Kulturzentrum","lat":53.085844,"lng":8.803498,"addr":"","type":"place_of_worship"},{"id":"xx518525_84833","name":"Hz. Ali Camii Verl","lat":51.852502,"lng":8.483309,"addr":"Reckerdamm","type":"place_of_worship"},{"id":"xx515403_76989","name":"Moschee Unna","lat":51.540304,"lng":7.698871,"addr":"Höingstraße","type":"place_of_worship"},{"id":"xx515385_72275","name":"Herne Merkez Camii","lat":51.538462,"lng":7.227454,"addr":"Mont-Cenis-Straße","type":"place_of_worship"},{"id":"xx537360_99782","name":"Darul-Erkam-Moschee","lat":53.735958,"lng":9.978241,"addr":"Quickborner Straße","type":"place_of_worship"},{"id":"xx531827_79981","name":"Yunus Emre Moschee","lat":53.18271,"lng":7.998097,"addr":"Mühlenstraße","type":"place_of_worship"},{"id":"xx513817_74522","name":"Mevlana Moschee","lat":51.381741,"lng":7.452211,"addr":"Eckeseyer Straße","type":"place_of_worship"},{"id":"xx509630_70073","name":"Hamza Moschee","lat":50.963049,"lng":7.007252,"addr":"","type":"place_of_worship"},{"id":"xx509603_70040","name":"AKEV Bediüzzaman e.V.","lat":50.960317,"lng":7.003974,"addr":"Wiener Platz","type":"community_centre"},{"id":"xx507388_70928","name":"Bonner Moschee","lat":50.738791,"lng":7.092837,"addr":"Maxstraße","type":"place_of_worship"},{"id":"xx509117_80122","name":"Islamisches Gemeindezentrum Siegen e.V.","lat":50.91169,"lng":8.012195,"addr":"Königstraße","type":"place_of_worship"},{"id":"xx505974_86829","name":"DITIB","lat":50.59743,"lng":8.682865,"addr":"Marburger Straße","type":"place_of_worship"},{"id":"xx518277_81392","name":"Islamic place","lat":51.827702,"lng":8.139203,"addr":"","type":"place_of_worship"},{"id":"xx507704_74534","name":"DITIB Zentralmoschee Eitorf","lat":50.770389,"lng":7.453378,"addr":"","type":"place_of_worship"},{"id":"xx514797_71410","name":"Eyüp Sultan Camii","lat":51.479656,"lng":7.141039,"addr":"","type":"place_of_worship"},{"id":"xx523775_97301","name":"DİTİB-Moschee","lat":52.377522,"lng":9.730068,"addr":"Stiftstraße","type":"place_of_worship"},{"id":"xx505363_77588","name":"Ditib Moschee","lat":50.536265,"lng":7.758819,"addr":"","type":"place_of_worship"},{"id":"xx514799_71474","name":"Kultur Center Bosna Bochum e.V.","lat":51.479899,"lng":7.147356,"addr":"Hochstraße","type":"place_of_worship"},{"id":"xx535134_99889","name":"Muradiye Camii","lat":53.513354,"lng":9.988915,"addr":"","type":"place_of_worship"},{"id":"xx513382_94938","name":"Masjid Tauhid Moschee","lat":51.338166,"lng":9.493779,"addr":"","type":"place_of_worship"},{"id":"xx537893_94233","name":"Islamic place","lat":53.78935,"lng":9.423282,"addr":"","type":"place_of_worship"},{"id":"xx501029_85514","name":"Sultan-Moschee","lat":50.102926,"lng":8.551391,"addr":"","type":"place_of_worship"},{"id":"xx513345_94964","name":"Yunus Emre Camii","lat":51.334496,"lng":9.496423,"addr":"","type":"place_of_worship"},{"id":"xx535569_99653","name":"Mevlana Moschee","lat":53.556892,"lng":9.965261,"addr":"","type":"place_of_worship"},{"id":"xx516054_70833","name":"Yeni Camii Westerholt","lat":51.605431,"lng":7.083312,"addr":"Geschwisterstraße","type":"place_of_worship"},{"id":"xx520360_85713","name":"Bosniakischer Kulturverein Selam e. V.","lat":52.036022,"lng":8.571294,"addr":"Ziegelstraße","type":"place_of_worship"},{"id":"xx520252_85397","name":"Islamisches Zentrum Bielefeld","lat":52.025207,"lng":8.539707,"addr":"","type":"place_of_worship"},{"id":"xx513351_70541","name":"Ashab'i Suffa Camii","lat":51.335076,"lng":7.05411,"addr":"","type":"place_of_worship"},{"id":"xx513487_71124","name":"Bosniakische Moschee","lat":51.348715,"lng":7.112427,"addr":"","type":"place_of_worship"},{"id":"xx513362_70523","name":"Ibrahim Xelilullah Moschee","lat":51.336155,"lng":7.052345,"addr":"","type":"place_of_worship"},{"id":"xx513335_70534","name":"Masjed Assalam","lat":51.333522,"lng":7.053355,"addr":"","type":"place_of_worship"},{"id":"xx513364_70472","name":"Yeni Cami","lat":51.336409,"lng":7.047168,"addr":"","type":"place_of_worship"},{"id":"xx512119_68116","name":"El-Muhaxhirin-Moschee - Albanisches Kulturzentrum e.V.","lat":51.211908,"lng":6.811573,"addr":"Mindener Straße","type":"place_of_worship"},{"id":"xx533314_98824","name":"Arrahm moschee - Islamische Gemeinde Buchholz e.V.","lat":53.331377,"lng":9.88237,"addr":"Hamburger Straße","type":"place_of_worship"},{"id":"xx520346_85337","name":"Merkez Cami-i","lat":52.034585,"lng":8.533706,"addr":"Ernst-Rein-Straße","type":"place_of_worship"},{"id":"xx516068_70895","name":"Westerholt Camii (VIKZ)","lat":51.606754,"lng":7.089507,"addr":"Arenbergstraße","type":"place_of_worship"},{"id":"xx514728_67825","name":"Duisburg Meiderich Haci Bayram Camii","lat":51.472818,"lng":6.782543,"addr":"Duisburg","type":"place_of_worship"},{"id":"xx525005_94567","name":"Mevlana Moschee","lat":52.500518,"lng":9.456718,"addr":"Wunstorfer Straße","type":"place_of_worship"},{"id":"xx514938_67642","name":"Uthman-II.-Moschee","lat":51.493755,"lng":6.764174,"addr":"Steigerstraße","type":"place_of_worship"},{"id":"xx514997_67519","name":"Masdschid Ali","lat":51.499662,"lng":6.751855,"addr":"Kaiser-Wilhelm-Straße","type":"place_of_worship"},{"id":"xx514448_79648","name":"Yeni Camii","lat":51.44483,"lng":7.964788,"addr":"","type":"place_of_worship"},{"id":"xx512039_64585","name":"Integrations- und Bildungsverein in Mönchengladbach e.V.","lat":51.203908,"lng":6.458465,"addr":"Neusser Straße","type":"place_of_worship"},{"id":"xx530723_89506","name":"Merkez Camii","lat":53.072334,"lng":8.950564,"addr":"","type":"place_of_worship"},{"id":"xx517080_78333","name":"Dzema'at Hamm","lat":51.708025,"lng":7.833322,"addr":"","type":"place_of_worship"},{"id":"xx516449_72766","name":"Fatih Sultan Mehmed Moschee","lat":51.64492,"lng":7.276585,"addr":"","type":"place_of_worship"},{"id":"xx503641_87349","name":"Türkisch-Islamische Union","lat":50.364098,"lng":8.734923,"addr":"","type":"place_of_worship"},{"id":"xx513577_74603","name":"Bosnische Moschee","lat":51.357685,"lng":7.460331,"addr":"Augustastraße","type":"place_of_worship"},{"id":"xx513532_74540","name":"Islamischer Kulturverein Hagen","lat":51.353189,"lng":7.454006,"addr":"Minervastraße","type":"place_of_worship"},{"id":"xx513686_74626","name":"Sportverein As-Siddiq Hagen e.V.","lat":51.368612,"lng":7.462635,"addr":"Fehrbelliner Straße","type":"mosque"},{"id":"xx521046_93713","name":"Islamische Gemeinde Hameln","lat":52.104587,"lng":9.371278,"addr":"","type":"place_of_worship"},{"id":"xx512178_66620","name":"Alevitisches Gemeindezentrum Neuss","lat":51.217812,"lng":6.662019,"addr":"Kaarster Straße","type":"place_of_worship"},{"id":"xx501034_87023","name":"Masjid Indonesia Frankfurt","lat":50.1034,"lng":8.702334,"addr":"","type":"place_of_worship"},{"id":"xx513804_77677","name":"Türkisch-Islamischer Verein e.V. - Hemer Merkez Camii","lat":51.38037,"lng":7.767656,"addr":"","type":"place_of_worship"},{"id":"xx515628_73773","name":"Mevlana Camii","lat":51.562848,"lng":7.377319,"addr":"","type":"place_of_worship"},{"id":"xx503854_80664","name":"Islamic place","lat":50.385363,"lng":8.066414,"addr":"Eisenbahnstraße","type":"place_of_worship"},{"id":"xx515264_71114","name":"ZIB-Zentrum für Integration und Bildung in GE e.V.","lat":51.526446,"lng":7.111388,"addr":"Ahlmannshof","type":"place_of_worship"},{"id":"xx515131_70935","name":"Islamic place","lat":51.513075,"lng":7.093525,"addr":"Mulvanystraße","type":"place_of_worship"},{"id":"xx515489_72804","name":"Holthausener Bildung und Kulturverein e.V.","lat":51.548894,"lng":7.280367,"addr":"Castroper Straße","type":"place_of_worship"},{"id":"xx544997_95432","name":"Ahmadiyya Muslim Jamaat","lat":54.499713,"lng":9.54319,"addr":"Husumer Baum","type":"place_of_worship"},{"id":"xx512777_62505","name":"Nettetal Camii","lat":51.277732,"lng":6.250485,"addr":"","type":"place_of_worship"},{"id":"xx501317_87435","name":"Anssar Moschee - Afghanisches Kulturzentrum Maihan e.V.","lat":50.131723,"lng":8.743506,"addr":"Wächtersbacher Straße","type":"place_of_worship"},{"id":"xx512856_72235","name":"Verein des Islam und Frieden e.V.","lat":51.285552,"lng":7.223488,"addr":"","type":"mosque"},{"id":"xx512793_72187","name":"Kultur und Bildungszentrum Wuppertal e.V.","lat":51.279286,"lng":7.218698,"addr":"","type":"community_centre"},{"id":"xx522619_90501","name":"Kuba Camisi","lat":52.261881,"lng":9.050092,"addr":"","type":"place_of_worship"},{"id":"xx522642_80551","name":"Masjid Al Rahman","lat":52.264163,"lng":8.055079,"addr":"Iburger Straße","type":"place_of_worship"},{"id":"xx512559_63997","name":"IGMG","lat":51.255905,"lng":6.399703,"addr":"","type":"place_of_worship"},{"id":"xx522737_80577","name":"Mevlana Moschee","lat":52.273705,"lng":8.057727,"addr":"Eisenbahnstraße","type":"place_of_worship"},{"id":"xx512485_71231","name":"Wuppertaler Integrations-und Bildungsverein e.V.","lat":51.248518,"lng":7.123147,"addr":"Friedrich-Ebert-Straße","type":"place_of_worship"},{"id":"xx530653_87793","name":"Abu Bakr Moschee","lat":53.065257,"lng":8.779264,"addr":"Duckwitzstraße","type":"place_of_worship"},{"id":"xx515572_73827","name":"Yunus-Emre-Camii-Moschee","lat":51.557223,"lng":7.382695,"addr":"","type":"place_of_worship"},{"id":"xx512760_88835","name":"Bayazit Moschee DITIB","lat":51.27602,"lng":8.88352,"addr":"Gabelsberger Straße","type":"place_of_worship"},{"id":"xx501406_81538","name":"Islamic place","lat":50.140571,"lng":8.153824,"addr":"","type":"place_of_worship"},{"id":"xx516186_74177","name":"Mimar Sinan Camii DiYanet Türkisch-Islamischer Kultur Verein e.V. Waltrop","lat":51.618612,"lng":7.417695,"addr":"","type":"place_of_worship"},{"id":"xx511764_79667","name":"Ayasofya-Moschee","lat":51.17643,"lng":7.966689,"addr":"","type":"place_of_worship"},{"id":"xx514026_67515","name":"Dschamie Aya Sufia","lat":51.402564,"lng":6.751536,"addr":"Wanheimer Straße","type":"place_of_worship"},{"id":"xx512620_68099","name":"Barla Medresesi Düsseldorf","lat":51.261978,"lng":6.80987,"addr":"Münsterstraße","type":"place_of_worship"},{"id":"xx522948_89131","name":"Ar-Rahman Moschee","lat":52.294839,"lng":8.913106,"addr":"","type":"place_of_worship"},{"id":"xx522900_89325","name":"Deutsch-muslimische Gemeinde e. V.","lat":52.290016,"lng":8.932477,"addr":"","type":"place_of_worship"},{"id":"xx514794_68774","name":"Atib Osmanli Camii Kultur- und Bildungszentrum e. V.","lat":51.479365,"lng":6.877416,"addr":"","type":"place_of_worship"},{"id":"xx506604_67924","name":"Islamischer Bildungsverein und As-Salâm-Moschee Euskirchen","lat":50.660391,"lng":6.792447,"addr":"Kölner Straße","type":"place_of_worship"},{"id":"xx536791_98508","name":"Kham-i-Sadat e.V.","lat":53.679052,"lng":9.850802,"addr":"Dorfstraße","type":"place_of_worship"},{"id":"xx531024_87949","name":"Ahl-al-Bait-Kulturgemeinde Bremen e.V.","lat":53.102416,"lng":8.79488,"addr":"Holsteiner Straße","type":"place_of_worship"},{"id":"xx501313_87436","name":"Islamische Informations- und Serviceleistungen e.V. (IIS)","lat":50.131312,"lng":8.743638,"addr":"Wächtersbacher Straße","type":"place_of_worship"},{"id":"xx512175_67885","name":"Masjid Omar / Marokkanisch - Islamische Moscheegemeinde e.V.","lat":51.217494,"lng":6.788503,"addr":"Adersstraße","type":"place_of_worship"},{"id":"xx512181_67895","name":"Maulana Moschee - Türk. Islamischer Verein e.V.","lat":51.218092,"lng":6.789494,"addr":"Mintropstraße","type":"place_of_worship"},{"id":"xx512261_67962","name":"al-Markaz al-Islami - Islamisches Zentrum e.V.","lat":51.226131,"lng":6.79618,"addr":"Worringer Straße","type":"place_of_worship"},{"id":"xx512081_67669","name":"Bosnisches Islamisches Kulturzentrum e.V.","lat":51.208055,"lng":6.766872,"addr":"Niederstraße","type":"place_of_worship"},{"id":"xx511757_68347","name":"Fidan - Türkischer Kultur und Sport e.V","lat":51.175736,"lng":6.834725,"addr":"Henkelstraße","type":"place_of_worship"},{"id":"xx512629_68142","name":"Islamisch Albanisches Kulturzentrum e.V","lat":51.262856,"lng":6.814242,"addr":"Westfalenstraße","type":"place_of_worship"},{"id":"xx501009_85291","name":"Hassan Moschee - Marrokkanischer Kulturverein e.V.","lat":50.1009,"lng":8.529062,"addr":"Silostraße","type":"place_of_worship"},{"id":"xx500887_86483","name":"Mevlana Moschee","lat":50.088664,"lng":8.648275,"addr":"Kelsterbacher Straße","type":"place_of_worship"},{"id":"xx501068_86664","name":"Pak Dar-ul-Islam - Bangladesch islamisches Zentrum","lat":50.106777,"lng":8.666435,"addr":"Münchener Straße","type":"place_of_worship"},{"id":"xx501068_86667","name":"Moschee Omar Bin Al-Khattab","lat":50.106845,"lng":8.666703,"addr":"Münchener Straße","type":"place_of_worship"},{"id":"xx501098_86908","name":"Hamidiye Moschee","lat":50.109795,"lng":8.690846,"addr":"Hinter der Schönen Aussicht","type":"place_of_worship"},{"id":"xx500962_87680","name":"Al Fath Moschee - Marokkanisch Islamisches Kulturzentrum e.V.","lat":50.096212,"lng":8.767985,"addr":"Waldstraße","type":"place_of_worship"},{"id":"xx500979_87547","name":"Camii Offenbach","lat":50.097906,"lng":8.754677,"addr":"Marienstraße","type":"place_of_worship"},{"id":"xx501301_87449","name":"Gamaat Bismi Allah e. V.","lat":50.130105,"lng":8.744874,"addr":"Sontraer Straße","type":"place_of_worship"},{"id":"xx501234_87676","name":"Eyüp Sultan Camii","lat":50.123441,"lng":8.767639,"addr":"Mittelseestraße","type":"place_of_worship"},{"id":"xx501635_86197","name":"As-Salam-Moschee e.V.","lat":50.163525,"lng":8.619693,"addr":"Thomas-Mann-Straße","type":"place_of_worship"},{"id":"xx501643_86373","name":"TUN-Moschee Frankfurt e.V.","lat":50.164263,"lng":8.637262,"addr":"Oberschelder Weg","type":"place_of_worship"},{"id":"xx500661_85298","name":"IGMG Kelsterbach e.V.","lat":50.066062,"lng":8.529802,"addr":"Bergstraße","type":"place_of_worship"},{"id":"xx500734_85020","name":"Marokkanischer Gemeindeverein Hattersheim e. V.","lat":50.073396,"lng":8.501973,"addr":"Schützenstraße","type":"place_of_worship"},{"id":"xx505441_72572","name":"Aise-Moschee Sinzig","lat":50.544121,"lng":7.25718,"addr":"Lindenstraße","type":"place_of_worship"},{"id":"xx515384_72631","name":"Verband der Islamischen Kulturzentren e.V.","lat":51.538432,"lng":7.263057,"addr":"Ringstraße","type":"place_of_worship"},{"id":"xx511859_71841","name":"Islamic place","lat":51.185893,"lng":7.184121,"addr":"Waldstraße","type":"place_of_worship"},{"id":"xx502714_89662","name":"KUBA CAMII Türkisch Islamische Gemeinde","lat":50.271439,"lng":8.966164,"addr":"","type":"place_of_worship"},{"id":"xx507730_62269","name":"Diyanet","lat":50.773016,"lng":6.226865,"addr":"","type":"place_of_worship"},{"id":"xx517493_93869","name":"Türkisch-Islamischer Kulturverein","lat":51.749343,"lng":9.386891,"addr":"Im Winkel","type":"place_of_worship"},{"id":"xx505473_96794","name":"Sunnah-Moschee","lat":50.547328,"lng":9.679434,"addr":"Von-Schildeck-Straße","type":"place_of_worship"},{"id":"xx522706_77360","name":"DITIB Moschee Ibbenbüren","lat":52.270624,"lng":7.736023,"addr":"Wilhelmstraße","type":"place_of_worship"},{"id":"xx512205_67995","name":"Sultan Murad Moschee","lat":51.220522,"lng":6.799547,"addr":"Kölner Straße","type":"place_of_worship"},{"id":"xx512168_67938","name":"AKEV","lat":51.216848,"lng":6.793837,"addr":"Ellerstraße","type":"community_centre"},{"id":"xx512100_67770","name":"Deutsch Islamische Moschee Stiftung DIMS","lat":51.21002,"lng":6.77704,"addr":"Bachstraße","type":"place_of_worship"},{"id":"xx512840_71705","name":"Libanesischer Mutter und Kind Verein e.V.","lat":51.284007,"lng":7.170531,"addr":"Konrad-Adenauer-Straße","type":"place_of_worship"},{"id":"xx512720_72224","name":"Kurdischer Kulturverein e.V.","lat":51.272004,"lng":7.222441,"addr":"Werléstraße","type":"place_of_worship"},{"id":"xx512664_71524","name":"Masjid al-Rahma","lat":51.266446,"lng":7.152406,"addr":"Opphofer Straße","type":"place_of_worship"},{"id":"xx511212_91244","name":"DITIB","lat":51.121162,"lng":9.124403,"addr":"","type":"mosque"},{"id":"xx524169_95968","name":"IGMG Garbsen","lat":52.416877,"lng":9.596777,"addr":"Sandstraße","type":"place_of_worship"},{"id":"xx523103_86561","name":"Türkisch-islamischer Verein","lat":52.310334,"lng":8.656143,"addr":"","type":"place_of_worship"},{"id":"xx515982_76585","name":"Kamen Islam Birliği Küba Mescidi","lat":51.598158,"lng":7.658539,"addr":"","type":"place_of_worship"},{"id":"xx534577_99828","name":"El-Iman Moschee e.V.","lat":53.457742,"lng":9.982797,"addr":"","type":"place_of_worship"},{"id":"xx515452_73331","name":"Islamic place","lat":51.545169,"lng":7.333053,"addr":"Bodelschwingher Straße","type":"place_of_worship"},{"id":"xx514492_67043","name":"Homburger Verein zur Förderung der Bildung und Kultur e. V.","lat":51.449207,"lng":6.704269,"addr":"","type":"place_of_worship"},{"id":"xx515200_70968","name":"Al-Noor Moschee","lat":51.520006,"lng":7.096829,"addr":"Münchener Straße","type":"place_of_worship"},{"id":"xx511718_71831","name":"Ayasofya Moschee","lat":51.171821,"lng":7.183112,"addr":"","type":"place_of_worship"},{"id":"xx523299_91965","name":"Islamische Gemeinschaft Milli Görüs","lat":52.329857,"lng":9.196509,"addr":"","type":"place_of_worship"},{"id":"xx523309_91916","name":"Islamisches Zentrum Stadthagen e.V.","lat":52.330901,"lng":9.191643,"addr":"","type":"place_of_worship"},{"id":"xx540759_99771","name":"Fatih Moschee","lat":54.075942,"lng":9.977097,"addr":"Färberstraße","type":"place_of_worship"},{"id":"xx509376_70190","name":"Al-Nur Moschee","lat":50.937644,"lng":7.018959,"addr":"Miltenberger Straße","type":"place_of_worship"},{"id":"xx509418_70106","name":"Ar-Rahman Moschee","lat":50.941797,"lng":7.010639,"addr":"Eythstraße","type":"mosque"},{"id":"xx515273_74640","name":"Darussalam Moschee","lat":51.527295,"lng":7.463988,"addr":"Burgholzstraße","type":"place_of_worship"},{"id":"xx515692_75207","name":"Ibadullah Camii - Türkisch Islamischer Kulturverein","lat":51.569218,"lng":7.5207,"addr":"Altenderner Straße","type":"place_of_worship"},{"id":"xx515290_74633","name":"Abu Bakr Moschee","lat":51.52896,"lng":7.463275,"addr":"Carl-Holtschneider-Straße","type":"place_of_worship"},{"id":"xx515238_74564","name":"Al-Fath Moschee","lat":51.523761,"lng":7.456387,"addr":"Mallinckrodtstraße","type":"place_of_worship"},{"id":"xx514928_75445","name":"Marokkanisch-Islamische Begegnungsstätte","lat":51.492768,"lng":7.544517,"addr":"Schüruferstraße","type":"place_of_worship"},{"id":"xx515454_74842","name":"Bosnische Moschee - Islamisches Kulturzentrum e.V.","lat":51.545359,"lng":7.484245,"addr":"Derner Straße","type":"place_of_worship"},{"id":"xx515214_74663","name":"Dortmund Merkez Büyük Cami","lat":51.521384,"lng":7.466277,"addr":"Kielstraße","type":"place_of_worship"},{"id":"xx514722_74322","name":"Mescid-i Kuba","lat":51.472235,"lng":7.43224,"addr":"Kieferstraße","type":"place_of_worship"},{"id":"xx515130_74387","name":"Sultan Ahmet Camii - Islamischer Verein Dortmund e.V.","lat":51.513019,"lng":7.4387,"addr":"Ofenstraße","type":"place_of_worship"},{"id":"xx515208_74796","name":"Tadschikische Gesellschaft NUR e. V.","lat":51.520817,"lng":7.479583,"addr":"Oesterholzstraße","type":"place_of_worship"},{"id":"xx501475_89246","name":"Badr Moschee","lat":50.147492,"lng":8.92455,"addr":"Breslauer Straße","type":"place_of_worship"},{"id":"xx501282_89291","name":"DITIB Merkez Camii","lat":50.128211,"lng":8.929147,"addr":"Leipziger Straße","type":"place_of_worship"},{"id":"xx501413_89284","name":"Islamisches Kultur Zentrum","lat":50.141293,"lng":8.928427,"addr":"Lamboystraße","type":"place_of_worship"},{"id":"xx500815_82349","name":"Darul-Taqwa-Moschee","lat":50.081457,"lng":8.234946,"addr":"Helenenstraße","type":"place_of_worship"},{"id":"xx514695_70125","name":"El-Moahidin, Marokkanischer Verein e.V","lat":51.46953,"lng":7.012465,"addr":"Overbergstraße","type":"place_of_worship"},{"id":"xx514637_69816","name":"Ditib - Bin Merkez Camii","lat":51.463694,"lng":6.981635,"addr":"Helenenstraße","type":"place_of_worship"},{"id":"xx515675_70462","name":"DITIB - Buer Merkez Camii","lat":51.567503,"lng":7.046216,"addr":"Horster Straße","type":"place_of_worship"},{"id":"xx523031_71520","name":"DITIB Türkisch Islamische Gemeinde","lat":52.303053,"lng":7.151992,"addr":"Hofstiege","type":"place_of_worship"},{"id":"xx504344_74547","name":"Ditib Ravza Camii Neuwied","lat":50.434374,"lng":7.45472,"addr":"Langendorfer Straße","type":"place_of_worship"},{"id":"xx510005_69538","name":"Abbes Alschakeri Gemeinde e.V.","lat":51.000515,"lng":6.95378,"addr":"Delmenhorster Straße","type":"place_of_worship"},{"id":"xx515501_74585","name":"Verein zur Förderung der Intergration und Bildung in Dortmund Eving e.V.","lat":51.550116,"lng":7.458474,"addr":"Bergstraße","type":"place_of_worship"},{"id":"xx515240_74713","name":"Islamisches Kulturzentrum \"Hidajeti\"","lat":51.523956,"lng":7.471254,"addr":"Bornstraße","type":"place_of_worship"},{"id":"xx521491_86385","name":"Verein zur Förderung der Erziehung und Bildung e.V.","lat":52.149073,"lng":8.638489,"addr":"Mittelpunktstraße","type":"place_of_worship"},{"id":"xx515871_75112","name":"VIKZ Gahmen Camii","lat":51.587065,"lng":7.511158,"addr":"","type":"place_of_worship"},{"id":"xx500799_82333","name":"Masjid Abu Bakr - Deutsch Somalischer e.V.","lat":50.079851,"lng":8.233256,"addr":"Bertramstraße","type":"place_of_worship"},{"id":"xx509630_70471","name":"IGMG-Zentrale Europa","lat":50.962955,"lng":7.047075,"addr":"Colonia-Allee","type":"mosque"},{"id":"xx508632_69237","name":"Afghanischer Kulturverein Köln Meschenich e.V.","lat":50.863152,"lng":6.923675,"addr":"Alte Brühler Straße","type":"place_of_worship"},{"id":"xx506485_83326","name":"Moschee","lat":50.648458,"lng":8.332598,"addr":"","type":"place_of_worship"},{"id":"xx520326_85414","name":"Mevlana Camii","lat":52.032599,"lng":8.541397,"addr":"Herforder Straße","type":"place_of_worship"},{"id":"xx520333_85417","name":"Süleymaniye Camii","lat":52.0333,"lng":8.541699,"addr":"Herforder Straße","type":"place_of_worship"},{"id":"xx515984_77749","name":"IGMG Ayasofya Camii Bönen","lat":51.59842,"lng":7.774913,"addr":"Bahnhofstraße","type":"place_of_worship"},{"id":"xx521261_86712","name":"Aleviten Gemeinde Herford und Umgebung e.V.","lat":52.126053,"lng":8.67117,"addr":"","type":"community_centre"},{"id":"xx516030_72774","name":"Ditib Kuba Moschee","lat":51.602954,"lng":7.277447,"addr":"","type":"place_of_worship"},{"id":"xx513237_65659","name":"Ditib Krefeld Fatih Camii","lat":51.323735,"lng":6.565858,"addr":"","type":"place_of_worship"},{"id":"xx531081_91484","name":"Ottersberg Camii","lat":53.108062,"lng":9.148395,"addr":"","type":"place_of_worship"},{"id":"xx507588_85405","name":"Hira Camii - Türkisch Islamischer Kulturverein","lat":50.75884,"lng":8.540534,"addr":"","type":"place_of_worship"},{"id":"xx507738_60908","name":"Islamische Gemeinschaft e.V.","lat":50.773839,"lng":6.090812,"addr":"Harscampstraße","type":"place_of_worship"},{"id":"xx507684_61149","name":"Türkischer Integrations- und Bildungsverein Aachen e.V.","lat":50.768399,"lng":6.114914,"addr":"Robert-Koch-Straße","type":"place_of_worship"},{"id":"xx518593_82860","name":"Islamic place","lat":51.859295,"lng":8.285955,"addr":"Egerstraße","type":"place_of_worship"},{"id":"xx512620_71462","name":"Moschee asch-Schami","lat":51.262026,"lng":7.14618,"addr":"Friedrichstraße","type":"place_of_worship"},{"id":"xx516465_77578","name":"Arrahman Moschee","lat":51.64654,"lng":7.75776,"addr":"","type":"place_of_worship"},{"id":"xx516790_78087","name":"Islamic place","lat":51.679028,"lng":7.808682,"addr":"","type":"mosque"},{"id":"xx508320_61242","name":"Suffa","lat":50.831996,"lng":6.124178,"addr":"Morsbacher Straße","type":"place_of_worship"},{"id":"xx516694_77964","name":"Camii Girisi - Bildungs- und Kulturverein Hamm-Zentrum e.V.","lat":51.669426,"lng":7.796416,"addr":"Wilhelmstraße","type":"place_of_worship"},{"id":"xx507889_87740","name":"Dar Al Salem","lat":50.788877,"lng":8.774048,"addr":"Friedrich-Ebert-Straße","type":"place_of_worship"},{"id":"xx513264_94706","name":"Al-Nur Moschee","lat":51.326403,"lng":9.47064,"addr":"","type":"place_of_worship"},{"id":"xx520102_85411","name":"Kasr-i Şirin","lat":52.010164,"lng":8.541139,"addr":"Detmolder Straße","type":"place_of_worship"},{"id":"xx535778_97321","name":"Al-Iman Moschee Wedel","lat":53.577807,"lng":9.732103,"addr":"","type":"place_of_worship"},{"id":"xx519926_85029","name":"Ulu Camii Brackwede","lat":51.992641,"lng":8.502873,"addr":"Gaswerkstraße","type":"place_of_worship"},{"id":"xx514638_66462","name":"Verein für Integration, Kultur und Bildung Moers Meerbeck e.V.","lat":51.463751,"lng":6.64622,"addr":"Barbarastraße","type":"place_of_worship"},{"id":"xx516828_83268","name":"Arabischer Verein Lippstadt eV","lat":51.682795,"lng":8.326817,"addr":"","type":"place_of_worship"},{"id":"xx514896_65911","name":"Repelener Kultur- und Bildungsverein e.V.","lat":51.489583,"lng":6.591092,"addr":"","type":"place_of_worship"},{"id":"xx514896_65908","name":"Masjid Al-Huda","lat":51.489554,"lng":6.59083,"addr":"","type":"place_of_worship"},{"id":"xx514899_65932","name":"Türkisch Islamische Gemeinde zu Moers Repelen eV","lat":51.489859,"lng":6.593188,"addr":"","type":"place_of_worship"},{"id":"xx514691_66021","name":"Islamischer Gemeinschaft Moers (Masjid-Omar) e.V","lat":51.469141,"lng":6.602056,"addr":"Raiffeisenstraße","type":"place_of_worship"},{"id":"xx513598_74631","name":"Milli-Görüsch-Ulu-Moschee Hagen","lat":51.359754,"lng":7.463055,"addr":"Elberfelder Straße","type":"place_of_worship"},{"id":"xx513554_74552","name":"Ahl-al-Bayt-Moschee","lat":51.355422,"lng":7.455196,"addr":"Bodelschwinghplatz","type":"place_of_worship"},{"id":"xx513605_74769","name":"Moscheeverein Ahl-al-Bayt-Dschami","lat":51.360523,"lng":7.476861,"addr":"Märkischer Ring","type":"place_of_worship"},{"id":"xx515033_68713","name":"Islamische Gemeinschaft","lat":51.503276,"lng":6.871309,"addr":"","type":"place_of_worship"},{"id":"xx524483_96078","name":"Bestattungsdienst Eslem","lat":52.448285,"lng":9.607843,"addr":"Siemensstraße","type":"mosque"},{"id":"xx509396_66857","name":"Ehl-i Beyt Moschee","lat":50.939613,"lng":6.685732,"addr":"Köln-Aachener-Straße","type":"place_of_worship"},{"id":"xx515101_73805","name":"Veysel Karani Camii","lat":51.510099,"lng":7.380503,"addr":"","type":"place_of_worship"},{"id":"xx516215_75291","name":"Islamic place","lat":51.62152,"lng":7.529089,"addr":"","type":"place_of_worship"},{"id":"xx517298_87877","name":"Afghanisch Islamische Gemeinde in Paderborn","lat":51.729805,"lng":8.787656,"addr":"Friedrich-List-Straße","type":"mosque"},{"id":"xx522731_80472","name":"Islamkolleg Deutschland","lat":52.273106,"lng":8.047166,"addr":"Große Hamkenstraße","type":"school"},{"id":"xx540760_99864","name":"Merkezefendi Camii Moschee","lat":54.075982,"lng":9.986406,"addr":"","type":"place_of_worship"},{"id":"xx513593_66485","name":"Yesil Camii","lat":51.359272,"lng":6.648533,"addr":"Niederstraße","type":"place_of_worship"},{"id":"xx536903_99810","name":"Norderstedt Camii","lat":53.690346,"lng":9.981009,"addr":"","type":"place_of_worship"},{"id":"xx502341_85944","name":"Al Hikma Moschee","lat":50.234117,"lng":8.594361,"addr":"Gartenfeldstraße","type":"place_of_worship"},{"id":"xx520243_84210","name":"IGMG – Islamische Gemeinschaft Millî Görüş, Regionalverband Nord-Ruhr e.V.","lat":52.024269,"lng":8.420965,"addr":"Haller Straße","type":"place_of_worship"},{"id":"xx514878_70646","name":"Islamische Union","lat":51.487817,"lng":7.064551,"addr":"Auf der Reihe","type":"place_of_worship"},{"id":"xx501348_87407","name":"Jamia Masjid Chausia","lat":50.134847,"lng":8.740669,"addr":"","type":"place_of_worship"},{"id":"xx509100_68042","name":"Türkisch-Islamische Gemeinde zu Frechen e.V.","lat":50.910011,"lng":6.804225,"addr":"Alte Straße","type":"mosque"},{"id":"xx515382_71560","name":"Islamic place","lat":51.538184,"lng":7.156034,"addr":"","type":"place_of_worship"},{"id":"xx531197_87551","name":"Bremer Ebrar Verein e.V.","lat":53.119665,"lng":8.75509,"addr":"","type":"mosque"},{"id":"xx505938_87357","name":"Islamische Gemeinde Gießen","lat":50.593803,"lng":8.735684,"addr":"Udersbergstraße","type":"place_of_worship"},{"id":"xx517731_93799","name":"DITIB Türkisch Islamische Kultur Verein e.V.","lat":51.773103,"lng":9.379945,"addr":"Wegetalstraße","type":"place_of_worship"},{"id":"xx507795_60992","name":"Alevitisches Kulturzentrum Aachen und Umgebung e.V.","lat":50.77953,"lng":6.099166,"addr":"Jülicher Straße","type":"place_of_worship"},{"id":"xx500824_82343","name":"Westend Moschee","lat":50.082355,"lng":8.234331,"addr":"Helenenstraße","type":"place_of_worship"},{"id":"xx534639_74637","name":"Al-Salam Islamisches Kulturzentrum Aurich e.V.","lat":53.463856,"lng":7.463701,"addr":"","type":"place_of_worship"},{"id":"xx503414_65901","name":"DITIB Türkisch islamische Gemeinde für Jünkerath e.V","lat":50.341411,"lng":6.590053,"addr":"Feusdorfer Straße","type":"place_of_worship"},{"id":"xx505965_86778","name":"Alevitische Gemeinde Gießen","lat":50.596522,"lng":8.677794,"addr":"Reichenberger Straße","type":"place_of_worship"},{"id":"xx500777_82353","name":"Islamische Gemeinde Wiesbaden","lat":50.077735,"lng":8.235263,"addr":"Rheinstraße","type":"place_of_worship"},{"id":"xx530636_89485","name":"Mescidi Aksa Camii","lat":53.063592,"lng":8.948486,"addr":"","type":"place_of_worship"},{"id":"xx505676_85020","name":"Alevitische. Gemeinde Wetzlar","lat":50.5676,"lng":8.502049,"addr":"Niedergirmeser Weg","type":"place_of_worship"},{"id":"xx505680_85017","name":"DITIB - Türkisch Islamische Gemeinde zu Wetzlar e.V.","lat":50.567997,"lng":8.501655,"addr":"Niedergirmeser Weg","type":"place_of_worship"},{"id":"xx507915_78662","name":"Sultan Ahmet Moschee","lat":50.791455,"lng":7.866236,"addr":"Ladestraße","type":"place_of_worship"},{"id":"xx515263_74815","name":"Kocatepe Camii Dortmund","lat":51.52634,"lng":7.481545,"addr":"Schlosserstraße","type":"place_of_worship"},{"id":"xx516038_74413","name":"Muslimischer Bereich des Kommunalfriedhofes","lat":51.603753,"lng":7.441321,"addr":"","type":"mosque"},{"id":"xx513905_67086","name":"Friemersheimer Bildungs- und Kulturverein e.V.","lat":51.390546,"lng":6.708575,"addr":"","type":"place_of_worship"},{"id":"xx535210_81096","name":"Al Khair Moschee","lat":53.520958,"lng":8.109632,"addr":"Börsenstraße","type":"place_of_worship"},{"id":"xx529905_76303","name":"Islamische Gemeinde Esterwegen","lat":52.990464,"lng":7.630282,"addr":"Alte Schulstraße","type":"place_of_worship"},{"id":"xx519938_76636","name":"Ar-Rahmah Moschee - Bosnjakisch-Albanische Kultur Münsterland e.V.","lat":51.993768,"lng":7.663627,"addr":"Königsberger Straße","type":"place_of_worship"},{"id":"xx508141_71545","name":"Alevitisches Kulturzentrum","lat":50.814113,"lng":7.154468,"addr":"","type":"place_of_worship"},{"id":"xx501169_88160","name":"Islamisch- Marokkanischer Förderungs- und Bildungsverein e.V    Alfurqan Moschee","lat":50.116899,"lng":8.815986,"addr":"","type":"place_of_worship"},{"id":"xx500875_87502","name":"Al Huda Moschee","lat":50.087504,"lng":8.750219,"addr":"","type":"place_of_worship"},{"id":"xx535056_99851","name":"Ayasofya Moschee","lat":53.505566,"lng":9.985112,"addr":"","type":"place_of_worship"},{"id":"xx500066_82484","name":"Eyüp Sultan Camii","lat":50.006633,"lng":8.248438,"addr":"Mombacher Straße","type":"place_of_worship"},{"id":"xx535164_99895","name":"Vahder-Moschee","lat":53.516396,"lng":9.989495,"addr":"","type":"place_of_worship"},{"id":"xx509169_67162","name":"Deutsch-Arabischet Kulturverein Horrem","lat":50.916886,"lng":6.716248,"addr":"","type":"place_of_worship"},{"id":"xx502890_90287","name":"Alevitische Gemeinde","lat":50.288955,"lng":9.028671,"addr":"","type":"place_of_worship"},{"id":"xx516704_69772","name":"Selimiye Moschee","lat":51.6704,"lng":6.977222,"addr":"","type":"place_of_worship"},{"id":"xx512022_66828","name":"DITIB Merkez Camii","lat":51.202224,"lng":6.682787,"addr":"","type":"place_of_worship"},{"id":"xx500469_85716","name":"Islamic place","lat":50.04693,"lng":8.571562,"addr":"","type":"place_of_worship"},{"id":"xx515057_67575","name":"Massjid Ar-Rahman","lat":51.505695,"lng":6.757534,"addr":"Feldstraße","type":"place_of_worship"},{"id":"xx507773_60970","name":"Masjed Assunnah","lat":50.777285,"lng":6.097032,"addr":"","type":"place_of_worship"},{"id":"xx511671_70836","name":"Selimiye Camii","lat":51.16706,"lng":7.083615,"addr":"","type":"place_of_worship"},{"id":"xx512680_65372","name":"Islamische Gemeinde Willich","lat":51.267985,"lng":6.53723,"addr":"","type":"place_of_worship"},{"id":"xx513194_94990","name":"Dawa Moschee مسجد الدعوة","lat":51.319367,"lng":9.499043,"addr":"","type":"place_of_worship"},{"id":"xx541915_90963","name":"Islamic place","lat":54.191547,"lng":9.096342,"addr":"","type":"place_of_worship"},{"id":"xx513060_62794","name":"Güzel Vadi Camii","lat":51.306034,"lng":6.279433,"addr":"","type":"place_of_worship"},{"id":"xx514224_68796","name":"Islamische Gemeinde Hamza Moschee","lat":51.42236,"lng":6.879573,"addr":"Friedrichstraße","type":"place_of_worship"},{"id":"xx505474_71450","name":"Islamic place","lat":50.547378,"lng":7.144992,"addr":"","type":"place_of_worship"},{"id":"xx508912_84654","name":"Islamic place","lat":50.891226,"lng":8.465357,"addr":"","type":"place_of_worship"},{"id":"xx517044_87356","name":"Hicret Cami-i","lat":51.704393,"lng":8.735586,"addr":"Breslauer Straße","type":"place_of_worship"},{"id":"xx519486_76479","name":"At-Tawba-Moschee","lat":51.94859,"lng":7.647871,"addr":"Lütkenbecker Weg","type":"place_of_worship"},{"id":"xx511522_69407","name":"Masjid Bilal","lat":51.152243,"lng":6.940655,"addr":"Richrather Straße","type":"place_of_worship"},{"id":"xx501466_89212","name":"Bosnisch-islamischer Kulturverein","lat":50.146592,"lng":8.921163,"addr":"","type":"place_of_worship"},{"id":"xx507844_80148","name":"Islamic place","lat":50.784433,"lng":8.014809,"addr":"In der Au","type":"place_of_worship"},{"id":"xx501200_89380","name":"Omar ibn al-Chattab Moschee","lat":50.119969,"lng":8.938002,"addr":"","type":"place_of_worship"},{"id":"xx518391_66199","name":"Ditib Türkische Moschee","lat":51.839121,"lng":6.61987,"addr":"","type":"place_of_worship"},{"id":"xx515287_74600","name":"Islamic place","lat":51.528706,"lng":7.459988,"addr":"","type":"place_of_worship"},{"id":"xx516192_72235","name":"Islamic place","lat":51.619223,"lng":7.223459,"addr":"Dortmunder Straße","type":"place_of_worship"},{"id":"xx511608_69829","name":"Islamic place","lat":51.160781,"lng":6.982862,"addr":"","type":"grave_yard"},{"id":"xx512064_66777","name":"Yunus Emre Camii","lat":51.206416,"lng":6.67774,"addr":"","type":"place_of_worship"},{"id":"xx505472_96881","name":"Imam Ali Mosque","lat":50.547225,"lng":9.688104,"addr":"","type":"place_of_worship"},{"id":"xx500064_82166","name":"Islamisches Kulturzentrum der Bosniaken","lat":50.006433,"lng":8.216633,"addr":"Canisiusstraße","type":"apartments"},{"id":"xx500121_82432","name":"Yunus-Emre-Moschee","lat":50.012104,"lng":8.243194,"addr":"Rheingauwall","type":"mosque"},{"id":"xx508734_68643","name":"Hürther Moschee","lat":50.873429,"lng":6.864297,"addr":"Alstädter Straße","type":"mosque"},{"id":"xx500493_81945","name":"Masjid-Badr-Moschee","lat":50.049349,"lng":8.19453,"addr":"Stielstraße","type":"mosque"},{"id":"xx501236_89164","name":"Bait-ul-Wahid Moschee","lat":50.123622,"lng":8.916383,"addr":"Hafenstraße","type":"yes"},{"id":"xx500065_82165","name":"Islamisches Kulturzentrum der Bosniaken","lat":50.006525,"lng":8.216528,"addr":"Canisiusstraße","type":"apartments"},{"id":"xx501236_89163","name":"Bait-ul-Wahid Moschee","lat":50.123626,"lng":8.916313,"addr":"Hafenstraße","type":"yes"},{"id":"xx535835_99434","name":"Fazle-Omar Moschee","lat":53.583536,"lng":9.943365,"addr":"Wieckstraße","type":"mosque"},{"id":"xx516003_70536","name":"Al-Aksa-Moschee","lat":51.600328,"lng":7.053563,"addr":"Am Freistuhl","type":"yes"},{"id":"xx523841_97293","name":"Ayasofya Moschee","lat":52.38408,"lng":9.729321,"addr":"Weidendamm","type":"mosque"},{"id":"xx531383_82299","name":"Haci Bayram Moschee","lat":53.138335,"lng":8.229916,"addr":"Emsstraße","type":"mosque"},{"id":"xx535832_99463","name":"Schule der Islamischen Republik Iran","lat":53.583211,"lng":9.946281,"addr":"Steenwisch","type":"school"},{"id":"xx501646_86373","name":"Islamic place","lat":50.164628,"lng":8.637292,"addr":"Ludwig-Reinheimer-Straße","type":"mosque"},{"id":"xx509736_68951","name":"Sufi-Zentrum Divan e.V. (Tekke)","lat":50.97358,"lng":6.895114,"addr":"Blériotstraße","type":"yes"},{"id":"xx501349_86242","name":"Islamic place","lat":50.134883,"lng":8.624182,"addr":"","type":"mosque"},{"id":"xx532186_87932","name":"Islamic place","lat":53.218609,"lng":8.793181,"addr":"Winkelstraße","type":"yes"},{"id":"xx521573_73330","name":"Muslimischer Friedhof","lat":52.15731,"lng":7.332995,"addr":"","type":"mosque"},{"id":"xx514867_74363","name":"Wali e.V.","lat":51.486722,"lng":7.436296,"addr":"Krückenweg","type":"yes"},{"id":"xx530450_86422","name":"Merkez Camii","lat":53.044955,"lng":8.642169,"addr":"Bienenschauer","type":"yes"},{"id":"xx542993_96333","name":"Muslimischer Teil","lat":54.299265,"lng":9.633292,"addr":"","type":"mosque"},{"id":"xx511520_64500","name":"Diyanet Merkez Camii","lat":51.152037,"lng":6.450047,"addr":"Duvenstraße","type":"yes"},{"id":"xx501349_86241","name":"Islamic place","lat":50.134868,"lng":8.624138,"addr":"","type":"mosque"},{"id":"xx530449_86421","name":"Merkez Camii","lat":53.044939,"lng":8.642134,"addr":"Bienenschauer","type":"yes"},{"id":"xx542992_96332","name":"Muslimischer Teil","lat":54.299244,"lng":9.633196,"addr":"","type":"mosque"},{"id":"xx500072_87927","name":"Islamic place","lat":50.007242,"lng":8.792719,"addr":"","type":"mosque"},{"id":"xx509066_80127","name":"Selimiye Camii","lat":50.906648,"lng":8.012719,"addr":"Zum Wildgehege","type":"mosque"},{"id":"xx507356_71372","name":"Arabisches Zentrum (Al-Muhsinin-Moschee)","lat":50.735613,"lng":7.137219,"addr":"Schwarzer Weg","type":"yes"},{"id":"xx512356_70683","name":"Moschee Al-Baraka","lat":51.235566,"lng":7.068316,"addr":"Bahnstraße","type":"mosque"},{"id":"xx507361_70602","name":"Assonnah-Moschee","lat":50.736086,"lng":7.060206,"addr":"Siemensstraße","type":"apartments"},{"id":"xx531154_87530","name":"Fatih Moschee","lat":53.11543,"lng":8.752964,"addr":"Stapelfeldtstraße","type":"mosque"},{"id":"xx509567_79933","name":"Fatih Camii","lat":50.956713,"lng":7.993312,"addr":"Bahnhofstraße","type":"yes"},{"id":"xx515265_74632","name":"Eyüp Sultan Moschee","lat":51.52646,"lng":7.463206,"addr":"Haydnstraße","type":"yes"},{"id":"xx500054_69451","name":"Islamischer Friedhof","lat":50.005373,"lng":6.945138,"addr":"","type":"mosque"},{"id":"xx502181_82645","name":"Mescid-i Aksa","lat":50.218085,"lng":8.264516,"addr":"Wiesbadener Straße","type":"mosque"},{"id":"xx515352_74098","name":"Süleyman Camii","lat":51.535176,"lng":7.409813,"addr":"Parsevalstraße","type":"yes"},{"id":"xx515306_74555","name":"Hanif Moschee / Bildungszentrum e.V.","lat":51.530597,"lng":7.455507,"addr":"Uhlandstraße","type":"mosque"},{"id":"xx515434_74784","name":"Ulu Cami","lat":51.543433,"lng":7.478397,"addr":"Gründlingsweg","type":"mosque"},{"id":"xx515281_74855","name":"Omar Ibn Al-Khattab Moschee - islamisch marokkanisches Kulturzentrum e.V.","lat":51.528092,"lng":7.485537,"addr":"Hirtenstraße","type":"yes"},{"id":"xx501065_87667","name":"Islamic place","lat":50.106454,"lng":8.766657,"addr":"Sandgasse","type":"mosque"},{"id":"xx533681_71954","name":"Eyüp-Sultan-Moschee","lat":53.368125,"lng":7.195416,"addr":"Bahnhofsplatz","type":"yes"},{"id":"xx515406_75187","name":"DITIB Ayasofya Moschee Scharnhorst","lat":51.540572,"lng":7.518708,"addr":"Wambeler Holz","type":"yes"},{"id":"xx515254_74559","name":"Yeni Cami -Moschee des Verbandes der Islamischen Kulturzentren ( VIKZ )","lat":51.525408,"lng":7.455938,"addr":"Bachstraße","type":"yes"},{"id":"xx515256_74598","name":"Anadolu Camii Moschee","lat":51.525566,"lng":7.459811,"addr":"","type":"yes"},{"id":"xx500980_87553","name":"Islamic place","lat":50.098005,"lng":8.755268,"addr":"","type":"mosque"},{"id":"xx545273_95613","name":"Domfriedhof","lat":54.527257,"lng":9.561317,"addr":"","type":"mosque"},{"id":"xx515053_70487","name":"Fatih Moschee","lat":51.505257,"lng":7.048684,"addr":"","type":"yes"},{"id":"xx501301_87448","name":"Islamic place","lat":50.130082,"lng":8.744817,"addr":"Sontraer Straße","type":"mosque"},{"id":"xx501064_87667","name":"Islamic place","lat":50.10644,"lng":8.766652,"addr":"Sandgasse","type":"mosque"},{"id":"xx500980_87552","name":"Islamic place","lat":50.098004,"lng":8.755227,"addr":"","type":"mosque"},{"id":"xx545273_95609","name":"Domfriedhof","lat":54.527326,"lng":9.560948,"addr":"","type":"mosque"},{"id":"xx500962_87681","name":"Islamic place","lat":50.096221,"lng":8.768058,"addr":"Waldstraße","type":"mosque"},{"id":"xx506701_71968","name":"Königswinter Moschee","lat":50.670083,"lng":7.196821,"addr":"Am Stadtgarten","type":"mosque"},{"id":"xx509594_70133","name":"Alevitisches Gemeindehaus Hacı Bektaş Veli (Cemevi)","lat":50.959408,"lng":7.013251,"addr":"Montanusstraße","type":"yes"},{"id":"xx508230_90106","name":"VIKZ Moschee","lat":50.823044,"lng":9.0106,"addr":"Albert-Schweitzer-Straße","type":"mosque"},{"id":"xx514565_69660","name":"Merkez-Moschee","lat":51.456531,"lng":6.965973,"addr":"In der Hagenbeck","type":"yes"},{"id":"xx508144_71448","name":"Selimiye Cami Moschee","lat":50.814383,"lng":7.14477,"addr":"Sieglarer Straße","type":"mosque"},{"id":"xx515315_98936","name":"Salam-Moschee","lat":51.531541,"lng":9.893618,"addr":"Pestalozziweg","type":"yes"},{"id":"xx536062_98990","name":"Islamische Gemeinde Schnelsen-Eidelstedt e.V.","lat":53.606196,"lng":9.89898,"addr":"Elbgaustraße","type":"mosque"},{"id":"xx514381_73281","name":"Bosniakisches Kulturzentrum Witten","lat":51.43805,"lng":7.328115,"addr":"Breite Straße","type":"mosque"},{"id":"xx508342_69206","name":"Islamisches Gemeindezentrum Brühl e.V.","lat":50.834182,"lng":6.920605,"addr":"Bergerstraße","type":"yes"},{"id":"xx507486_70800","name":"Süleymaniye Moschee","lat":50.748585,"lng":7.080026,"addr":"Kölnstraße","type":"house"},{"id":"xx506811_71624","name":"Bad Godesberg Camii","lat":50.681118,"lng":7.162357,"addr":"Koblenzer Straße","type":"yes"},{"id":"xx514258_72864","name":"Islamic place","lat":51.42578,"lng":7.286442,"addr":"Ruhrtal","type":"commercial"},{"id":"xx514256_72868","name":"Fatih Camii","lat":51.425578,"lng":7.286761,"addr":"Ruhrtal","type":"mosque"},{"id":"xx512028_68530","name":"Alevitische Gemeinde Düsseldorf","lat":51.202778,"lng":6.853042,"addr":"Am Kleinforst","type":"yes"},{"id":"xx535510_99306","name":"Ulu Camii","lat":53.551043,"lng":9.93056,"addr":"Bahrenfelder Straße","type":"yes"},{"id":"xx514446_73678","name":"Ayasofya Cami","lat":51.444648,"lng":7.367756,"addr":"Annenstraße","type":"apartments"},{"id":"xx507797_60714","name":"Bilal-Moschee","lat":50.779734,"lng":6.071398,"addr":"Professor-Pirlet-Straße","type":"mosque"},{"id":"xx509594_70132","name":"Alevitisches Gemeindehaus Hacı Bektaş Veli (Cemevi)","lat":50.959417,"lng":7.013215,"addr":"Montanusstraße","type":"yes"},{"id":"xx508144_71447","name":"Selimiye Cami Moschee","lat":50.814372,"lng":7.14473,"addr":"Sieglarer Straße","type":"mosque"},{"id":"xx514380_73281","name":"Bosniakisches Kulturzentrum Witten","lat":51.438046,"lng":7.328114,"addr":"Breite Straße","type":"mosque"},{"id":"xx514256_72867","name":"Fatih Camii","lat":51.425567,"lng":7.28673,"addr":"Ruhrtal","type":"mosque"},{"id":"xx535510_99305","name":"Ulu Camii","lat":53.551044,"lng":9.930543,"addr":"Bahrenfelder Straße","type":"yes"},{"id":"xx514446_73677","name":"Ayasofya Cami","lat":51.444639,"lng":7.36773,"addr":"Annenstraße","type":"apartments"},{"id":"xx508093_64738","name":"Fatih Moschee","lat":50.809301,"lng":6.473795,"addr":"Veldener Straße","type":"yes"},{"id":"xx536343_99049","name":"Bait-ur-Rasheed Moschee","lat":53.634297,"lng":9.904862,"addr":"Pinneberger Straße","type":"mosque"},{"id":"xx515055_70072","name":"Abu Bakr - Islamischer Bund e.V.","lat":51.505518,"lng":7.007169,"addr":"Altenessener Straße","type":"mosque"},{"id":"xx515091_70197","name":"Yeni Cami","lat":51.509128,"lng":7.019723,"addr":"Heßlerstraße","type":"yes"},{"id":"xx508300_69657","name":"Mimar Sinan Moschee","lat":50.829985,"lng":6.965656,"addr":"Hubertusstraße","type":"yes"},{"id":"xx528822_84124","name":"Imam Al Harariye Moschee","lat":52.8822,"lng":8.412419,"addr":"Daimlerstraße","type":"mosque"},{"id":"xx501015_86544","name":"Islamic place","lat":50.101466,"lng":8.654409,"addr":"Heilbronner Straße","type":"mosque"},{"id":"xx513800_67375","name":"Ayyub-Sultan-Moschee","lat":51.379987,"lng":6.737523,"addr":"Ehinger Straße","type":"yes"},{"id":"xx515296_68750","name":"Mevlana Moschee","lat":51.529635,"lng":6.874985,"addr":"Wasgenwaldstraße","type":"yes"},{"id":"xx515470_99349","name":"Al-Iman-Moschee","lat":51.547028,"lng":9.934852,"addr":"","type":"place_of_worship"},{"id":"xx511707_70788","name":"Bildung und Begegnungsstätte Egitim Kültür Evi","lat":51.170697,"lng":7.078842,"addr":"Kasernenstraße","type":"yes"},{"id":"xx511706_70787","name":"DITIB Moschee Solingen","lat":51.17056,"lng":7.078697,"addr":"Kasernenstraße","type":"yes"},{"id":"xx536343_99048","name":"Bait-ur-Rasheed Moschee","lat":53.634329,"lng":9.904824,"addr":"Pinneberger Straße","type":"mosque"},{"id":"xx508300_69656","name":"Mimar Sinan Moschee","lat":50.829988,"lng":6.965638,"addr":"Hubertusstraße","type":"yes"},{"id":"xx515470_99348","name":"Al-Iman-Moschee","lat":51.547044,"lng":9.934842,"addr":"","type":"place_of_worship"},{"id":"xx519459_88796","name":"Merkez Camii","lat":51.945932,"lng":8.879559,"addr":"Lemgoer Straße","type":"yes"},{"id":"xx519431_88663","name":"Islamisches Kommunikationszentrum Detmold e.V.","lat":51.943061,"lng":8.866332,"addr":"Industriestraße","type":"yes"},{"id":"xx509087_61687","name":"Fatih Camii - Moschee","lat":50.908737,"lng":6.168715,"addr":"Herzogenrather Weg","type":"mosque"},{"id":"xx530173_87808","name":"Nasir-Moschee","lat":53.017276,"lng":8.780768,"addr":"Marie-Curie-Straße","type":"mosque"},{"id":"xx513003_68382","name":"Islamic place","lat":51.300293,"lng":6.838229,"addr":"Am Westbahnhof","type":"yes"},{"id":"xx519197_79660","name":"Hicretmoschee Freckenhorst","lat":51.919737,"lng":7.965958,"addr":"Hoetmarer Straße","type":"yes"},{"id":"xx513892_70827","name":"Mescidi Hicret","lat":51.389187,"lng":7.082687,"addr":"Kupferdreher Straße","type":"mosque"},{"id":"xx519430_88663","name":"Islamisches Kommunikationszentrum Detmold e.V.","lat":51.943024,"lng":8.866319,"addr":"Industriestraße","type":"yes"},{"id":"xx519197_79659","name":"Hicretmoschee Freckenhorst","lat":51.919728,"lng":7.965949,"addr":"Hoetmarer Straße","type":"yes"},{"id":"xx513892_70826","name":"Mescidi Hicret","lat":51.38921,"lng":7.082646,"addr":"Kupferdreher Straße","type":"mosque"},{"id":"xx511683_67351","name":"Anadolu Moschee","lat":51.168304,"lng":6.73514,"addr":"Schellbergstraße","type":"mosque"},{"id":"xx516198_76285","name":"Moschee","lat":51.619819,"lng":7.628538,"addr":"","type":"yes"},{"id":"xx511669_69165","name":"Emir-Sultan-Moschee","lat":51.166906,"lng":6.916545,"addr":"Otto-Hahn-Straße","type":"mosque"},{"id":"xx512041_68413","name":"Ditib Eller Cami -Türkischer Kulturverein","lat":51.204082,"lng":6.841277,"addr":"Festenbergstraße","type":"yes"},{"id":"xx501457_80783","name":"Türkische Moschee","lat":50.145735,"lng":8.078318,"addr":"","type":"yes"},{"id":"xx510500_70024","name":"Mimar Sinan Moschee","lat":51.050031,"lng":7.002436,"addr":"Kiesweg","type":"yes"},{"id":"xx514642_69709","name":"Islamischer Verein der in Essen lebenden afghanischen Mitbürger e.V","lat":51.464174,"lng":6.970921,"addr":"Hüttmannstraße","type":"yes"},{"id":"xx514780_73004","name":"Islamic place","lat":51.478006,"lng":7.300448,"addr":"","type":"train_station"},{"id":"xx514781_73011","name":"DİTİB-Moschee Bochum-Langendreer","lat":51.47812,"lng":7.301105,"addr":"Ümminger Straße","type":"train_station"},{"id":"xx506053_86952","name":"Buhara Moschee","lat":50.605256,"lng":8.695226,"addr":"Marburger Straße","type":"house"},{"id":"xx519801_85172","name":"Vatan-Moschee","lat":51.980104,"lng":8.51715,"addr":"Windelsbleicher Straße","type":"mosque"},{"id":"xx523869_97248","name":"Al-Huda","lat":52.386852,"lng":9.724829,"addr":"Kornstraße","type":"mosque"},{"id":"xx514781_73014","name":"Islamic place","lat":51.478133,"lng":7.301431,"addr":"","type":"mosque"},{"id":"xx510501_70024","name":"Mimar Sinan Moschee","lat":51.050053,"lng":7.002372,"addr":"Kiesweg","type":"yes"},{"id":"xx519801_85171","name":"Vatan-Moschee","lat":51.980117,"lng":8.517132,"addr":"Windelsbleicher Straße","type":"mosque"},{"id":"xx507496_92719","name":"Camii Moschee Alsfeld","lat":50.749556,"lng":9.271914,"addr":"Steinborngasse","type":"mosque"},{"id":"xx535139_99919","name":"Fatih Camii","lat":53.513946,"lng":9.991867,"addr":"Mannesallee","type":"mosque"},{"id":"xx510197_76598","name":"Zentralmoschee Bergneustadt","lat":51.019717,"lng":7.659784,"addr":"Wiesenstraße","type":"yes"},{"id":"xx506381_94088","name":"D.I.T.I.B Lauterbach","lat":50.63812,"lng":9.408796,"addr":"Rhönstraße","type":"yes"},{"id":"xx511758_71822","name":"Camii","lat":51.175775,"lng":7.18222,"addr":"Kremenholler Straße","type":"church"},{"id":"xx508152_90025","name":"Fatih-Camii-Moschee","lat":50.815172,"lng":9.002542,"addr":"","type":"mosque"},{"id":"xx514377_68781","name":"Fatih-Moschee","lat":51.43771,"lng":6.878087,"addr":"Sandstraße","type":"yes"},{"id":"xx514964_70187","name":"Kulturzentrum Dzemat e.V.","lat":51.496382,"lng":7.018713,"addr":"Rahmstraße","type":"yes"},{"id":"xx508331_70209","name":"Selimiye Moschee Niederkassel","lat":50.833116,"lng":7.020947,"addr":"Premnitzer Straße","type":"yes"},{"id":"xx510589_69507","name":"Moschee Al-Muhsinin","lat":51.058884,"lng":6.950661,"addr":"","type":"yes"},{"id":"xx520628_83540","name":"Islamic place","lat":52.062807,"lng":8.354,"addr":"","type":"yes"},{"id":"xx517028_78260","name":"Yunus-Emre-Moschee","lat":51.702791,"lng":7.825989,"addr":"Hülskamp","type":"mosque"},{"id":"xx503392_79791","name":"Mutter Meeras Darshan (Stiftung)","lat":50.339181,"lng":7.979138,"addr":"Waldeckerhof","type":"yes"},{"id":"xx523859_97255","name":"Deutschsprachiger Islamkreis e.V","lat":52.385912,"lng":9.725518,"addr":"Kornstraße","type":"mosque"},{"id":"xx507494_92719","name":"Islamic place","lat":50.749431,"lng":9.271924,"addr":"Steinborngasse","type":"mosque"},{"id":"xx508070_71333","name":"Islamic place","lat":50.80696,"lng":7.133255,"addr":"Teutonenstraße","type":"mosque"},{"id":"xx508069_71334","name":"Moschee EBU HANIFE, IAKV Islamisch Albanischer Kulturverein e.V.","lat":50.806856,"lng":7.133359,"addr":"Teutonenstraße","type":"mosque"},{"id":"xx507893_72114","name":"Moschee Siegburg","lat":50.789325,"lng":7.21135,"addr":"Händelstraße","type":"mosque"},{"id":"xx519670_82140","name":"Islamic place","lat":51.967015,"lng":8.214027,"addr":"","type":"yes"},{"id":"xx514787_72128","name":"Ditib-Zentralmoschee","lat":51.478661,"lng":7.212815,"addr":"Schmidtstraße","type":"mosque"},{"id":"xx534665_99718","name":"Harburg Camii","lat":53.466511,"lng":9.971835,"addr":"Buxtehuder Straße","type":"mosque"},{"id":"xx500856_86963","name":"Nuur Moschee","lat":50.08565,"lng":8.696288,"addr":"Babenhäuser Landstraße","type":"yes"},{"id":"xx515958_75658","name":"Muslimische Begräbnisstätte","lat":51.595765,"lng":7.565795,"addr":"","type":"mosque"},{"id":"xx537557_96533","name":"türkisch islamischer Kulturverein e.V. Elmshorn","lat":53.755672,"lng":9.653334,"addr":"Biernatzkistraße","type":"mosque"},{"id":"xx508070_71332","name":"Islamic place","lat":50.806976,"lng":7.133232,"addr":"Teutonenstraße","type":"mosque"},{"id":"xx507893_72113","name":"Moschee Siegburg","lat":50.789283,"lng":7.211302,"addr":"Händelstraße","type":"mosque"},{"id":"xx514786_72128","name":"Ditib-Zentralmoschee","lat":51.47865,"lng":7.212799,"addr":"Schmidtstraße","type":"mosque"},{"id":"xx501300_89189","name":"Islamischer Verein Hanau","lat":50.130003,"lng":8.918935,"addr":"Gärtnerstraße","type":"yes"},{"id":"xx501414_87457","name":"Islamic place","lat":50.141422,"lng":8.745688,"addr":"Edisonstraße","type":"mosque"},{"id":"xx523870_97249","name":"Islamic place","lat":52.386971,"lng":9.724912,"addr":"Kornstraße","type":"mosque"},{"id":"xx523854_97228","name":"Die Völker Gemeinschaft EV;El Idrissi Moustafa","lat":52.385449,"lng":9.722841,"addr":"","type":"mosque"},{"id":"xx511122_76540","name":"Islamisches Zentrum","lat":51.112166,"lng":7.653986,"addr":"Siepener Weg","type":"yes"},{"id":"xx508957_62811","name":"Islamic place","lat":50.895727,"lng":6.28108,"addr":"Gartenstraße","type":"mosque"},{"id":"xx517765_88059","name":"Mimar Sinan Camii","lat":51.776544,"lng":8.805923,"addr":"Detmolder Straße","type":"mosque"},{"id":"xx515222_70185","name":"Mevlana Camii","lat":51.522242,"lng":7.018521,"addr":"Fischerstraße","type":"yes"},{"id":"xx523188_72221","name":"DiTiB - Türkisch Islamische Gemeinde zu Schüttorf","lat":52.318806,"lng":7.222119,"addr":"Hessenweg","type":"yes"},{"id":"xx519812_76148","name":"Ar-Rahman Moschee","lat":51.981215,"lng":7.614787,"addr":"Meßkamp","type":"mosque"},{"id":"xx523939_97119","name":"Islamic place","lat":52.393866,"lng":9.711897,"addr":"","type":"mosque"},{"id":"xx500530_82414","name":"Omar Ibnulkatab Moschee Islamische Gemeinde e.V.","lat":50.052995,"lng":8.241363,"addr":"Henkellstraße","type":"mosque"},{"id":"xx512101_68053","name":"Fetih Camii Düsseldorf","lat":51.210056,"lng":6.805346,"addr":"Oberbilker Allee","type":"mosque"},{"id":"xx514875_67406","name":"Fatih","lat":51.487549,"lng":6.740553,"addr":"Dieselstraße","type":"residential"},{"id":"xx513538_82827","name":"Fatih Moschee","lat":51.353824,"lng":8.282746,"addr":"","type":"yes"},{"id":"xx510941_68170","name":"IGMG","lat":51.094128,"lng":6.816959,"addr":"Kieler Straße","type":"yes"},{"id":"xx513631_74652","name":"Islamische Kurdische Gemeinde","lat":51.363129,"lng":7.465191,"addr":"Körnerstraße","type":"church"},{"id":"xx515673_75265","name":"Moschee Dortmund-Derne","lat":51.567277,"lng":7.526544,"addr":"Altenderner Straße","type":"yes"},{"id":"xx515357_99133","name":"DİTİB-Moschee","lat":51.535652,"lng":9.91331,"addr":"Königsstieg","type":"yes"},{"id":"xx523939_97117","name":"Islamic place","lat":52.393861,"lng":9.71173,"addr":"","type":"mosque"},{"id":"xx500530_82413","name":"Omar Ibnulkatab Moschee Islamische Gemeinde e.V.","lat":50.053028,"lng":8.241321,"addr":"Henkellstraße","type":"mosque"},{"id":"xx515356_99133","name":"DİTİB-Moschee","lat":51.535649,"lng":9.913295,"addr":"Königsstieg","type":"yes"},{"id":"xx516929_77552","name":"Mevlana Camii","lat":51.692936,"lng":7.755214,"addr":"Hammer Straße","type":"yes"},{"id":"xx508845_76353","name":"Yeşil Camii","lat":50.884498,"lng":7.635279,"addr":"Wiehler Straße","type":"mosque"},{"id":"xx531394_81788","name":"Gemeinschaft libanesischer Emigranten e. V.","lat":53.139356,"lng":8.178846,"addr":"Eichenstraße","type":"yes"},{"id":"xx502048_86612","name":"Bait-ul-Qayyum","lat":50.204797,"lng":8.661168,"addr":"Homburger Landstraße","type":"yes"},{"id":"xx516968_78268","name":"Yeşil Camii","lat":51.696836,"lng":7.826775,"addr":"Heessener Straße","type":"yes"},{"id":"xx511589_70091","name":"Ohligs Süleymaniye Moschee","lat":51.158902,"lng":7.009108,"addr":"Querstraße","type":"yes"},{"id":"xx501919_87435","name":"Islamic place","lat":50.191936,"lng":8.743498,"addr":"Büdinger Straße","type":"mosque"},{"id":"xx511764_79668","name":"Islamic place","lat":51.176405,"lng":7.966792,"addr":"Bamenohler Straße","type":"mosque"},{"id":"xx515094_67538","name":"DITIB-Merkez-Moschee","lat":51.509374,"lng":6.75381,"addr":"Warbruckstraße","type":"mosque"},{"id":"xx515714_72966","name":"Islamic place","lat":51.571418,"lng":7.296596,"addr":"Victorstraße","type":"yes"},{"id":"xx513290_69745","name":"Islamic place","lat":51.328967,"lng":6.974537,"addr":"Bahnhofstraße","type":"yes"},{"id":"xx535508_99531","name":"Yeni-Beyazit-Moschee","lat":53.55081,"lng":9.953088,"addr":"Nobistor","type":"mosque"},{"id":"xx523711_99795","name":"Selimiye-Camii Moschee","lat":52.37109,"lng":9.979456,"addr":"Zum alten Dorf","type":"mosque"},{"id":"xx531393_81788","name":"Gemeinschaft libanesischer Emigranten e. V.","lat":53.139333,"lng":8.178816,"addr":"Eichenstraße","type":"yes"},{"id":"xx501919_87434","name":"Islamic place","lat":50.191939,"lng":8.743428,"addr":"Büdinger Straße","type":"mosque"},{"id":"xx508716_80242","name":"Türkisch-Islamischer-Kulturverein","lat":50.871558,"lng":8.024218,"addr":"","type":"yes"},{"id":"xx500557_86936","name":"Islamischer Kulturverein in Neu-Isenburg e. V.","lat":50.055716,"lng":8.693621,"addr":"Ludwigstraße","type":"mosque"},{"id":"xx515494_99221","name":"El-Medina-Moschee","lat":51.549412,"lng":9.922086,"addr":"Maschmühlenweg","type":"yes"},{"id":"xx519577_76372","name":"Ditib Merkez Camii","lat":51.957716,"lng":7.637172,"addr":"Bremer Platz","type":"mosque"},{"id":"xx513627_74644","name":"Moschee Hagen","lat":51.362686,"lng":7.46441,"addr":"Körnerstraße","type":"yes"},{"id":"xx516075_71197","name":"Islamic place","lat":51.6075,"lng":7.119653,"addr":"Glückauf-Ring","type":"mosque"},{"id":"xx522132_87267","name":"Hacı Bayram Camii","lat":52.213207,"lng":8.726658,"addr":"Werster Straße","type":"yes"},{"id":"xx514463_68683","name":"Islamic place","lat":51.446318,"lng":6.868332,"addr":"Neustadtstraße","type":"yes"},{"id":"xx510924_69012","name":"Islamische Gemeinde in Monheim","lat":51.092371,"lng":6.901207,"addr":"Opladener Straße","type":"house"},{"id":"xx510994_68929","name":"DİTİB Osman Gazi Moschee","lat":51.099395,"lng":6.89287,"addr":"Niederstraße","type":"house"},{"id":"xx512473_67952","name":"DITIB Diyanet Merkez Camii Derendorf","lat":51.247294,"lng":6.795171,"addr":"Münsterstraße","type":"yes"},{"id":"xx535704_97227","name":"Hanimlar Mescidi","lat":53.57045,"lng":9.722731,"addr":"Pulverstraße","type":"yes"},{"id":"xx510441_62262","name":"Islamic place","lat":51.044077,"lng":6.226205,"addr":"Hilfarther Straße","type":"yes"},{"id":"xx515494_99220","name":"El-Medina-Moschee","lat":51.549399,"lng":9.922017,"addr":"Maschmühlenweg","type":"yes"},{"id":"xx516075_71196","name":"Islamic place","lat":51.607533,"lng":7.119585,"addr":"Glückauf-Ring","type":"mosque"},{"id":"xx522132_87266","name":"Hacı Bayram Camii","lat":52.213205,"lng":8.726639,"addr":"Werster Straße","type":"yes"},{"id":"xx510994_68928","name":"DİTİB Osman Gazi Moschee","lat":51.099391,"lng":6.892845,"addr":"Niederstraße","type":"house"},{"id":"xx531846_86119","name":"Eyüp Sultan Bahçe Moschee","lat":53.184584,"lng":8.611909,"addr":"Hammersbecker Straße","type":"yes"},{"id":"xx510888_68446","name":"Dormagener Moschee","lat":51.088763,"lng":6.844623,"addr":"Höhenberg","type":"yes"},{"id":"xx513685_74626","name":"As-Siddiq-Moschee","lat":51.368491,"lng":7.462621,"addr":"Fehrbelliner Straße","type":"yes"},{"id":"xx511669_79692","name":"Nizam-i Alem Türkischer-Islamischer Verein Finnentrop e.V.","lat":51.166904,"lng":7.969217,"addr":"Werksweg","type":"detached"},{"id":"xx523868_98585","name":"Selimiye Camii","lat":52.386835,"lng":9.858488,"addr":"Anderter Straße","type":"mosque"},{"id":"xx515655_70047","name":"Moschee Wielandstraße","lat":51.565469,"lng":7.004664,"addr":"Wielandstraße","type":"yes"},{"id":"xx502201_86109","name":"Türkisch-Islamische Union","lat":50.220097,"lng":8.61092,"addr":"Schaberweg","type":"mosque"},{"id":"xx507408_70699","name":"Moscheeverein Al Muhajirin","lat":50.740821,"lng":7.069917,"addr":"Brühler Straße","type":"mosque"},{"id":"xx509455_69284","name":"DITIB-Zentralmoschee","lat":50.945548,"lng":6.928397,"addr":"Venloer Straße","type":"mosque"},{"id":"xx510379_69257","name":"Chorweiler Zentralmoschee","lat":51.037904,"lng":6.925734,"addr":"Morsestraße","type":"yes"},{"id":"xx509503_69119","name":"Bosnische Moschee","lat":50.950339,"lng":6.911928,"addr":"","type":"mosque"},{"id":"xx509523_69019","name":"VIKZ-Zentralmoschee","lat":50.952338,"lng":6.901911,"addr":"Vogelsanger Straße","type":"yes"},{"id":"xx509683_69535","name":"Fatih-Moschee","lat":50.968323,"lng":6.953503,"addr":"Neusser Straße","type":"yes"},{"id":"xx509602_70005","name":"El-Furkan Moschee","lat":50.96018,"lng":7.000535,"addr":"Andreaestraße","type":"church"},{"id":"xx509684_70061","name":"Yunus Emre Moschee","lat":50.968395,"lng":7.006073,"addr":"","type":"church"},{"id":"xx508827_70636","name":"Mevlana-Moschee","lat":50.882742,"lng":7.063602,"addr":"Bahnhofstraße","type":"mosque"},{"id":"xx508828_70632","name":"Islamic place","lat":50.88278,"lng":7.06322,"addr":"","type":"public"},{"id":"xx510196_69167","name":"Alevitische Gemeinde Köln (Cemevi)","lat":51.019597,"lng":6.916747,"addr":"Alpenrosenweg","type":"yes"},{"id":"xx509421_68918","name":"Alevitische Gemeinde Deutschland (Cemevi)","lat":50.942075,"lng":6.89178,"addr":"","type":"yes"},{"id":"xx509208_69411","name":"Abubakr Moschee","lat":50.920755,"lng":6.941083,"addr":"Höninger Weg","type":"mosque"},{"id":"xx509635_70133","name":"Moschee Ömer-ül Faruk","lat":50.963497,"lng":7.013295,"addr":"Keupstraße","type":"yes"},{"id":"xx509645_70212","name":"Ehl-i Beyt Moschee - Schiitische Gemeinde","lat":50.964511,"lng":7.021167,"addr":"Bergisch Gladbacher Straße","type":"yes"},{"id":"xx509233_69551","name":"Hoca Ahmet Yesevi Moschee","lat":50.923325,"lng":6.955095,"addr":"Kartäuserwall","type":"mosque"},{"id":"xx509335_70200","name":"Vingster Moschee","lat":50.9335,"lng":7.020012,"addr":"Ostheimer Straße","type":"church"},{"id":"xx509826_71208","name":"Neue Moschee","lat":50.982607,"lng":7.120828,"addr":"Refrather Weg","type":"mosque"},{"id":"xx509733_68742","name":"Muslimisches Gräberfeld","lat":50.973331,"lng":6.874169,"addr":"","type":"mosque"},{"id":"xx511213_69597","name":"Eyüp Sultan Moschee","lat":51.121349,"lng":6.959733,"addr":"Industriestraße","type":"yes"},{"id":"xx509151_91832","name":"Bildungs- und Kulturverein Schwalmstadt","lat":50.915085,"lng":9.183234,"addr":"Walkmühlenweg","type":"yes"},{"id":"xx527210_82851","name":"Sultanahmet Merkez Moschee","lat":52.721,"lng":8.285073,"addr":"Rombergstraße","type":"yes"},{"id":"xx527156_82887","name":"Fatih Sultan Camii","lat":52.715617,"lng":8.288703,"addr":"Diepholzer Straße","type":"yes"},{"id":"xx513580_74616","name":"Nafthat-al-Iman-Moschee","lat":51.358013,"lng":7.461595,"addr":"Bergischer Ring","type":"mosque"},{"id":"xx531845_86119","name":"Eyüp Sultan Bahçe Moschee","lat":53.184537,"lng":8.611905,"addr":"Hammersbecker Straße","type":"yes"},{"id":"xx509734_68741","name":"Muslimisches Gräberfeld","lat":50.973353,"lng":6.8741,"addr":"","type":"mosque"},{"id":"xx511214_69597","name":"Eyüp Sultan Moschee","lat":51.12137,"lng":6.959698,"addr":"Industriestraße","type":"yes"},{"id":"xx514635_66457","name":"Islamic place","lat":51.463492,"lng":6.645736,"addr":"Barbarastraße","type":"mosque"},{"id":"xx517597_79062","name":"Große Moschee","lat":51.759745,"lng":7.906172,"addr":"Rottmannstraße","type":"mosque"},{"id":"xx517595_78972","name":"Islamisches Jugendzentrum","lat":51.759487,"lng":7.89721,"addr":"Zeppelinstraße","type":"madrasa"},{"id":"xx509657_70014","name":"Islamisches Lehrhaus (Medrese-i Nuriye)","lat":50.965722,"lng":7.001368,"addr":"Neustraße","type":"madrasa"},{"id":"xx509748_70544","name":"Islamisches Lehrhaus (Medrese-i Nuriye)","lat":50.974832,"lng":7.054442,"addr":"Piccoloministraße","type":"madrasa"},{"id":"xx520718_87451","name":"Mevlana Camii","lat":52.07179,"lng":8.745109,"addr":"Weinbergstraße","type":"mosque"},{"id":"xx500151_82360","name":"Al-Ikhlas-Moschee","lat":50.015061,"lng":8.235995,"addr":"Hartmühlenweg","type":"yes"},{"id":"xx509353_66966","name":"Bergheimer Moschee","lat":50.935347,"lng":6.696629,"addr":"Fischbachstraße","type":"construction"},{"id":"xx514426_70674","name":"Verein der türkischen Arbeitnehmer zur islamischen Zusammenarbeit","lat":51.442636,"lng":7.067445,"addr":"Westfalenstraße","type":"mosque"},{"id":"xx509588_66008","name":"Al-Fath Moschee","lat":50.958771,"lng":6.600822,"addr":"Friedrich-Bessel-Straße","type":"mosque"},{"id":"xx509383_65706","name":"Mimar Sinan Moschee","lat":50.938341,"lng":6.570563,"addr":"Mittelstraße","type":"place_of_worship"},{"id":"xx508073_65013","name":"Hicret Moschee","lat":50.807259,"lng":6.50127,"addr":"","type":"yes"},{"id":"xx516765_83430","name":"Mevlana Moschee","lat":51.676547,"lng":8.343047,"addr":"Mühlenstraße","type":"place_of_worship"},{"id":"xx500721_88555","name":"Islamic place","lat":50.072133,"lng":8.855461,"addr":"Alexanderstraße","type":"mosque"},{"id":"xx507770_61217","name":"Yunus-Emre-Moschee","lat":50.776958,"lng":6.121652,"addr":"Stolberger Straße","type":"yes"},{"id":"xx523938_97120","name":"Ehlibet Moschee","lat":52.393786,"lng":9.711976,"addr":"Haltenhoffstraße","type":"mosque"},{"id":"xx510531_69982","name":"Mesxhidi Aksa Moschee","lat":51.053108,"lng":6.998181,"addr":"Mühlenweg","type":"yes"},{"id":"xx502488_92917","name":"Islamic place","lat":50.248766,"lng":9.291749,"addr":"Industriestraße","type":"mosque"},{"id":"xx516057_71192","name":"Blaue Moschee","lat":51.605698,"lng":7.119222,"addr":"Paschenbergstraße","type":"mosque"},{"id":"xx520217_85554","name":"Yunus-Emre-Moschee","lat":52.021735,"lng":8.555427,"addr":"","type":"yes"},{"id":"xx522808_80767","name":"Libanesischer Kulturverein Imam al-Husain e.V.","lat":52.280839,"lng":8.076674,"addr":"Ebertallee","type":"yes"},{"id":"xx503753_75920","name":"Tahir Moschee","lat":50.375329,"lng":7.592048,"addr":"Am Franzosenfriedhof","type":"yes"},{"id":"xx500150_82360","name":"Al-Ikhlas-Moschee","lat":50.015043,"lng":8.235975,"addr":"Hartmühlenweg","type":"yes"},{"id":"xx509384_65706","name":"Mimar Sinan Moschee","lat":50.938354,"lng":6.570557,"addr":"Mittelstraße","type":"place_of_worship"},{"id":"xx507770_61216","name":"Yunus-Emre-Moschee","lat":50.776952,"lng":6.121632,"addr":"Stolberger Straße","type":"yes"},{"id":"xx531335_82369","name":"Hamidiye Moschee","lat":53.133453,"lng":8.236887,"addr":"Breslauer Straße","type":"yes"},{"id":"xx504062_90109","name":"Bait-ul-Aman Moschee","lat":50.406162,"lng":9.010903,"addr":"Stehfelder Weg","type":"mosque"},{"id":"xx533090_76605","name":"Islamic place","lat":53.308992,"lng":7.660538,"addr":"Schoolpad","type":"mosque"},{"id":"xx513129_65626","name":"Yunus-Emre-Moschee","lat":51.312915,"lng":6.562641,"addr":"Obergath","type":"mosque"},{"id":"xx521181_86610","name":"IGMG Milli Görüs","lat":52.118073,"lng":8.660988,"addr":"Engerstraße","type":"mosque"},{"id":"xx541977_91462","name":"Islamische Gemeinschaft Al Batul e.V.","lat":54.197704,"lng":9.146229,"addr":"Rendsburger Straße","type":"yes"},{"id":"xx501415_87459","name":"Islamic place","lat":50.141453,"lng":8.745925,"addr":"","type":"mosque"},{"id":"xx501349_87407","name":"Islamic place","lat":50.13488,"lng":8.740669,"addr":"","type":"mosque"},{"id":"xx513296_65928","name":"Islamische Vereinigung Krefeld","lat":51.329576,"lng":6.592832,"addr":"Am Verschubbahnhof","type":"mosque"},{"id":"xx514305_67548","name":"Almogamma Moschee","lat":51.430542,"lng":6.75479,"addr":"Juliusstraße","type":"place_of_worship"},{"id":"xx511793_70837","name":"Islamische Gemeinde Milli Görüs","lat":51.17935,"lng":7.083736,"addr":"Van-Meenen-Straße","type":"yes"},{"id":"xx507430_71013","name":"Dzemat Hajr","lat":50.742952,"lng":7.101294,"addr":"An der Esche","type":"house"},{"id":"xx524227_95843","name":"Türlisch Islamische Gemeinde","lat":52.422669,"lng":9.584253,"addr":"Bachstraße","type":"yes"},{"id":"xx511420_72166","name":"DITIB Türkisch Islamische Gemeinde zu Wermelskirchen e.V.","lat":51.141951,"lng":7.216611,"addr":"Thomas-Mann-Straße","type":"residential"},{"id":"xx521037_86805","name":"Islamischer Kultur Verein e.V. Herford","lat":52.103707,"lng":8.680536,"addr":"Ahmser Straße","type":"yes"},{"id":"xx514306_67548","name":"Almogamma Moschee","lat":51.430556,"lng":6.754777,"addr":"Juliusstraße","type":"place_of_worship"},{"id":"xx507843_61544","name":"Bosnische Moschee Aachen (Dzemat Aachen)","lat":50.784258,"lng":6.154358,"addr":"Josefstraße","type":"yes"},{"id":"xx520291_85403","name":"Masjid-Tauhid-Moschee","lat":52.029062,"lng":8.540269,"addr":"August-Bebel-Straße","type":"yes"},{"id":"xx521123_81897","name":"Islamic place","lat":52.112304,"lng":8.189706,"addr":"Westring","type":"yes"},{"id":"xx516007_74374","name":"Ulu Cami - Ulu Moschee","lat":51.600668,"lng":7.437355,"addr":"","type":"service"},{"id":"xx532326_74529","name":"Islamic place","lat":53.232643,"lng":7.45288,"addr":"Friesenstraße","type":"mosque"},{"id":"xx516007_74373","name":"Ulu Cami - Ulu Moschee","lat":51.600665,"lng":7.43732,"addr":"","type":"service"},{"id":"xx515985_74303","name":"Islamic place","lat":51.598486,"lng":7.430331,"addr":"","type":"mosque"},{"id":"xx514576_66542","name":"Kocatepe Camii Moers","lat":51.457587,"lng":6.65416,"addr":"Römerstraße","type":"yes"},{"id":"xx515054_68744","name":"Fatih Moschee","lat":51.505391,"lng":6.874351,"addr":"Vestische Straße","type":"yes"},{"id":"xx517995_80178","name":"DITIB-Moschee","lat":51.799529,"lng":8.017821,"addr":"Mark I","type":"church"},{"id":"xx524110_96545","name":"Kulturverein z. Förderung u. Integration v. Jugendlichen","lat":52.411025,"lng":9.654475,"addr":"","type":"yes"},{"id":"xx524161_97007","name":"Moslemische Kultur-Gemeinschaft Behar","lat":52.416099,"lng":9.700697,"addr":"Schulenburger Landstraße","type":"mosque"},{"id":"xx515787_72148","name":"Merkez Camii","lat":51.578651,"lng":7.214818,"addr":"König-Ludwig-Straße","type":"mosque"},{"id":"xx515785_72137","name":"Fatih Camii","lat":51.578496,"lng":7.21368,"addr":"Bochumer Straße","type":"yes"},{"id":"xx515752_72117","name":"Islamische Kulturunion","lat":51.575249,"lng":7.211665,"addr":"Bochumer Straße","type":"yes"},{"id":"xx515755_72121","name":"Islamic place","lat":51.575455,"lng":7.212135,"addr":"","type":"church"},{"id":"xx501203_88212","name":"Islamic place","lat":50.12025,"lng":8.82117,"addr":"Friedensstraße","type":"mosque"},{"id":"xx512762_70269","name":"Islamic place","lat":51.276237,"lng":7.026933,"addr":"Lindenstraße","type":"yes"},{"id":"xx500986_87904","name":"Baitul Jame Moschee","lat":50.098576,"lng":8.790354,"addr":"Boschweg","type":"mosque"},{"id":"xx513020_95355","name":"Islamic place","lat":51.301961,"lng":9.535516,"addr":"Vogelsang","type":"mosque"},{"id":"xx500243_82188","name":"Masjid Attauba","lat":50.024259,"lng":8.218777,"addr":"An der Wieslücke","type":"mosque"},{"id":"xx514576_66541","name":"Kocatepe Camii Moers","lat":51.457585,"lng":6.654149,"addr":"Römerstraße","type":"yes"},{"id":"xx515054_68743","name":"Fatih Moschee","lat":51.505397,"lng":6.874326,"addr":"Vestische Straße","type":"yes"},{"id":"xx515754_72121","name":"Islamic place","lat":51.575431,"lng":7.212075,"addr":"","type":"church"},{"id":"xx501203_88211","name":"Islamic place","lat":50.120265,"lng":8.821052,"addr":"Friedensstraße","type":"mosque"},{"id":"xx500986_87903","name":"Baitul Jame Moschee","lat":50.098572,"lng":8.79035,"addr":"Boschweg","type":"mosque"},{"id":"xx500550_89635","name":"Bait-ul-Hadi Moschee","lat":50.055002,"lng":8.963458,"addr":"Marie-Curie-Straße","type":"mosque"},{"id":"xx512820_93529","name":"Islamic place","lat":51.282011,"lng":9.352948,"addr":"Korbacher Straße","type":"mosque"},{"id":"xx500063_82491","name":"Al-Nur Moschee","lat":50.006271,"lng":8.249136,"addr":"Mombacher Straße","type":"yes"},{"id":"xx519262_76286","name":"Assalam Moschee","lat":51.926208,"lng":7.628617,"addr":"Hammer Straße","type":"yes"},{"id":"xx529160_92306","name":"Islamic place","lat":52.916009,"lng":9.230622,"addr":"Grüne Straße","type":"public"},{"id":"xx513626_74644","name":"Islamic place","lat":51.362626,"lng":7.464416,"addr":"","type":"mosque"},{"id":"xx515490_79087","name":"DITIB Werl","lat":51.548961,"lng":7.90873,"addr":"Steinerbrücke","type":"mosque"},{"id":"xx522765_80749","name":"Moschee des Eroberers","lat":52.276539,"lng":8.074851,"addr":"Schützenstraße","type":"mosque"},{"id":"xx538551_87149","name":"DITIB-Moschee Cuxhaven","lat":53.855125,"lng":8.714917,"addr":"Meyerstraße","type":"yes"},{"id":"xx514151_67621","name":"Islamisch Albanisches Kulturzentrum e.V.","lat":51.415101,"lng":6.76207,"addr":"Krummenhakstraße","type":"yes"},{"id":"xx515974_76549","name":"Kamen Eyüp Sultan Camii","lat":51.597361,"lng":7.654918,"addr":"Grimmstraße","type":"yes"},{"id":"xx515816_71467","name":"Haci Bayram Cami","lat":51.581596,"lng":7.14669,"addr":"Herten","type":"mosque"},{"id":"xx500550_89634","name":"Bait-ul-Hadi Moschee","lat":50.055002,"lng":8.963436,"addr":"Marie-Curie-Straße","type":"mosque"},{"id":"xx522765_80748","name":"Moschee des Eroberers","lat":52.276538,"lng":8.074817,"addr":"Schützenstraße","type":"mosque"},{"id":"xx526367_92211","name":"Nienburg Camii","lat":52.636739,"lng":9.221089,"addr":"Im Meerbachbogen","type":"yes"},{"id":"xx514239_67554","name":"Madrasa Al-Furqan Moschee","lat":51.423869,"lng":6.75541,"addr":"Friedenstraße","type":"yes"},{"id":"xx514196_67486","name":"Ahl-al-Bait Islamisches Zentrum e.V.","lat":51.419642,"lng":6.748603,"addr":"Rheinhauser Straße","type":"yes"},{"id":"xx514227_67509","name":"Hochfeld-Moschee","lat":51.422657,"lng":6.750888,"addr":"Hochfeldstraße","type":"yes"},{"id":"xx514217_67530","name":"Sandzaks Kulturzentrum \"San\" e.V.","lat":51.421701,"lng":6.752994,"addr":"Brückenstraße","type":"yes"},{"id":"xx543132_96568","name":"Islamic place","lat":54.313161,"lng":9.656843,"addr":"Eckernförder Straße","type":"yes"},{"id":"xx513498_82794","name":"Islamic place","lat":51.349834,"lng":8.279357,"addr":"Lagerstraße","type":"mosque"},{"id":"xx522622_80616","name":"Ayasofya-Camii","lat":52.262193,"lng":8.061612,"addr":"Meller Straße","type":"mosque"},{"id":"xx508750_66924","name":"Mevlana Moschee","lat":50.874997,"lng":6.692412,"addr":"Sindorfer Straße","type":"yes"},{"id":"xx512747_94391","name":"DİTİB Mattenberg Moschee","lat":51.274698,"lng":9.439121,"addr":"Mattenbergstraße","type":"yes"},{"id":"xx506993_70171","name":"Tuğra Moschee Witterschlick","lat":50.699323,"lng":7.017104,"addr":"Raiffeisenstraße","type":"mosque"},{"id":"xx526367_92210","name":"Nienburg Camii","lat":52.63674,"lng":9.22105,"addr":"Im Meerbachbogen","type":"yes"},{"id":"xx514197_67486","name":"Ahl-al-Bait Islamisches Zentrum e.V.","lat":51.41965,"lng":6.748581,"addr":"Rheinhauser Straße","type":"yes"},{"id":"xx514226_67509","name":"Hochfeld-Moschee","lat":51.422638,"lng":6.750873,"addr":"Hochfeldstraße","type":"yes"},{"id":"xx513498_82793","name":"Islamic place","lat":51.349825,"lng":8.27934,"addr":"Lagerstraße","type":"mosque"},{"id":"xx530896_87859","name":"Said'i Kurdi Moschee","lat":53.089638,"lng":8.785944,"addr":"Hansestraße","type":"yes"},{"id":"xx521420_84932","name":"Grundstück der Gemeinde D.I.T.I.B. Spenge","lat":52.142024,"lng":8.493156,"addr":"","type":"mosque"},{"id":"xx514712_72111","name":"Islamic place","lat":51.471182,"lng":7.211142,"addr":"Dibergstraße","type":"mosque"},{"id":"xx506276_70129","name":"Masjid Ar-Rahman","lat":50.627595,"lng":7.012871,"addr":"Kalkofenstraße","type":"mosque"},{"id":"xx531841_85780","name":"Dr. Zeynel Abidin Moschee","lat":53.184094,"lng":8.578042,"addr":"","type":"yes"},{"id":"xx514531_73475","name":"muslimisches Gräberfeld","lat":51.453099,"lng":7.347492,"addr":"","type":"mosque"},{"id":"xx545046_95411","name":"Camii","lat":54.504643,"lng":9.54106,"addr":"Friedrichstraße","type":"mosque"},{"id":"xx515018_68701","name":"Bosnische Moschee Oberhausen","lat":51.501778,"lng":6.870057,"addr":"Fahnhorststraße","type":"mosque"},{"id":"xx515024_68695","name":"Islamic place","lat":51.502393,"lng":6.869518,"addr":"Fahnhorststraße","type":"yes"},{"id":"xx530897_87859","name":"Said'i Kurdi Moschee","lat":53.089652,"lng":8.785922,"addr":"Hansestraße","type":"yes"},{"id":"xx521421_84930","name":"Grundstück der Gemeinde D.I.T.I.B. Spenge","lat":52.142067,"lng":8.492996,"addr":"","type":"mosque"},{"id":"xx545046_95410","name":"Camii","lat":54.504638,"lng":9.541005,"addr":"Friedrichstraße","type":"mosque"},{"id":"xx515017_68700","name":"Bosnische Moschee Oberhausen","lat":51.501736,"lng":6.870009,"addr":"Fahnhorststraße","type":"mosque"},{"id":"xx500582_85366","name":"Islamic place","lat":50.058236,"lng":8.536551,"addr":"Mörfelder Straße","type":"mosque"},{"id":"xx535153_85207","name":"Islamic place","lat":53.515271,"lng":8.520748,"addr":"","type":"mosque"},{"id":"xx535154_85206","name":"Islamic place","lat":53.515413,"lng":8.520603,"addr":"","type":"mosque"},{"id":"xx501412_89282","name":"Islamic place","lat":50.141183,"lng":8.928203,"addr":"","type":"mosque"},{"id":"xx516717_69731","name":"Fatih Camii","lat":51.67173,"lng":6.973101,"addr":"Am Holzplatz","type":"house"},{"id":"xx522792_74733","name":"Muslimisches Gräberfeld","lat":52.279163,"lng":7.473313,"addr":"","type":"grave_yard"},{"id":"xx508147_87731","name":"Marburg-Moschee","lat":50.814731,"lng":8.773063,"addr":"Bunsenstraße","type":"yes"},{"id":"xx516087_75138","name":"Selimiye Moschee","lat":51.608743,"lng":7.513833,"addr":"Roonstraße","type":"mosque"},{"id":"xx535267_85885","name":"YENI Fatih Camii Bremerhaven","lat":53.526665,"lng":8.588527,"addr":"Georg-Seebeck-Straße","type":"mosque"},{"id":"xx511105_68220","name":"Süleymaniye Moschee","lat":51.110527,"lng":6.821994,"addr":"Roseller Straße","type":"mosque"},{"id":"xx500937_90598","name":"Alzenau Moschee","lat":50.093651,"lng":9.05975,"addr":"Merkurstraße","type":"yes"},{"id":"xx500251_88968","name":"Anwar-Moschee","lat":50.025067,"lng":8.896776,"addr":"Justus-von-Liebig-Straße","type":"mosque"},{"id":"xx522791_74733","name":"Muslimisches Gräberfeld","lat":52.27914,"lng":7.473284,"addr":"","type":"grave_yard"},{"id":"xx511662_69189","name":"Arrahman Moschee","lat":51.166171,"lng":6.918941,"addr":"Telleringstraße","type":"mosque"},{"id":"xx500937_90597","name":"Alzenau Moschee","lat":50.093657,"lng":9.059708,"addr":"Merkurstraße","type":"yes"},{"id":"xx509057_70758","name":"Moschee Porz","lat":50.905735,"lng":7.075784,"addr":"Hansestraße","type":"yes"},{"id":"xx531558_86058","name":"Sultan-Ahmet-Moschee","lat":53.155763,"lng":8.605753,"addr":"","type":"yes"},{"id":"xx523702_97086","name":"Islamic place","lat":52.370231,"lng":9.708649,"addr":"Fössestraße","type":"mosque"},{"id":"xx523703_97088","name":"Haci Bayram","lat":52.37029,"lng":9.708832,"addr":"","type":"apartments"},{"id":"xx512852_72236","name":"Moschee Assalam","lat":51.285196,"lng":7.223625,"addr":"Am Diek","type":"yes"},{"id":"xx517665_74362","name":"Türkischer Kulturverein","lat":51.76651,"lng":7.436247,"addr":"Olfener Straße","type":"yes"},{"id":"xx531557_86056","name":"Sultan-Ahmet-Moschee","lat":53.155706,"lng":8.605621,"addr":"","type":"yes"},{"id":"xx531531_82111","name":"Maryam-Moschee","lat":53.153083,"lng":8.211109,"addr":"Alexanderstraße","type":"mosque"},{"id":"xx521611_99493","name":"Ayasofya Moschee","lat":52.16109,"lng":9.949321,"addr":"Leunisstraße","type":"mosque"},{"id":"xx508122_87599","name":"Orient Brücke","lat":50.812164,"lng":8.759905,"addr":"Marbacher Weg","type":"mosque"},{"id":"xx512213_76328","name":"Marokkanische Moschee für Moslems im Märkischen Kreis","lat":51.221312,"lng":7.632769,"addr":"Sedanstraße","type":"mosque"},{"id":"xx513383_94883","name":"Fatih Camii","lat":51.338299,"lng":9.488267,"addr":"Holländische Straße","type":"yes"},