[{"id":"xx556873_125590","name":"Masjid Al-Nour","lat":55.687307,"lng":12.559041,"addr":"","type":"place_of_worship"},{"id":"xx561554_102034","name":"Islamisk Kulturcenter","lat":56.155377,"lng":10.203413,"addr":"","type":"place_of_worship"},{"id":"xx556530_125028","name":"Madina-Tul-Ilm Education Center","lat":55.653013,"lng":12.502753,"addr":"","type":"place_of_worship"},{"id":"xx554119_103851","name":"Tyrkisk Islamisk Kulturforening","lat":55.411859,"lng":10.385117,"addr":"","type":"place_of_worship"},{"id":"xx557113_125149","name":"Islamisk Kulturcenter","lat":55.711306,"lng":12.514874,"addr":"","type":"place_of_worship"},{"id":"xx556079_123547","name":"Mevlana Moské","lat":55.607908,"lng":12.354671,"addr":"","type":"place_of_worship"},{"id":"xx570354_100052","name":"Masjid Al-Rahma","lat":57.035435,"lng":10.005156,"addr":"","type":"place_of_worship"},{"id":"xx556659_123578","name":"Muslimsk Kulturcenter Vestegnen","lat":55.665948,"lng":12.357797,"addr":"","type":"place_of_worship"},{"id":"xx554068_103850","name":"Al Noor-moskeen","lat":55.406779,"lng":10.385005,"addr":"","type":"place_of_worship"},{"id":"xx556801_123897","name":"Dawate Islami Danmark","lat":55.680054,"lng":12.38975,"addr":"","type":"place_of_worship"},{"id":"xx557029_125444","name":"Masjid al-Faruq","lat":55.702901,"lng":12.544443,"addr":"","type":"mosque"},{"id":"xx554160_104397","name":"Dawaa Center og Moske","lat":55.41599,"lng":10.439741,"addr":"","type":"yes"},{"id":"xx557010_125348","name":"Det Islamiske Forbund i Danmark","lat":55.700962,"lng":12.534759,"addr":"","type":"place_of_worship"},{"id":"xx561642_101243","name":"Grimhøjmoskeen","lat":56.164225,"lng":10.124323,"addr":"","type":"yes"},{"id":"xx556480_124410","name":"Den Muslimske Gravplads i Brøndby","lat":55.648037,"lng":12.441018,"addr":"","type":"mosque"},{"id":"xx560199_125863","name":"Helsingør Islamisk Menighed","lat":56.019885,"lng":12.586289,"addr":"","type":"mosque"},{"id":"xx556707_125489","name":"København Islamisk Menighed","lat":55.670728,"lng":12.548924,"addr":"","type":"yes"},{"id":"xx557083_125488","name":"Hamad Bin Khalifa Civilisation Center","lat":55.708331,"lng":12.548845,"addr":"","type":"mosque"},{"id":"xx556485_125071","name":"Islamic place","lat":55.648539,"lng":12.507105,"addr":"","type":"mosque"},{"id":"xx561605_102059","name":"Aarhus Islamisk Menighed","lat":56.160458,"lng":10.205851,"addr":"","type":"yes"},{"id":"xx557009_125346","name":"Det Islamiske Forbund i Danmark","lat":55.700948,"lng":12.534624,"addr":"","type":"place_of_worship"},{"id":"xx561643_101243","name":"Grimhøjmoskeen","lat":56.164314,"lng":10.124296,"addr":"","type":"yes"},{"id":"xx556480_124407","name":"Den Muslimske Gravplads i Brøndby","lat":55.648034,"lng":12.440739,"addr":"","type":"mosque"},{"id":"xx560199_125862","name":"Helsingør Islamisk Menighed","lat":56.019904,"lng":12.586233,"addr":"","type":"mosque"},{"id":"xx561605_102058","name":"Aarhus Islamisk Menighed","lat":56.160455,"lng":10.205826,"addr":"","type":"yes"},{"id":"xx561664_101236","name":"Lighed- og Broderskabsforening","lat":56.166412,"lng":10.123603,"addr":"","type":"yes"},{"id":"xx556549_125283","name":"Muslimske grave","lat":55.654874,"lng":12.528287,"addr":"","type":"mosque"},{"id":"xx557001_125318","name":"Imam Ali Moskeen","lat":55.700074,"lng":12.531848,"addr":"","type":"mosque"},{"id":"xx556397_120820","name":"Ayasofya Moské","lat":55.639722,"lng":12.082032,"addr":"","type":"mosque"},{"id":"xx556407_124663","name":"Dansk Islamisk Trossamfund","lat":55.640745,"lng":12.466263,"addr":"","type":"yes"},{"id":"xx559047_124761","name":"Kokkedal Islamisk Menighed","lat":55.90469,"lng":12.47613,"addr":"","type":"yes"},{"id":"xx561670_100993","name":"Brabrand Ulu Moské","lat":56.16704,"lng":10.099272,"addr":"","type":"mosque"},{"id":"xx556195_124253","name":"Pakistansk Moské","lat":55.619539,"lng":12.425348,"addr":"","type":"yes"},{"id":"xx556192_124242","name":"Brøndby Islamisk Menighed","lat":55.619216,"lng":12.424216,"addr":"","type":"yes"},{"id":"xx564779_100308","name":"Bosnisk Kulturcenter Sabur","lat":56.477921,"lng":10.030777,"addr":"","type":"mosque"},{"id":"xx557343_123507","name":"Tyrkisk Kulturforening","lat":55.734324,"lng":12.350698,"addr":"","type":"mosque"},{"id":"xx561624_101751","name":"Islamic place","lat":56.162351,"lng":10.175115,"addr":"","type":"mosque"},{"id":"xx561750_101429","name":"Den Moderne Kulturelle Skole","lat":56.175027,"lng":10.142913,"addr":"","type":"school"},{"id":"xx557083_125254","name":"Tauba Moskeen","lat":55.70831,"lng":12.525417,"addr":"","type":"place_of_worship"},{"id":"xx561604_101772","name":"Islamic place","lat":56.160354,"lng":10.177246,"addr":"","type":"mosque"},{"id":"xx561619_101759","name":"Islamic place","lat":56.161861,"lng":10.175864,"addr":"","type":"mosque"},{"id":"xx561622_101750","name":"Islamic place","lat":56.162162,"lng":10.174984,"addr":"","type":"mosque"},{"id":"xx556510_124790","name":"Nusrat Djahan Moske","lat":55.650976,"lng":12.479033,"addr":"","type":"mosque"},{"id":"xx560228_125890","name":"Al-Irchad Skolen","lat":56.022806,"lng":12.589013,"addr":"","type":"school"},{"id":"xx556407_124662","name":"Dansk Islamisk Trossamfund","lat":55.640741,"lng":12.466234,"addr":"","type":"yes"},{"id":"xx564780_100308","name":"Bosnisk Kulturcenter Sabur","lat":56.477963,"lng":10.030763,"addr":"","type":"mosque"},{"id":"xx557083_125253","name":"Tauba Moskeen","lat":55.708287,"lng":12.52533,"addr":"","type":"place_of_worship"},{"id":"xx561605_101770","name":"Islamic place","lat":56.160489,"lng":10.176976,"addr":"","type":"mosque"},{"id":"xx561619_101757","name":"Islamic place","lat":56.161894,"lng":10.175727,"addr":"","type":"mosque"},{"id":"xx561623_101749","name":"Islamic place","lat":56.162278,"lng":10.174857,"addr":"","type":"mosque"},{"id":"xx576588_119919","name":"Bifrost Moské","lat":57.658758,"lng":11.991892,"addr":"","type":"place_of_worship"},{"id":"xx582714_123044","name":"Bosniakiska Islamiska Samfundet","lat":58.271395,"lng":12.304382,"addr":"Slåttervägen","type":"place_of_worship"},{"id":"xx558426_133178","name":"Eslövs muslimska kulturförening","lat":55.84263,"lng":13.31777,"addr":"","type":"place_of_worship"},{"id":"xx556938_132399","name":"Masjid Lund","lat":55.693786,"lng":13.239873,"addr":"","type":"place_of_worship"},{"id":"xx577297_120207","name":"Alsalam Moske","lat":57.729744,"lng":12.020745,"addr":"","type":"place_of_worship"},{"id":"xx577302_120234","name":"Bellevue Moské","lat":57.730184,"lng":12.02342,"addr":"","type":"place_of_worship"},{"id":"xx557120_131709","name":"Islamiska kulturcentret Lund","lat":55.711982,"lng":13.17086,"addr":"","type":"place_of_worship"},{"id":"xx594060_135682","name":"Kronoparkens Moské","lat":59.405958,"lng":13.568171,"addr":"","type":"place_of_worship"},{"id":"xx574324_140900","name":"Skillingaryd moské","lat":57.432369,"lng":14.089956,"addr":"Fabriksgatan","type":"place_of_worship"},{"id":"xx591346_129136","name":"Säffle moskén","lat":59.13458,"lng":12.913591,"addr":"Vintergatan","type":"place_of_worship"},{"id":"xx561369_133966","name":"Islamic place","lat":56.136898,"lng":13.396625,"addr":"","type":"place_of_worship"},{"id":"xx577247_118909","name":"Islamic place","lat":57.724725,"lng":11.890889,"addr":"Godvädersgatan","type":"place_of_worship"},{"id":"xx561876_148565","name":"Islamic place","lat":56.187589,"lng":14.856467,"addr":"","type":"place_of_worship"},{"id":"xx568305_139318","name":"Svenska Muslimer i Ljungby","lat":56.830536,"lng":13.931814,"addr":"","type":"place_of_worship"},{"id":"xx590525_127030","name":"Islamic place","lat":59.052462,"lng":12.703004,"addr":"","type":"place_of_worship"},{"id":"xx558883_128444","name":"Islamiska Församlingen i Landskrona","lat":55.888305,"lng":12.844393,"addr":"Silvergården","type":"place_of_worship"},{"id":"xx555847_130248","name":"Al-Hoda-moskén","lat":55.584689,"lng":13.024834,"addr":"","type":"place_of_worship"},{"id":"xx558717_128379","name":"Albanska Islamiska Föreningen Ikra","lat":55.871691,"lng":12.837898,"addr":"Ödmanssonsgatan","type":"place_of_worship"},{"id":"xx556938_132398","name":"Islamic place","lat":55.693799,"lng":13.239846,"addr":"","type":"place_of_worship"},{"id":"xx555665_130198","name":"Huda mosken","lat":55.566453,"lng":13.019823,"addr":"Docentgatan","type":"place_of_worship"},{"id":"xx555946_130061","name":"Islamakademin","lat":55.594589,"lng":13.006081,"addr":"","type":"place_of_worship"},{"id":"xx577985_120437","name":"Angered Moske","lat":57.798468,"lng":12.043689,"addr":"","type":"place_of_worship"},{"id":"xx577260_118884","name":"Masjid Al Ghuraba","lat":57.726043,"lng":11.888409,"addr":"","type":"place_of_worship"},{"id":"xx576765_119142","name":"Nasirmoskén","lat":57.676527,"lng":11.914188,"addr":"Tolvskillingsgatan","type":"mosque"},{"id":"xx577146_119438","name":"Göteborgs moské","lat":57.714577,"lng":11.943806,"addr":"","type":"mosque"},{"id":"xx577212_129310","name":"Borås Moské","lat":57.721173,"lng":12.930985,"addr":"","type":"commercial"},{"id":"xx557512_132483","name":"Odarslövs kyrka","lat":55.75115,"lng":13.248324,"addr":"","type":"church"},{"id":"xx582587_122850","name":"Trollhättans moské","lat":58.258683,"lng":12.285007,"addr":"Lextorpsvägen","type":"yes"},{"id":"xx577212_129309","name":"Borås Moské","lat":57.72115,"lng":12.930943,"addr":"","type":"commercial"},{"id":"xx555749_130515","name":"Malmö Islamic Center","lat":55.574893,"lng":13.051527,"addr":"Västra Skrävlinge kyrkoväg","type":"yes"},{"id":"xx581778_135579","name":"Falköpings Islamiska Förening","lat":58.177815,"lng":13.557866,"addr":"","type":"yes"},{"id":"xx555926_130522","name":"Östra kyrkogården","lat":55.592645,"lng":13.05219,"addr":"","type":"mosque"},{"id":"xx597884_145247","name":"Mosque Hällefors","lat":59.78844,"lng":14.524694,"addr":"","type":"yes"},{"id":"xx555943_130397","name":"Det Skandinaviska Wakf i Sverige","lat":55.594261,"lng":13.039705,"addr":"Danska vägen","type":"yes"},{"id":"xx581778_135578","name":"Falköpings Islamiska Förening","lat":58.177816,"lng":13.557843,"addr":"","type":"yes"},{"id":"xx555662_130827","name":"Mahmoodmoskén","lat":55.566245,"lng":13.08274,"addr":"Hästskogatan","type":"yes"},{"id":"xx577163_128968","name":"Bosnisk Islamiska församlingen Borås","lat":57.716349,"lng":12.896789,"addr":"","type":"mosque"},{"id":"xx584222_138635","name":"Skövde moské","lat":58.422181,"lng":13.86346,"addr":"","type":"mosque"},{"id":"xx569042_124809","name":"Islamic place","lat":56.904231,"lng":12.480885,"addr":"","type":"yes"},{"id":"xx566746_128379","name":"Muslimska begravningsplatsen","lat":56.674579,"lng":12.837863,"addr":"","type":"mosque"},{"id":"xx555662_130825","name":"Islamic place","lat":55.566224,"lng":13.082529,"addr":"","type":"mosque"},{"id":"xx560755_127477","name":"Helsingborgs moské","lat":56.075511,"lng":12.747706,"addr":"Grusvägen","type":"mosque"},{"id":"xx555663_130826","name":"Mahmoodmoskén","lat":55.566263,"lng":13.082633,"addr":"Hästskogatan","type":"yes"},{"id":"xx577164_128968","name":"Bosnisk Islamiska församlingen Borås","lat":57.716375,"lng":12.89675,"addr":"","type":"mosque"},{"id":"xx584222_138634","name":"Skövde moské","lat":58.422177,"lng":13.863431,"addr":"","type":"mosque"},{"id":"xx566746_128378","name":"Muslimska begravningsplatsen","lat":56.674591,"lng":12.837832,"addr":"","type":"mosque"},{"id":"xx555663_130823","name":"Islamic place","lat":55.566268,"lng":13.082281,"addr":"","type":"mosque"},{"id":"xx599623_108815","name":"Islamic place","lat":59.962334,"lng":10.881493,"addr":"","type":"place_of_worship"},{"id":"xx596614_107937","name":"Badr moské","lat":59.661364,"lng":10.793662,"addr":"","type":"place_of_worship"},{"id":"xx599198_104598","name":"Al-Noor Islamic Centre","lat":59.919791,"lng":10.459766,"addr":"","type":"place_of_worship"},{"id":"xx599320_108567","name":"Ahmaddiyya","lat":59.931959,"lng":10.856677,"addr":"","type":"mosque"},{"id":"xx599146_107639","name":"Central Jamaat-E Ahl-E sunnat Norway","lat":59.914625,"lng":10.76388,"addr":"","type":"mosque"},{"id":"xx599119_107624","name":"ICC Islamic Cultural Centre Norway","lat":59.911867,"lng":10.762445,"addr":"","type":"mosque"},{"id":"xx599106_107741","name":"Central Jam-E-Mosque World Islamic Mission Norway","lat":59.910554,"lng":10.774085,"addr":"","type":"mosque"},{"id":"xx599264_107682","name":"Madani Masjid","lat":59.926385,"lng":10.768182,"addr":"","type":"mosque"},{"id":"xx599196_107672","name":"Masjid Attaouba","lat":59.919637,"lng":10.767165,"addr":"","type":"mosque"},{"id":"xx599219_107060","name":"Nor Moské","lat":59.921896,"lng":10.705975,"addr":"","type":"kindergarten"},{"id":"xx599398_108985","name":"Baitun Nasr moské","lat":59.939762,"lng":10.898516,"addr":"","type":"mosque"},{"id":"xx599098_107760","name":"Tawfiiq Islamsk Senter","lat":59.909806,"lng":10.775968,"addr":"","type":"religious"},{"id":"xx590463_100402","name":"Larvik moské","lat":59.04629,"lng":10.040249,"addr":"","type":"mosque"},{"id":"xx595807_111672","name":"Muslimsk kultursenter Askim","lat":59.580721,"lng":11.167208,"addr":"","type":"church"},{"id":"xx594336_106643","name":"Rehmani Masjid","lat":59.433622,"lng":10.664256,"addr":"","type":"church"},{"id":"xx599196_107671","name":"Masjid Attaouba","lat":59.919619,"lng":10.767132,"addr":"","type":"mosque"},{"id":"xx594336_106642","name":"Rehmani Masjid","lat":59.433624,"lng":10.66421,"addr":"","type":"church"},{"id":"xx599313_108511","name":"Muslimsk gravlund / المقبرة الإسلامية","lat":59.931344,"lng":10.851082,"addr":"","type":"mosque"},{"id":"xx591230_113945","name":"Halden moské","lat":59.122982,"lng":11.394528,"addr":"","type":"mosque"},{"id":"xx598497_108271","name":"Søndre Nordstrand Muslimske Senter","lat":59.84974,"lng":10.82709,"addr":"","type":"mosque"},{"id":"xx598418_108030","name":"Tauheed Moské","lat":59.841781,"lng":10.802992,"addr":"","type":"mosque"},{"id":"xx591317_102281","name":"Islamic place","lat":59.131698,"lng":10.228111,"addr":"","type":"civic"},{"id":"xx599313_108510","name":"Muslimsk gravlund / المقبرة الإسلامية","lat":59.931328,"lng":10.851041,"addr":"","type":"mosque"},{"id":"xx597149_108413","name":"Salahadin moské Ski","lat":59.714928,"lng":10.841338,"addr":"","type":"mosque"}]