[{"id":"xx562628_438912","name":"Islamic place","lat":56.262843,"lng":43.891187,"addr":"улица Мельникова","type":"mosque"},{"id":"xx562628_438911","name":"Islamic place","lat":56.262815,"lng":43.891121,"addr":"улица Мельникова","type":"mosque"},{"id":"xx562628_438914","name":"Соборная мечеть «Тауба»","lat":56.262779,"lng":43.891431,"addr":"","type":"place_of_worship"},{"id":"xx562082_430606","name":"Islamic place","lat":56.208212,"lng":43.060595,"addr":"","type":"place_of_worship"},{"id":"xx562880_438957","name":"Мечеть №2","lat":56.288029,"lng":43.895672,"addr":"","type":"place_of_worship"},{"id":"xx569643_409852","name":"Соборная мечеть","lat":56.96434,"lng":40.985167,"addr":"проспект Строителей","type":"yes"},{"id":"xx560334_404261","name":"Мусульманское кладбище","lat":56.033376,"lng":40.426096,"addr":"","type":"mosque"},{"id":"xx560333_404261","name":"Мусульманское кладбище","lat":56.033276,"lng":40.426055,"addr":"","type":"mosque"},{"id":"xx561653_404808","name":"Владимирская Соборная мечеть","lat":56.165305,"lng":40.480801,"addr":"Добросельская улица","type":"mosque"},{"id":"xx577579_409641","name":"Islamic place","lat":57.757853,"lng":40.964081,"addr":"Советская улица","type":"yes"},{"id":"xx577578_409641","name":"Islamic place","lat":57.757794,"lng":40.964065,"addr":"Советская улица","type":"yes"},{"id":"xx563602_440925","name":"Мечеть","lat":56.360203,"lng":44.092456,"addr":"улица Фигнер","type":"yes"},{"id":"xx555525_420713","name":"Муромская мечеть","lat":55.552512,"lng":42.071285,"addr":"","type":"mosque"},{"id":"xx550264_415330","name":"Соборная мечеть Подлипок","lat":55.026403,"lng":41.532961,"addr":"","type":"mosque"},{"id":"xx550264_415329","name":"Соборная мечеть Подлипок","lat":55.026371,"lng":41.532946,"addr":"","type":"mosque"},{"id":"xx563235_440377","name":"Нижегородская соборная мечеть","lat":56.323459,"lng":44.037655,"addr":"","type":"place_of_worship"}]