[{"id":"xx95956_284356","name":"Abyei Masjid","lat":9.595608,"lng":28.43557,"addr":"","type":"mosque"},{"id":"xx50286_251350","name":"Islamic place","lat":5.02861,"lng":25.134991,"addr":"","type":"place_of_worship"},{"id":"xx93359_297839","name":"Sector 1 Mosque","lat":9.335943,"lng":29.783897,"addr":"","type":"place_of_worship"},{"id":"xx77089_279934","name":"Suk Elhajal","lat":7.708878,"lng":27.993417,"addr":"","type":"yes"},{"id":"xx77026_280016","name":"Islamic place","lat":7.70263,"lng":28.001608,"addr":"","type":"yes"},{"id":"xx92244_291658","name":"Islamic place","lat":9.224448,"lng":29.165769,"addr":"","type":"yes"},{"id":"xx76966_279780","name":"Islamic place","lat":7.696593,"lng":27.977991,"addr":"","type":"mosque"},{"id":"xx76957_279967","name":"Islamic place","lat":7.695655,"lng":27.996678,"addr":"","type":"mosque"},{"id":"xx92433_297911","name":"Bentiu Mosque","lat":9.243284,"lng":29.791115,"addr":"","type":"yes"},{"id":"xx84734_256735","name":"Earth Mosque","lat":8.473351,"lng":25.673454,"addr":"","type":"yes"},{"id":"xx77124_279864","name":"Daraja Mosque","lat":7.712393,"lng":27.986435,"addr":"","type":"yes"}]